{
  "version": 0.6,
  "generator": "Overpass API 0.7.62.8 e802775f",
  "osm3s": {
    "timestamp_osm_base": "2025-12-02T13:17:28Z",
    "copyright": "The data included in this document is from www.openstreetmap.org. The data is made available under ODbL."
  },
  "elements": [

{
  "type": "node",
  "id": 263302800,
  "lat": -3.8948129,
  "lon": -38.6205965,
  "tags": {
    "addr:city": "Pacatuba",
    "internet_access": "no",
    "name": "Carlito Benevides",
    "public_transport": "station",
    "railway": "station",
    "station": "subway",
    "subway": "yes"
  }
},
{
  "type": "node",
  "id": 263302921,
  "lat": -3.7456244,
  "lon": -38.5457799,
  "tags": {
    "addr:city": "Fortaleza",
    "addr:suburb": "Damas",
    "internet_access": "no",
    "name": "Padre Cícero",
    "public_transport": "station",
    "railway": "station",
    "start_date": "23/12/2019",
    "station": "subway",
    "subway": "yes",
    "website": "https://www.metrofor.ce.gov.br/linha-sul/",
    "wheelchair": "yes"
  }
},
{
  "type": "node",
  "id": 289662441,
  "lat": -5.5858859,
  "lon": -47.4404226,
  "tags": {
    "name": "Imperatriz",
    "railway": "station"
  }
},
{
  "type": "node",
  "id": 303847107,
  "lat": -15.7754732,
  "lon": -47.9409989,
  "tags": {
    "alt_name": "Rodoferroviária",
    "name": "Brasília",
    "public_transport": "station",
    "railway": "station",
    "wikidata": "Q3438245",
    "wikipedia": "pt:Rodoferroviária de Brasília"
  }
},
{
  "type": "node",
  "id": 345841880,
  "lat": -1.1928263,
  "lon": -47.1827795,
  "tags": {
    "amenity": "bus_station",
    "internet_access": "no",
    "name": "Estação Rodoviária Raimundo Felipe Iglesias",
    "operator": "Prefeitura Municipal",
    "source": "survey"
  }
},
{
  "type": "node",
  "id": 516715016,
  "lat": -15.9309044,
  "lon": -48.1110029,
  "tags": {
    "amenity": "bus_station",
    "name": "Terminal Rodoviário do Recanto das Emas"
  }
},
{
  "type": "node",
  "id": 589545758,
  "lat": -16.7454142,
  "lon": -49.2813528,
  "tags": {
    "amenity": "bus_station",
    "bus": "yes",
    "name": "Terminal Cruzeiro",
    "public_transport": "station"
  }
},
{
  "type": "node",
  "id": 622396167,
  "lat": -12.8630906,
  "lon": -38.2922771,
  "tags": {
    "amenity": "bus_station",
    "name": "Terminal Portão"
  }
},
{
  "type": "node",
  "id": 656826877,
  "lat": -5.0930828,
  "lon": -42.7881472,
  "tags": {
    "building": "yes",
    "name": "Ilhotas",
    "public_transport": "stop_position",
    "railway": "station"
  }
},
{
  "type": "node",
  "id": 662269290,
  "lat": -12.7002523,
  "lon": -38.3241996,
  "tags": {
    "amenity": "bus_station",
    "bus": "yes",
    "highway": "bus_stop",
    "public_transport": "station",
    "source": "survey"
  }
},
{
  "type": "node",
  "id": 773872844,
  "lat": -4.3729064,
  "lon": -44.3387170,
  "tags": {
    "amenity": "bus_station",
    "bus": "yes",
    "public_transport": "station"
  }
},
{
  "type": "node",
  "id": 773872864,
  "lat": -5.1594043,
  "lon": -42.7708665,
  "tags": {
    "amenity": "bus_station",
    "bus": "yes",
    "name": "Rodoviara dos Pobres",
    "public_transport": "station"
  }
},
{
  "type": "node",
  "id": 773884329,
  "lat": -6.7655474,
  "lon": -38.2209842,
  "tags": {
    "amenity": "bus_station",
    "bus": "yes",
    "name": "Terminal Rodoviário de Sousa",
    "public_transport": "station"
  }
},
{
  "type": "node",
  "id": 791603929,
  "lat": -9.3196025,
  "lon": -36.4722158,
  "tags": {
    "railway": "station",
    "source": "CBERS, INPE, 03-01-2009"
  }
},
{
  "type": "node",
  "id": 791829835,
  "lat": -9.2479663,
  "lon": -36.0163992,
  "tags": {
    "railway": "station",
    "source": "CBERS, INPE, 20-10-2008"
  }
},
{
  "type": "node",
  "id": 959095087,
  "lat": -10.9484069,
  "lon": -37.0738854,
  "tags": {
    "amenity": "bus_station",
    "bus": "yes",
    "name": "Terminal do DIA",
    "public_transport": "station",
    "wheelchair": "limited"
  }
},
{
  "type": "node",
  "id": 959099071,
  "lat": -10.9088135,
  "lon": -37.0522394,
  "tags": {
    "amenity": "bus_station",
    "bus": "yes",
    "name": "Terminal do Centro",
    "public_transport": "station"
  }
},
{
  "type": "node",
  "id": 959099076,
  "lat": -10.9245718,
  "lon": -37.1048626,
  "tags": {
    "addr:city": "São Cristóvão",
    "addr:postcode": "49100-000",
    "addr:street": "Avenida Governador João Alves Filho",
    "addr:suburb": "Jardim Rosal Elze",
    "amenity": "bus_station",
    "bus": "yes",
    "internet_access": "yes",
    "name": "Terminal Campus",
    "nohousenumber": "yes",
    "public_transport": "station"
  }
},
{
  "type": "node",
  "id": 961617953,
  "lat": -16.3605013,
  "lon": -46.9051350,
  "tags": {
    "addr:city": "Unaí",
    "amenity": "bus_station",
    "name": "Terminal Rodoviário Aprígio Furtado de Oliveira"
  }
},
{
  "type": "node",
  "id": 979379521,
  "lat": -15.8367271,
  "lon": -48.0170565,
  "tags": {
    "addr:city": "Brasília",
    "addr:street": "Avenida Boulevard Sul",
    "addr:suburb": "Águas Claras",
    "internet_access": "no",
    "level": "-1",
    "name": "Arniqueiras",
    "operator": "Companhia do Metropolitano do Distrito Federal - Metrô",
    "public_transport": "station",
    "railway": "station",
    "station": "subway",
    "subway": "yes",
    "wheelchair": "yes",
    "wikidata": "Q10275576",
    "wikipedia": "pt:Estação Arniqueiras",
    "wikiversity": "https://pt.wikiversity.org/wiki/Grupo_de_Estudos_Batalha_da_Escada_em_CIC"
  }
},
{
  "type": "node",
  "id": 1171310512,
  "lat": -11.2740773,
  "lon": -37.4473334,
  "tags": {
    "amenity": "bus_station",
    "bus": "yes",
    "name": "Rodoviária de Estância",
    "public_transport": "station"
  }
},
{
  "type": "node",
  "id": 1182964887,
  "lat": -12.8737625,
  "lon": -38.4676309,
  "tags": {
    "amenity": "bus_station",
    "bus": "yes",
    "name": "Final de linha Mirantes de Periperi",
    "public_transport": "station",
    "source": "Bing;local knowledge"
  }
},
{
  "type": "node",
  "id": 1196075755,
  "lat": -12.9838740,
  "lon": -38.4837886,
  "tags": {
    "name": "Bonocô",
    "public_transport": "station",
    "railway": "station",
    "station": "subway",
    "subway": "yes"
  }
},
{
  "type": "node",
  "id": 1278857493,
  "lat": -14.2046732,
  "lon": -41.6634614,
  "tags": {
    "name": "Estação FCA - Brumado",
    "old_name": "Estação da RFFSA de Brumado",
    "operator": "Ferrovia Centro Atlântica",
    "public_transport": "station",
    "railway": "station"
  }
},
{
  "type": "node",
  "id": 1281989770,
  "lat": -15.2945132,
  "lon": -39.0724002,
  "tags": {
    "amenity": "bus_station",
    "bus": "yes",
    "int_name": "Bus Station Una",
    "name": "Rodoviaria Una",
    "public_transport": "station"
  }
},
{
  "type": "node",
  "id": 1327083511,
  "lat": -15.7755764,
  "lon": -47.9407200,
  "tags": {
    "amenity": "bus_station",
    "bus": "yes",
    "name": "Antiga Rodoferroviária de Brasília",
    "public_transport": "station"
  }
},
{
  "type": "node",
  "id": 1341763912,
  "lat": -13.7919736,
  "lon": -47.4600993,
  "tags": {
    "amenity": "bus_station"
  }
},
{
  "type": "node",
  "id": 1362106232,
  "lat": -12.6055452,
  "lon": -38.9692291,
  "tags": {
    "amenity": "bus_station",
    "bus": "yes",
    "name": "Rodoviária de São Félix",
    "public_transport": "station"
  }
},
{
  "type": "node",
  "id": 1448470658,
  "lat": -14.2039836,
  "lon": -41.6578627,
  "tags": {
    "amenity": "bus_station",
    "name": "Viação Novo Horizonte - Ponto de Apoio"
  }
},
{
  "type": "node",
  "id": 1611177938,
  "lat": -14.4898125,
  "lon": -42.2222437,
  "tags": {
    "amenity": "bus_station",
    "name": "Rodoviária de Caculé"
  }
},
{
  "type": "node",
  "id": 1643692487,
  "lat": -12.5123649,
  "lon": -41.5748673,
  "tags": {
    "amenity": "bus_station",
    "bus": "yes",
    "name": "Rodoviária de Palmeiras",
    "public_transport": "station"
  }
},
{
  "type": "node",
  "id": 1652977642,
  "lat": -6.9032064,
  "lon": -37.5168828,
  "tags": {
    "name": "Malta",
    "operator": "Transnordestina Logística SA",
    "railway": "station",
    "source": "Known place",
    "wikidata": "Q28679972",
    "wikipedia": "pt:Estação Ferroviária de Malta"
  }
},
{
  "type": "node",
  "id": 1733534694,
  "lat": -12.6671343,
  "lon": -38.5420877,
  "tags": {
    "name": "Candeias",
    "public_transport": "station",
    "railway": "station"
  }
},
{
  "type": "node",
  "id": 1733653774,
  "lat": -6.7695655,
  "lon": -38.2349475,
  "tags": {
    "name": "Sousa",
    "platforms": "2",
    "railway": "station"
  }
},
{
  "type": "node",
  "id": 1737978381,
  "lat": -6.3252039,
  "lon": -47.4334866,
  "tags": {
    "amenity": "bus_station",
    "bus": "yes",
    "name": "Rodoviária Tocantinópolis",
    "public_transport": "station"
  }
},
{
  "type": "node",
  "id": 1777309441,
  "lat": -15.8859327,
  "lon": -48.0229994,
  "tags": {
    "addr:city": "Riacho Fundo I",
    "addr:street": "QN 09 Área Central 04",
    "amenity": "bus_station",
    "name": "Terminal Rodoviário"
  }
},
{
  "type": "node",
  "id": 1798496550,
  "lat": -7.0236558,
  "lon": -37.2788561,
  "tags": {
    "name": "Patos",
    "public_transport": "station",
    "railway": "station",
    "wikidata": "Q106544819",
    "wikipedia": "pt:Estação Ferroviária de Patos"
  }
},
{
  "type": "node",
  "id": 1844896265,
  "lat": -17.2566500,
  "lon": -53.3154106,
  "tags": {
    "name": "Terminal de Cargas de Alto Araguaia",
    "railway": "station"
  }
},
{
  "type": "node",
  "id": 1844896266,
  "lat": -17.9862692,
  "lon": -53.1895740,
  "tags": {
    "name": "Terminal de Cargas de Alto Taquari",
    "public_transport": "station",
    "railway": "station"
  }
},
{
  "type": "node",
  "id": 1863146749,
  "lat": -6.5191128,
  "lon": -38.4073597,
  "tags": {
    "amenity": "bus_station",
    "name": "Rodoviária de Uiraúna"
  }
},
{
  "type": "node",
  "id": 1863757297,
  "lat": -6.7315707,
  "lon": -38.4483339,
  "tags": {
    "amenity": "bus_station"
  }
},
{
  "type": "node",
  "id": 1942313384,
  "lat": -5.1906324,
  "lon": -39.2956534,
  "tags": {
    "amenity": "bus_station"
  }
},
{
  "type": "node",
  "id": 1952475517,
  "lat": -3.7156748,
  "lon": -40.9887246,
  "tags": {
    "addr:city": "Tianguá",
    "addr:street": "Avenida Prefeito Jacques Nunes",
    "amenity": "bus_station",
    "bus": "yes",
    "name": "Rodoviária de Tianguá",
    "public_transport": "station"
  }
},
{
  "type": "node",
  "id": 1962656964,
  "lat": -12.7296500,
  "lon": -39.1813659,
  "tags": {
    "amenity": "bus_station",
    "bus": "yes",
    "name": "Rodoviária de Sapeaçu",
    "public_transport": "station"
  }
},
{
  "type": "node",
  "id": 1972200177,
  "lat": -9.5031525,
  "lon": -36.0249831,
  "tags": {
    "amenity": "bus_station",
    "name": "Terminal Atalaia"
  }
},
{
  "type": "node",
  "id": 1972200180,
  "lat": -9.3700893,
  "lon": -36.3727285,
  "tags": {
    "amenity": "bus_station",
    "highway": "bus_stop",
    "name": "Terminal Paulo Jacinto"
  }
},
{
  "type": "node",
  "id": 1972200184,
  "lat": -9.3204834,
  "lon": -36.4735962,
  "tags": {
    "amenity": "bus_station",
    "name": "Terminal Quebrangulo"
  }
},
{
  "type": "node",
  "id": 1975251823,
  "lat": -7.0224808,
  "lon": -37.2772252,
  "tags": {
    "addr:street": "Rua Frei Caneca",
    "amenity": "bus_station",
    "bus": "yes",
    "name": "Terminal de Integração de Patos",
    "public_transport": "station"
  }
},
{
  "type": "node",
  "id": 1984716798,
  "lat": -17.9058295,
  "lon": -48.1687426,
  "tags": {
    "disused": "yes",
    "name": "Engenheiro Raul Gonçalves-nova",
    "railway": "station"
  }
},
{
  "type": "node",
  "id": 1984971565,
  "lat": -17.3506799,
  "lon": -48.2449106,
  "tags": {
    "public_transport": "station",
    "railway": "station",
    "source": "Bing"
  }
},
{
  "type": "node",
  "id": 1984971566,
  "lat": -17.3506850,
  "lon": -48.2448316,
  "tags": {
    "public_transport": "station",
    "railway": "station",
    "source": "Bing"
  }
},
{
  "type": "node",
  "id": 1984971567,
  "lat": -17.3506956,
  "lon": -48.2447695,
  "tags": {
    "public_transport": "station",
    "railway": "station",
    "source": "Bing"
  }
},
{
  "type": "node",
  "id": 1991335752,
  "lat": -16.1822611,
  "lon": -50.9526976,
  "tags": {
    "amenity": "bus_station"
  }
},
{
  "type": "node",
  "id": 2032387771,
  "lat": -6.4595186,
  "lon": -37.0983221,
  "tags": {
    "amenity": "bus_station",
    "bus": "yes",
    "public_transport": "station"
  }
},
{
  "type": "node",
  "id": 2040129249,
  "lat": -7.0194393,
  "lon": -37.2593848,
  "tags": {
    "amenity": "bus_station",
    "bus": "yes",
    "covered": "yes",
    "internet_access": "no",
    "name": "Terminal Rodoviário de Patos",
    "operator": "DER",
    "public_transport": "station",
    "wheelchair": "yes"
  }
},
{
  "type": "node",
  "id": 2047769936,
  "lat": -17.1464698,
  "lon": -48.3541472,
  "tags": {
    "disused": "yes",
    "name": "Engenheiro Balduíno",
    "railway": "station"
  }
},
{
  "type": "node",
  "id": 2047790771,
  "lat": -16.9060141,
  "lon": -48.3992558,
  "tags": {
    "disused": "yes",
    "name": "Caraíba",
    "railway": "station"
  }
},
{
  "type": "node",
  "id": 2047791037,
  "lat": -17.0657089,
  "lon": -48.4023976,
  "tags": {
    "disused": "yes",
    "name": "Egerineu Teixeira",
    "railway": "station"
  }
},
{
  "type": "node",
  "id": 2047791048,
  "lat": -17.2976568,
  "lon": -48.2754102,
  "tags": {
    "disused": "yes",
    "railway": "station"
  }
},
{
  "type": "node",
  "id": 2047866536,
  "lat": -16.7420574,
  "lon": -48.5143801,
  "tags": {
    "disused:railway": "station",
    "public_transport": "station",
    "railway": "station",
    "train": "yes"
  }
},
{
  "type": "node",
  "id": 2047888308,
  "lat": -17.0364026,
  "lon": -47.9416978,
  "tags": {
    "disused": "yes",
    "railway": "station"
  }
},
{
  "type": "node",
  "id": 2048647208,
  "lat": -16.5254976,
  "lon": -47.8037147,
  "tags": {
    "disused": "yes",
    "railway": "station"
  }
},
{
  "type": "node",
  "id": 2051805458,
  "lat": -17.3534341,
  "lon": -44.9462190,
  "tags": {
    "railway": "station"
  }
},
{
  "type": "node",
  "id": 2052835857,
  "lat": -6.8815726,
  "lon": -37.5921248,
  "tags": {
    "name": "Condado",
    "railway": "station"
  }
},
{
  "type": "node",
  "id": 2078393399,
  "lat": -17.7435184,
  "lon": -48.6232104,
  "tags": {
    "amenity": "bus_station"
  }
},
{
  "type": "node",
  "id": 2087409254,
  "lat": -8.0835170,
  "lon": -48.2334730,
  "tags": {
    "name": "Colinas do Tocantins",
    "public_transport": "station",
    "railway": "station"
  }
},
{
  "type": "node",
  "id": 2092774014,
  "lat": -16.3878394,
  "lon": -39.5839747,
  "tags": {
    "amenity": "bus_station",
    "bus": "yes",
    "public_transport": "station"
  }
},
{
  "type": "node",
  "id": 2097457391,
  "lat": -6.9940363,
  "lon": -36.7127971,
  "tags": {
    "amenity": "bus_station",
    "bus": "yes",
    "name": "Guanabara Passagens",
    "public_transport": "station"
  }
},
{
  "type": "node",
  "id": 2106933789,
  "lat": -15.1649109,
  "lon": -48.2860070,
  "tags": {
    "amenity": "bus_station",
    "bus": "yes",
    "name": "Rodoviária de Padre Bernardo",
    "public_transport": "station"
  }
},
{
  "type": "node",
  "id": 2140415135,
  "lat": -10.6966919,
  "lon": -37.0335570,
  "tags": {
    "amenity": "bus_station",
    "name": "Terminal Rodoviário"
  }
},
{
  "type": "node",
  "id": 2140418655,
  "lat": -10.6961016,
  "lon": -37.0334604,
  "tags": {
    "name": "Estação Ferroviária",
    "railway": "station"
  }
},
{
  "type": "node",
  "id": 2270721951,
  "lat": -11.3436799,
  "lon": -41.6642527,
  "tags": {
    "amenity": "bus_station",
    "bus": "yes",
    "public_transport": "station"
  }
},
{
  "type": "node",
  "id": 2281150605,
  "lat": -5.5827891,
  "lon": -36.1047328,
  "tags": {
    "disused": "yes",
    "name": "Pedra Preta",
    "railway": "station"
  }
},
{
  "type": "node",
  "id": 2281236356,
  "lat": -5.6971927,
  "lon": -36.2428786,
  "tags": {
    "disused:railway": "station",
    "name": "Lajes",
    "public_transport": "station",
    "railway": "station"
  }
},
{
  "type": "node",
  "id": 2282880399,
  "lat": -5.4990915,
  "lon": -36.5038174,
  "tags": {
    "disused": "yes",
    "name": "Afonso Bezerra",
    "railway": "station"
  }
},
{
  "type": "node",
  "id": 2282908228,
  "lat": -5.1083343,
  "lon": -36.6259127,
  "tags": {
    "disused:railway": "station",
    "name": "Macau",
    "public_transport": "station",
    "railway": "station"
  }
},
{
  "type": "node",
  "id": 2282908427,
  "lat": -5.1570778,
  "lon": -36.6022299,
  "tags": {
    "disused": "yes",
    "railway": "station"
  }
},
{
  "type": "node",
  "id": 2289409740,
  "lat": -17.9741900,
  "lon": -48.1744353,
  "tags": {
    "disused": "yes",
    "name": "Veríssimo",
    "railway": "station"
  }
},
{
  "type": "node",
  "id": 2289427049,
  "lat": -17.8410779,
  "lon": -48.1751006,
  "tags": {
    "disused": "yes",
    "name": "Engenheiro Raul Gonçalves",
    "railway": "station"
  }
},
{
  "type": "node",
  "id": 2289527324,
  "lat": -17.7420212,
  "lon": -48.1721250,
  "tags": {
    "disused": "yes",
    "name": "Ipameri",
    "railway": "station"
  }
},
{
  "type": "node",
  "id": 2289528179,
  "lat": -17.4626616,
  "lon": -48.2002013,
  "tags": {
    "disused": "yes",
    "name": "Urutaí",
    "railway": "station"
  }
},
{
  "type": "node",
  "id": 2291047184,
  "lat": -16.9790258,
  "lon": -48.4100519,
  "tags": {
    "disused": "yes",
    "name": "Posto km 265",
    "railway": "station",
    "railway:position": "265"
  }
},
{
  "type": "node",
  "id": 2296318907,
  "lat": -12.8287198,
  "lon": -38.2310918,
  "tags": {
    "amenity": "bus_station",
    "bus": "yes",
    "name": "Teminal de Ônibus de Jauá",
    "public_transport": "station"
  }
},
{
  "type": "node",
  "id": 2301236145,
  "lat": -17.3516598,
  "lon": -48.2451236,
  "tags": {
    "disused": "yes",
    "name": "Roncador",
    "railway": "station"
  }
},
{
  "type": "node",
  "id": 2301236150,
  "lat": -17.3516765,
  "lon": -48.2450561,
  "tags": {
    "disused": "yes",
    "name": "Roncador",
    "railway": "station"
  }
},
{
  "type": "node",
  "id": 2320030767,
  "lat": -12.1403202,
  "lon": -38.4243963,
  "tags": {
    "amenity": "bus_station",
    "name": "Terminal Urbano"
  }
},
{
  "type": "node",
  "id": 2379536486,
  "lat": -11.2911992,
  "lon": -41.9859704,
  "tags": {
    "amenity": "bus_station",
    "bus": "yes",
    "name": "Terminal Rodoviário",
    "public_transport": "station"
  }
},
{
  "type": "node",
  "id": 2380783288,
  "lat": -17.6866896,
  "lon": -40.1092692,
  "tags": {
    "amenity": "bus_station",
    "bus": "yes",
    "name": "Rodoviária de Ibirapuã",
    "public_transport": "station"
  }
},
{
  "type": "node",
  "id": 2394136437,
  "lat": -14.5385223,
  "lon": -49.1076747,
  "tags": {
    "name": "Uruaçu",
    "public_transport": "station",
    "railway": "station"
  }
},
{
  "type": "node",
  "id": 2402733526,
  "lat": -10.9970377,
  "lon": -37.3064627,
  "tags": {
    "amenity": "bus_station",
    "bus": "yes",
    "name": "Rodoviaria de Itaporanga d'Ajuda",
    "public_transport": "station"
  }
},
{
  "type": "node",
  "id": 2419202135,
  "lat": -16.7646097,
  "lon": -47.6139633,
  "tags": {
    "amenity": "bus_station",
    "building": "public",
    "bus": "yes",
    "public_transport": "station"
  }
},
{
  "type": "node",
  "id": 2430441476,
  "lat": -13.5378579,
  "lon": -39.0967626,
  "tags": {
    "amenity": "bus_station",
    "name": "Estação Rodoviária de Taperoá"
  }
},
{
  "type": "node",
  "id": 2437698395,
  "lat": -17.1427592,
  "lon": -49.9881678,
  "tags": {
    "amenity": "bus_station",
    "bus": "yes",
    "name": "Estação Rodoviaria de Indiara",
    "public_transport": "station"
  }
},
{
  "type": "node",
  "id": 2443114200,
  "lat": -11.7553952,
  "lon": -40.7129129,
  "tags": {
    "amenity": "bus_station",
    "name": "Terminal Rodoviário"
  }
},
{
  "type": "node",
  "id": 2450554097,
  "lat": -8.9846942,
  "lon": -38.2176607,
  "tags": {
    "amenity": "bus_station"
  }
},
{
  "type": "node",
  "id": 2464293575,
  "lat": -10.2034030,
  "lon": -48.5599267,
  "tags": {
    "name": "Terminal Multimodal de Palmas / Porto Nacional",
    "public_transport": "station",
    "railway": "station"
  }
},
{
  "type": "node",
  "id": 2464294016,
  "lat": -12.4952892,
  "lon": -49.0294173,
  "tags": {
    "name": "Alvorada",
    "public_transport": "station",
    "railway": "station"
  }
},
{
  "type": "node",
  "id": 2464294682,
  "lat": -8.9720303,
  "lon": -48.3686818,
  "tags": {
    "name": "Guaraí",
    "public_transport": "station",
    "railway": "station"
  }
},
{
  "type": "node",
  "id": 2469001170,
  "lat": -6.5757447,
  "lon": -47.4703425,
  "tags": {
    "name": "Estreito",
    "public_transport": "station",
    "railway": "station"
  }
},
{
  "type": "node",
  "id": 2478175965,
  "lat": -16.6210027,
  "lon": -48.7405212,
  "tags": {
    "railway": "station"
  }
},
{
  "type": "node",
  "id": 2480805310,
  "lat": -7.1257846,
  "lon": -37.0451343,
  "tags": {
    "name": "Espinharas",
    "public_transport": "station",
    "railway": "station",
    "wikidata": "Q107009621",
    "wikipedia": "pt:Estação Ferroviária Espinharas"
  }
},
{
  "type": "node",
  "id": 2491485866,
  "lat": -6.9388465,
  "lon": -37.3880102,
  "tags": {
    "name": "Argemiro de Souza",
    "railway": "station",
    "wikidata": "Q107018637",
    "wikipedia": "pt:Estação Ferroviária Argemiro de Souza"
  }
},
{
  "type": "node",
  "id": 2492834176,
  "lat": -7.3274773,
  "lon": -48.0744782,
  "tags": {
    "name": "Araguaína",
    "public_transport": "station",
    "railway": "station"
  }
},
{
  "type": "node",
  "id": 2533135625,
  "lat": -7.0695299,
  "lon": -36.0683251,
  "tags": {
    "name": "Pocinhos",
    "public_transport": "station",
    "railway": "station",
    "wikidata": "Q106986119",
    "wikipedia": "pt:Estação Ferroviária de Pocinhos"
  }
},
{
  "type": "node",
  "id": 2541870389,
  "lat": -9.3988850,
  "lon": -38.2319321,
  "tags": {
    "amenity": "bus_station",
    "bus": "yes",
    "highway": "bus_stop",
    "public_transport": "platform"
  }
},
{
  "type": "node",
  "id": 2543000619,
  "lat": -1.4014176,
  "lon": -48.4400349,
  "tags": {
    "amenity": "bus_station"
  }
},
{
  "type": "node",
  "id": 2573929315,
  "lat": -10.8206752,
  "lon": -42.7239715,
  "tags": {
    "amenity": "bus_station",
    "name": "Estação Rodoviária"
  }
},
{
  "type": "node",
  "id": 2602377379,
  "lat": -14.1348268,
  "lon": -47.5197263,
  "tags": {
    "amenity": "bus_station",
    "bus": "yes",
    "name": "Terminal Rodoviário",
    "public_transport": "station"
  }
},
{
  "type": "node",
  "id": 2621156147,
  "lat": -6.7744850,
  "lon": -37.8031402,
  "tags": {
    "name": "Pombal",
    "public_transport": "station",
    "railway": "station",
    "wikidata": "Q107009626",
    "wikipedia": "pt:Estação Ferroviária de Pombal (Ramal de Campina Grande)"
  }
},
{
  "type": "node",
  "id": 2636142008,
  "lat": -14.6613366,
  "lon": -52.3587462,
  "tags": {
    "amenity": "bus_station",
    "public_transport": "station",
    "wheelchair": "yes"
  }
},
{
  "type": "node",
  "id": 2675035910,
  "lat": -7.8917179,
  "lon": -37.1239548,
  "tags": {
    "amenity": "bus_station",
    "bus": "yes",
    "name": "Terminal Realbus",
    "public_transport": "station"
  }
},
{
  "type": "node",
  "id": 2699222227,
  "lat": -7.4793780,
  "lon": -38.9808215,
  "tags": {
    "amenity": "bus_station"
  }
},
{
  "type": "node",
  "id": 2741306529,
  "lat": -7.3151913,
  "lon": -38.5134661,
  "tags": {
    "amenity": "bus_station",
    "bus": "yes",
    "public_transport": "station"
  }
},
{
  "type": "node",
  "id": 2752868812,
  "lat": -4.2609885,
  "lon": -38.9338659,
  "tags": {
    "amenity": "bus_station",
    "bus": "yes",
    "name": "Rodoviária - Agência Fretcar",
    "public_transport": "station"
  }
},
{
  "type": "node",
  "id": 2754600649,
  "lat": -2.5673436,
  "lon": -44.3319124,
  "tags": {
    "name": "Anjo da Guarda",
    "public_transport": "stop_position",
    "railway": "station",
    "train": "yes"
  }
},
{
  "type": "node",
  "id": 2780674983,
  "lat": -10.9169151,
  "lon": -37.6668397,
  "tags": {
    "amenity": "bus_station",
    "bus": "yes",
    "public_transport": "station"
  }
},
{
  "type": "node",
  "id": 2786817658,
  "lat": -4.2645878,
  "lon": -43.0216402,
  "tags": {
    "amenity": "bus_station",
    "bus": "yes",
    "public_transport": "station"
  }
},
{
  "type": "node",
  "id": 2795638814,
  "lat": -11.0196913,
  "lon": -37.4782195,
  "tags": {
    "public_transport": "station",
    "railway": "station"
  }
},
{
  "type": "node",
  "id": 2807486050,
  "lat": -15.8974283,
  "lon": -52.2414278,
  "tags": {
    "amenity": "bus_station",
    "name": "Terminal Rodoviário de Aragarças"
  }
},
{
  "type": "node",
  "id": 2830651090,
  "lat": -16.6675087,
  "lon": -49.3036643,
  "tags": {
    "alt_name": "Sub Terminal Rodoviario de Campinas",
    "amenity": "bus_station",
    "bus": "yes",
    "name": "Rodoviária de Campinas",
    "public_transport": "station",
    "shelter": "yes"
  }
},
{
  "type": "node",
  "id": 2880469923,
  "lat": -7.1225931,
  "lon": -36.9408439,
  "tags": {
    "name": "Areia de Baraúnas",
    "railway": "station",
    "wikidata": "Q107009624",
    "wikipedia": "pt:Estação Ferroviária de Areia de Baraúnas"
  }
},
{
  "type": "node",
  "id": 2880469955,
  "lat": -7.0818916,
  "lon": -36.7347899,
  "tags": {
    "historic": "ruins",
    "name": "João Leite",
    "old_name": "Estaca Zero",
    "public_transport": "station",
    "railway": "station",
    "wikidata": "Q106998023",
    "wikipedia": "pt:Estação Ferroviária João Leite"
  }
},
{
  "type": "node",
  "id": 2929726772,
  "lat": -13.0341761,
  "lon": -46.7674019,
  "tags": {
    "amenity": "bus_station",
    "bus": "yes",
    "name": "Terminal Rodoviário",
    "public_transport": "station"
  }
},
{
  "type": "node",
  "id": 2934484539,
  "lat": -1.7265196,
  "lon": -48.8780099,
  "tags": {
    "amenity": "bus_station",
    "name": "Terminal Municipal",
    "public_transport": "station"
  }
},
{
  "type": "node",
  "id": 2934532714,
  "lat": -11.0696125,
  "lon": -37.7277925,
  "tags": {
    "amenity": "bus_station",
    "bus": "yes",
    "public_transport": "station"
  }
},
{
  "type": "node",
  "id": 2934715753,
  "lat": -10.7476157,
  "lon": -37.4940130,
  "tags": {
    "amenity": "bus_station",
    "bus": "yes",
    "public_transport": "station"
  }
},
{
  "type": "node",
  "id": 2934715755,
  "lat": -10.7477395,
  "lon": -37.4939401,
  "tags": {
    "amenity": "bus_station",
    "bus": "yes",
    "public_transport": "station"
  }
},
{
  "type": "node",
  "id": 2937575340,
  "lat": -16.1338664,
  "lon": -47.9529504,
  "tags": {
    "name": "Jardim do Ingá",
    "public_transport": "no",
    "railway": "station"
  }
},
{
  "type": "node",
  "id": 2951427680,
  "lat": -10.9187678,
  "lon": -37.6697308,
  "tags": {
    "amenity": "bus_station",
    "bus": "yes",
    "public_transport": "station"
  }
},
{
  "type": "node",
  "id": 2986975179,
  "lat": -16.8192167,
  "lon": -50.4100108,
  "tags": {
    "amenity": "bus_station"
  }
},
{
  "type": "node",
  "id": 2991290125,
  "lat": -17.2005799,
  "lon": -48.7073000,
  "tags": {
    "amenity": "bus_station"
  }
},
{
  "type": "node",
  "id": 3026120734,
  "lat": -15.8228673,
  "lon": -50.6089571,
  "tags": {
    "amenity": "bus_station"
  }
},
{
  "type": "node",
  "id": 3132434207,
  "lat": -16.0023592,
  "lon": -47.9862440,
  "tags": {
    "addr:city": "Santa Maria",
    "air_conditioning": "no",
    "amenity": "bus_station",
    "baby_feeding": "no",
    "bus": "yes",
    "internet_access": "yes",
    "internet_access:fee": "no",
    "level": "0",
    "name": "Terminal de Integração BRT de Santa Maria",
    "public_transport": "station",
    "ref": "502",
    "wheelchair": "yes",
    "wikidata": "Q18499543",
    "wikimedia_commons": "Category:Expresso DF",
    "wikipedia": "pt:BRT Expresso DF"
  }
},
{
  "type": "node",
  "id": 3147933865,
  "lat": -15.9924980,
  "lon": -47.9862652,
  "tags": {
    "amenity": "bus_station",
    "bus": "yes",
    "name": "Santos Dumont",
    "operator": "ExpressoDF",
    "public_transport": "station"
  }
},
{
  "type": "node",
  "id": 3158650693,
  "lat": -13.4320522,
  "lon": -49.1420062,
  "tags": {
    "amenity": "bus_station",
    "name": "Rodoviária de Porangatu"
  }
},
{
  "type": "node",
  "id": 3172940285,
  "lat": -4.7066532,
  "lon": -40.5558805,
  "tags": {
    "amenity": "bus_station"
  }
},
{
  "type": "node",
  "id": 3292231321,
  "lat": -17.9904764,
  "lon": -46.9069223,
  "tags": {
    "amenity": "bus_station",
    "name": "Terminal Rodoviário",
    "nature": "rock"
  }
},
{
  "type": "node",
  "id": 3305872190,
  "lat": -3.8075767,
  "lon": -38.5775967,
  "tags": {
    "addr:city": "Fortaleza",
    "internet_access": "no",
    "name": "Mondubim",
    "public_transport": "station",
    "railway": "station",
    "station": "subway",
    "subway": "yes"
  }
},
{
  "type": "node",
  "id": 3350776455,
  "lat": -13.7687771,
  "lon": -42.7183802,
  "tags": {
    "amenity": "bus_station",
    "name": "Ponto de Embarque de Igaporã"
  }
},
{
  "type": "node",
  "id": 3350977134,
  "lat": -6.4477161,
  "lon": -47.4045251,
  "tags": {
    "name": "Porto Franco",
    "railway": "station"
  }
},
{
  "type": "node",
  "id": 3363152539,
  "lat": -17.8205015,
  "lon": -50.5956202,
  "tags": {
    "amenity": "bus_station",
    "bus": "yes",
    "name": "Nacional Expresso",
    "public_transport": "station"
  }
},
{
  "type": "node",
  "id": 3372630975,
  "lat": -8.3433558,
  "lon": -36.4180037,
  "tags": {
    "amenity": "bus_station",
    "building": "public",
    "name": "Rodoviária de Belo Jardim"
  }
},
{
  "type": "node",
  "id": 3384267956,
  "lat": -4.2728360,
  "lon": -41.7710320,
  "tags": {
    "amenity": "bus_station",
    "name": "Terminal Rodoviário Luiz Meneses"
  }
},
{
  "type": "node",
  "id": 3413620342,
  "lat": -16.4399203,
  "lon": -41.0096524,
  "tags": {
    "addr:city": "Jequitinhonha",
    "addr:housenumber": "665",
    "addr:postcode": "39960-000",
    "addr:street": "Avenida Doutor Franco Duarte",
    "addr:suburb": "Centro",
    "amenity": "bus_station",
    "bus": "yes",
    "public_transport": "station",
    "source": "survey"
  }
},
{
  "type": "node",
  "id": 3469738458,
  "lat": -13.5892303,
  "lon": -38.9253850,
  "tags": {
    "amenity": "bus_station",
    "bus": "yes",
    "name": "Associação dos Tratoristas de Boipeba",
    "public_transport": "station"
  }
},
{
  "type": "node",
  "id": 3470690238,
  "lat": -17.5157430,
  "lon": -49.4422996,
  "tags": {
    "amenity": "bus_station",
    "bus": "yes",
    "public_transport": "station"
  }
},
{
  "type": "node",
  "id": 3560120589,
  "lat": -6.1033172,
  "lon": -49.6014648,
  "tags": {
    "amenity": "bus_station"
  }
},
{
  "type": "node",
  "id": 3614659262,
  "lat": -15.8053523,
  "lon": -43.3120234,
  "tags": {
    "name": "Janaúba",
    "public_transport": "station",
    "railway": "station"
  }
},
{
  "type": "node",
  "id": 3639887729,
  "lat": -11.9443045,
  "lon": -38.6305086,
  "tags": {
    "railway": "station"
  }
},
{
  "type": "node",
  "id": 3675781207,
  "lat": -0.6262553,
  "lon": -47.6368251,
  "tags": {
    "amenity": "bus_station"
  }
},
{
  "type": "node",
  "id": 3676951521,
  "lat": -6.8253372,
  "lon": -37.6720927,
  "tags": {
    "name": "Arruda Câmara",
    "railway": "station"
  }
},
{
  "type": "node",
  "id": 3677011427,
  "lat": -0.6202352,
  "lon": -47.3492922,
  "tags": {
    "amenity": "bus_station",
    "name": "Terminal Rodoviário Engenheiro Luiz Alves"
  }
},
{
  "type": "node",
  "id": 3697172619,
  "lat": -5.1851564,
  "lon": -37.3738087,
  "tags": {
    "amenity": "bus_station",
    "name": "Terminal Rodoviário de Mossoró"
  }
},
{
  "type": "node",
  "id": 3707034252,
  "lat": -17.7100272,
  "lon": -40.7620609,
  "tags": {
    "amenity": "bus_station",
    "bus": "yes",
    "public_transport": "station"
  }
},
{
  "type": "node",
  "id": 3715643171,
  "lat": -16.8490456,
  "lon": -42.0651213,
  "tags": {
    "addr:city": "Araçuaí",
    "addr:housenumber": "285",
    "addr:postcode": "39600-000",
    "addr:street": "Avenida Bom Jesus",
    "addr:suburb": "Alto Mercado",
    "amenity": "bus_station",
    "bus": "yes",
    "name": "Rodoviária de Araçuaí",
    "public_transport": "station"
  }
},
{
  "type": "node",
  "id": 3758752986,
  "lat": -11.7653831,
  "lon": -48.9980740,
  "tags": {
    "name": "Gurupi",
    "public_transport": "station",
    "railway": "station"
  }
},
{
  "type": "node",
  "id": 3779548529,
  "lat": -5.5196329,
  "lon": -36.3913924,
  "tags": {
    "disused": "yes",
    "name": "Pedro Avelino",
    "railway": "station"
  }
},
{
  "type": "node",
  "id": 3787714208,
  "lat": -16.1729238,
  "lon": -40.6968543,
  "tags": {
    "amenity": "bus_station",
    "bus": "yes",
    "public_transport": "station"
  }
},
{
  "type": "node",
  "id": 3793071389,
  "lat": -16.3254844,
  "lon": -43.7082033,
  "tags": {
    "public_transport": "station",
    "railway": "station"
  }
},
{
  "type": "node",
  "id": 3811085432,
  "lat": -12.2128786,
  "lon": -38.2033951,
  "tags": {
    "amenity": "bus_station",
    "bus": "yes",
    "name": "Terminal Roviário de Araças-BA",
    "public_transport": "station"
  }
},
{
  "type": "node",
  "id": 3811483781,
  "lat": -15.9982787,
  "lon": -39.9462198,
  "tags": {
    "amenity": "bus_station",
    "bus": "yes",
    "name": "Estação Rodoviária",
    "public_transport": "station"
  }
},
{
  "type": "node",
  "id": 3812595578,
  "lat": -15.2081420,
  "lon": -48.7007778,
  "tags": {
    "amenity": "bus_station"
  }
},
{
  "type": "node",
  "id": 3812625702,
  "lat": -11.6589065,
  "lon": -38.0714194,
  "tags": {
    "addr:street": "Rua do Cruzeiro",
    "amenity": "bus_station",
    "bus": "yes",
    "public_transport": "station"
  }
},
{
  "type": "node",
  "id": 3812625879,
  "lat": -11.6617566,
  "lon": -38.0172181,
  "tags": {
    "amenity": "bus_station",
    "bus": "yes",
    "name": "Terminal Rodoviário",
    "public_transport": "station"
  }
},
{
  "type": "node",
  "id": 3814083788,
  "lat": -12.0773196,
  "lon": -41.0933859,
  "tags": {
    "amenity": "bus_station"
  }
},
{
  "type": "node",
  "id": 3816795898,
  "lat": -13.3320042,
  "lon": -42.2936892,
  "tags": {
    "amenity": "bus_station",
    "bus": "yes",
    "name": "Rodoviária de Caturama",
    "public_transport": "station"
  }
},
{
  "type": "node",
  "id": 3817851209,
  "lat": -1.4442218,
  "lon": -48.4472220,
  "tags": {
    "addr:street": "Avenida Perimetral",
    "addr:suburb": "TERRA FIRME",
    "amenity": "bus_station",
    "bus": "yes",
    "name": "Parada de ônibus",
    "public_transport": "station"
  }
},
{
  "type": "node",
  "id": 3821047381,
  "lat": -11.4535771,
  "lon": -41.4360718,
  "tags": {
    "amenity": "bus_station"
  }
},
{
  "type": "node",
  "id": 3822457132,
  "lat": -12.7044214,
  "lon": -44.0085098,
  "tags": {
    "amenity": "bus_station"
  }
},
{
  "type": "node",
  "id": 3826825160,
  "lat": -10.5729776,
  "lon": -40.2745598,
  "tags": {
    "amenity": "bus_station"
  }
},
{
  "type": "node",
  "id": 3832571215,
  "lat": -11.0107409,
  "lon": -37.2071051,
  "tags": {
    "public_transport": "station",
    "railway": "station"
  }
},
{
  "type": "node",
  "id": 3836108615,
  "lat": -14.9593349,
  "lon": -39.3055342,
  "tags": {
    "addr:city": "Buerarema",
    "addr:postcode": "45615-000",
    "addr:street": "Rua Nove",
    "addr:suburb": "Centro",
    "amenity": "bus_station",
    "bus": "yes",
    "name": "Terminal Rodoviário Waldir Pires",
    "public_transport": "station"
  }
},
{
  "type": "node",
  "id": 3845957609,
  "lat": -11.3827261,
  "lon": -37.6593943,
  "tags": {
    "amenity": "bus_station",
    "name": "Terminal Rodoviário"
  }
},
{
  "type": "node",
  "id": 3852671024,
  "lat": -10.7386329,
  "lon": -36.8569563,
  "tags": {
    "amenity": "bus_station",
    "name": "Terminal Rodoviário"
  }
},
{
  "type": "node",
  "id": 3860993774,
  "lat": -16.8061941,
  "lon": -48.4345416,
  "tags": {
    "railway": "station"
  }
},
{
  "type": "node",
  "id": 3865143840,
  "lat": -14.2093802,
  "lon": -44.2830436,
  "tags": {
    "amenity": "bus_station"
  }
},
{
  "type": "node",
  "id": 3888608864,
  "lat": -4.3187151,
  "lon": -40.7079454,
  "tags": {
    "amenity": "bus_station"
  }
},
{
  "type": "node",
  "id": 3908459942,
  "lat": -11.7636271,
  "lon": -41.9096060,
  "tags": {
    "addr:city": "Barro Alto",
    "addr:postcode": "44895-000",
    "addr:suburb": "Centro",
    "amenity": "bus_station",
    "bus": "yes",
    "name": "Rodoviaria",
    "network": "EMTRAM",
    "public_transport": "station"
  }
},
{
  "type": "node",
  "id": 3991846875,
  "lat": -11.9398875,
  "lon": -37.9468583,
  "tags": {
    "amenity": "bus_station"
  }
},
{
  "type": "node",
  "id": 4011847524,
  "lat": -6.3558794,
  "lon": -37.7460031,
  "tags": {
    "amenity": "bus_station",
    "bus": "yes",
    "name": "Rodoviária de Catolé do Rocha",
    "public_transport": "station"
  }
},
{
  "type": "node",
  "id": 4030635640,
  "lat": -8.3552929,
  "lon": -36.6943236,
  "tags": {
    "amenity": "bus_station",
    "name": "Rodoviária Pesqueira"
  }
},
{
  "type": "node",
  "id": 4060155264,
  "lat": -16.2321061,
  "lon": -41.4763838,
  "tags": {
    "amenity": "bus_station"
  }
},
{
  "type": "node",
  "id": 4103129509,
  "lat": -3.7572761,
  "lon": -38.5574642,
  "tags": {
    "addr:city": "Fortaleza",
    "addr:suburb": "Bela Vista",
    "internet_access": "no",
    "name": "Couto Fernandes",
    "public_transport": "station",
    "railway": "station",
    "station": "subway",
    "subway": "yes",
    "website": "https://www.metrofor.ce.gov.br/linha-sul/",
    "wheelchair": "yes"
  }
},
{
  "type": "node",
  "id": 4103129511,
  "lat": -3.7514739,
  "lon": -38.5516383,
  "tags": {
    "addr:city": "Fortaleza",
    "addr:street": "Rua Machado de Assis",
    "addr:suburb": "Damas",
    "internet_access": "no",
    "name": "Porangabussu",
    "note": "Local sem número",
    "public_transport": "station",
    "railway": "station",
    "station": "subway",
    "subway": "yes",
    "website": "https://www.metrofor.ce.gov.br/linha-sul/",
    "wheelchair": "yes"
  }
},
{
  "type": "node",
  "id": 4117447795,
  "lat": -3.7986353,
  "lon": -38.5748751,
  "tags": {
    "addr:city": "Fortaleza",
    "internet_access": "no",
    "name": "Manoel Sátiro",
    "public_transport": "station",
    "railway": "station",
    "station": "subway",
    "subway": "yes"
  }
},
{
  "type": "node",
  "id": 4117447796,
  "lat": -3.7841702,
  "lon": -38.5723593,
  "tags": {
    "addr:city": "Fortaleza",
    "addr:suburb": "Parangaba",
    "internet_access": "no",
    "name": "Vila Pery",
    "public_transport": "station",
    "railway": "station",
    "station": "subway",
    "subway": "yes"
  }
},
{
  "type": "node",
  "id": 4119099153,
  "lat": -13.5327388,
  "lon": -40.1523959,
  "tags": {
    "amenity": "bus_station"
  }
},
{
  "type": "node",
  "id": 4123684117,
  "lat": -15.9043782,
  "lon": -44.3009269,
  "tags": {
    "amenity": "bus_station"
  }
},
{
  "type": "node",
  "id": 4158499699,
  "lat": -1.8279103,
  "lon": -44.8723944,
  "tags": {
    "amenity": "bus_station",
    "bus": "yes",
    "public_transport": "station"
  }
},
{
  "type": "node",
  "id": 4167994778,
  "lat": -4.8798271,
  "lon": -44.8807459,
  "tags": {
    "amenity": "bus_station"
  }
},
{
  "type": "node",
  "id": 4183752960,
  "lat": -3.7447972,
  "lon": -38.6656660,
  "tags": {
    "amenity": "bus_station",
    "bus": "yes",
    "name": "Terminal Planalto Caucaia",
    "public_transport": "platform"
  }
},
{
  "type": "node",
  "id": 4230240295,
  "lat": -6.2224875,
  "lon": -36.0199035,
  "tags": {
    "amenity": "bus_station"
  }
},
{
  "type": "node",
  "id": 4232364642,
  "lat": -5.1186675,
  "lon": -42.7584722,
  "tags": {
    "amenity": "bus_station"
  }
},
{
  "type": "node",
  "id": 4232367302,
  "lat": -5.1214159,
  "lon": -42.7546697,
  "tags": {
    "amenity": "bus_station",
    "name": "Parada Final do Parque Jurema"
  }
},
{
  "type": "node",
  "id": 4232368886,
  "lat": -5.1203546,
  "lon": -42.7587708,
  "tags": {
    "amenity": "bus_station"
  }
},
{
  "type": "node",
  "id": 4232370789,
  "lat": -5.1200159,
  "lon": -42.7597493,
  "tags": {
    "amenity": "bus_station"
  }
},
{
  "type": "node",
  "id": 4232376341,
  "lat": -5.1188354,
  "lon": -42.7595952,
  "tags": {
    "amenity": "bus_station"
  }
},
{
  "type": "node",
  "id": 4232378368,
  "lat": -5.1175143,
  "lon": -42.7581304,
  "tags": {
    "amenity": "bus_station"
  }
},
{
  "type": "node",
  "id": 4232379689,
  "lat": -5.1164132,
  "lon": -42.7569728,
  "tags": {
    "amenity": "bus_station"
  }
},
{
  "type": "node",
  "id": 4232379866,
  "lat": -5.1170703,
  "lon": -42.7543903,
  "tags": {
    "amenity": "bus_station"
  }
},
{
  "type": "node",
  "id": 4239947928,
  "lat": -15.6984563,
  "lon": -47.8300638,
  "tags": {
    "amenity": "bus_station"
  }
},
{
  "type": "node",
  "id": 4247781515,
  "lat": -5.0701995,
  "lon": -42.7732722,
  "tags": {
    "addr:city": "Teresina",
    "amenity": "bus_station",
    "bus": "yes",
    "public_transport": "station"
  }
},
{
  "type": "node",
  "id": 4247781516,
  "lat": -5.0699751,
  "lon": -42.7776737,
  "tags": {
    "addr:city": "Teresina",
    "amenity": "bus_station",
    "bus": "yes",
    "public_transport": "station"
  }
},
{
  "type": "node",
  "id": 4247781517,
  "lat": -5.0699884,
  "lon": -42.7800287,
  "tags": {
    "addr:city": "Teresina",
    "amenity": "bus_station",
    "bus": "yes",
    "public_transport": "station"
  }
},
{
  "type": "node",
  "id": 4247781519,
  "lat": -5.0701682,
  "lon": -42.7835987,
  "tags": {
    "addr:city": "Teresina",
    "amenity": "bus_station",
    "bus": "yes",
    "public_transport": "station"
  }
},
{
  "type": "node",
  "id": 4247781520,
  "lat": -5.0677362,
  "lon": -42.7882229,
  "tags": {
    "addr:city": "Teresina",
    "amenity": "bus_station",
    "bus": "yes",
    "public_transport": "station"
  }
},
{
  "type": "node",
  "id": 4259922176,
  "lat": -5.0379162,
  "lon": -42.7422391,
  "tags": {
    "addr:city": "Teresina",
    "amenity": "bus_station",
    "name": "Terminal da Cidade Leste"
  }
},
{
  "type": "node",
  "id": 4261900970,
  "lat": -6.7660866,
  "lon": -37.7943484,
  "tags": {
    "amenity": "bus_station",
    "bus": "yes",
    "name": "Terminal Rodoviário de Pombal",
    "opening_hours": "24/7",
    "public_transport": "station"
  }
},
{
  "type": "node",
  "id": 4283505990,
  "lat": -10.8979402,
  "lon": -37.5522635,
  "tags": {
    "amenity": "bus_station",
    "bus": "yes",
    "name": "Brasília",
    "public_transport": "station"
  }
},
{
  "type": "node",
  "id": 4293897061,
  "lat": -6.5548526,
  "lon": -37.8065993,
  "tags": {
    "amenity": "bus_station",
    "bus": "yes",
    "name": "Rodoviária de Jericó",
    "public_transport": "station"
  }
},
{
  "type": "node",
  "id": 4305318712,
  "lat": -7.0691468,
  "lon": -36.5788122,
  "tags": {
    "amenity": "bus_station",
    "bus": "yes",
    "name": "Rodoviária de Juazeirinho",
    "public_transport": "station"
  }
},
{
  "type": "node",
  "id": 4307343568,
  "lat": -10.2566713,
  "lon": -48.3326890,
  "tags": {
    "amenity": "bus_station",
    "bus": "yes",
    "name": "Estação Krahô",
    "public_transport": "station"
  }
},
{
  "type": "node",
  "id": 4313768777,
  "lat": -12.9780131,
  "lon": -38.4711008,
  "tags": {
    "name": "Detran",
    "operator": "CCR Metro Bahia",
    "public_transport": "station",
    "railway": "station",
    "subway": "yes"
  }
},
{
  "type": "node",
  "id": 4345519294,
  "lat": -5.0897863,
  "lon": -42.7611721,
  "tags": {
    "amenity": "bus_station",
    "bus": "yes",
    "public_transport": "station"
  }
},
{
  "type": "node",
  "id": 4345519295,
  "lat": -5.0896979,
  "lon": -42.7611045,
  "tags": {
    "amenity": "bus_station",
    "bus": "yes",
    "public_transport": "station"
  }
},
{
  "type": "node",
  "id": 4345519296,
  "lat": -5.0884675,
  "lon": -42.7632627,
  "tags": {
    "addr:city": "Teresina",
    "addr:postcode": "64046-700",
    "addr:street": "Avenida dos Espedicionários",
    "addr:suburb": "São João",
    "amenity": "bus_station",
    "bus": "yes",
    "public_transport": "station"
  }
},
{
  "type": "node",
  "id": 4345519297,
  "lat": -5.0883695,
  "lon": -42.7631886,
  "tags": {
    "amenity": "bus_station",
    "bus": "yes",
    "public_transport": "station"
  }
},
{
  "type": "node",
  "id": 4345519314,
  "lat": -5.1033586,
  "lon": -42.7432166,
  "tags": {
    "amenity": "bus_station"
  }
},
{
  "type": "node",
  "id": 4345519316,
  "lat": -5.1066592,
  "lon": -42.7528393,
  "tags": {
    "amenity": "bus_station",
    "bus": "yes",
    "public_transport": "station"
  }
},
{
  "type": "node",
  "id": 4345519317,
  "lat": -5.1066566,
  "lon": -42.7526864,
  "tags": {
    "amenity": "bus_station",
    "bus": "yes",
    "public_transport": "station"
  }
},
{
  "type": "node",
  "id": 4345519329,
  "lat": -5.0990753,
  "lon": -42.7648891,
  "tags": {
    "amenity": "bus_station",
    "bus": "yes",
    "public_transport": "station"
  }
},
{
  "type": "node",
  "id": 4345519335,
  "lat": -5.1178463,
  "lon": -42.7849574,
  "tags": {
    "amenity": "bus_station"
  }
},
{
  "type": "node",
  "id": 4345519336,
  "lat": -5.1181308,
  "lon": -42.7850915,
  "tags": {
    "amenity": "bus_station"
  }
},
{
  "type": "node",
  "id": 4345519368,
  "lat": -5.1411241,
  "lon": -42.7936544,
  "tags": {
    "amenity": "bus_station"
  }
},
{
  "type": "node",
  "id": 4345519418,
  "lat": -5.0637355,
  "lon": -42.7891899,
  "tags": {
    "amenity": "bus_station",
    "bus": "yes",
    "public_transport": "station",
    "wheelchair": "limited"
  }
},
{
  "type": "node",
  "id": 4345519419,
  "lat": -5.0699553,
  "lon": -42.7865104,
  "tags": {
    "amenity": "bus_station",
    "bus": "yes",
    "public_transport": "station"
  }
},
{
  "type": "node",
  "id": 4345519420,
  "lat": -5.0700528,
  "lon": -42.7873311,
  "tags": {
    "amenity": "bus_station",
    "bus": "yes",
    "public_transport": "station"
  }
},
{
  "type": "node",
  "id": 4355850324,
  "lat": -15.4348484,
  "lon": -47.6108334,
  "tags": {
    "amenity": "bus_station",
    "name": "Rodoviária de Planaltina GO"
  }
},
{
  "type": "node",
  "id": 4375146290,
  "lat": -4.5712577,
  "lon": -37.7744082,
  "tags": {
    "addr:city": "Aracati",
    "addr:housenumber": "1287",
    "addr:postcode": "62800-000",
    "addr:street": "Avenida Coronel Alexandrino",
    "addr:suburb": "Nossa Senhora de Lourdes",
    "amenity": "bus_station",
    "bus": "yes",
    "internet_access": "wlan",
    "internet_access:fee": "customers",
    "name": "Terminal Rodoviário Assis Nogueira",
    "name:en": "Bus Station",
    "public_transport": "station",
    "wheelchair": "yes"
  }
},
{
  "type": "node",
  "id": 4379434250,
  "lat": -8.8909732,
  "lon": -36.4970647,
  "tags": {
    "amenity": "bus_station",
    "bus": "yes",
    "public_transport": "station"
  }
},
{
  "type": "node",
  "id": 4379434251,
  "lat": -8.8909916,
  "lon": -36.4969523,
  "tags": {
    "amenity": "bus_station",
    "bus": "yes",
    "public_transport": "station"
  }
},
{
  "type": "node",
  "id": 4381655091,
  "lat": -0.0509280,
  "lon": -51.1399592,
  "tags": {
    "addr:street": "Porto do Chagas - Igarapé da Fortaleza",
    "amenity": "bus_station",
    "name": "Porto do Chagas",
    "name:en": "Chaga's River Port",
    "name:pt": "Porto do Chagas"
  }
},
{
  "type": "node",
  "id": 4394229529,
  "lat": -14.8077643,
  "lon": -39.2952159,
  "tags": {
    "amenity": "bus_station",
    "bus": "yes",
    "public_transport": "station"
  }
},
{
  "type": "node",
  "id": 4404428691,
  "lat": -13.6069147,
  "lon": -39.1023728,
  "tags": {
    "addr:street": "Rodovia BA-001",
    "amenity": "bus_station"
  }
},
{
  "type": "node",
  "id": 4405114889,
  "lat": -16.4814468,
  "lon": -39.0928995,
  "tags": {
    "amenity": "bus_station"
  }
},
{
  "type": "node",
  "id": 4411861689,
  "lat": -1.4082625,
  "lon": -48.4267350,
  "tags": {
    "amenity": "bus_station"
  }
},
{
  "type": "node",
  "id": 4421545455,
  "lat": -1.4226882,
  "lon": -48.4495960,
  "tags": {
    "amenity": "bus_station",
    "bus": "yes",
    "name": "Estação Júlio César",
    "public_transport": "station"
  }
},
{
  "type": "node",
  "id": 4432513568,
  "lat": -8.6245560,
  "lon": -37.1582897,
  "tags": {
    "amenity": "bus_station"
  }
},
{
  "type": "node",
  "id": 4447501090,
  "lat": -13.3349732,
  "lon": -39.0576589,
  "tags": {
    "amenity": "bus_station",
    "name": "ENTRADA ROÇA tia Maria",
    "name:pt": "ENTRADA ROÇA tia Maria"
  }
},
{
  "type": "node",
  "id": 4451828190,
  "lat": -15.0839532,
  "lon": -39.3411734,
  "tags": {
    "amenity": "bus_station",
    "name": "São José da vitória parada obrigatória 1",
    "name:pt": "São José da vitória parada obrigatória 1"
  }
},
{
  "type": "node",
  "id": 4451865689,
  "lat": -15.0798273,
  "lon": -39.3388395,
  "tags": {
    "amenity": "bus_station",
    "name": "São José da vitória, parada obrigatória!",
    "name:pt": "São José da vitória, parada obrigatória!"
  }
},
{
  "type": "node",
  "id": 4469859786,
  "lat": -10.7398594,
  "lon": -40.1307395,
  "tags": {
    "amenity": "bus_station"
  }
},
{
  "type": "node",
  "id": 4485717580,
  "lat": -12.9455742,
  "lon": -38.4998476,
  "tags": {
    "name": "Calçada",
    "public_transport": "station",
    "railway": "station"
  }
},
{
  "type": "node",
  "id": 4498019294,
  "lat": -2.9020894,
  "lon": -40.4468824,
  "tags": {
    "amenity": "bus_station"
  }
},
{
  "type": "node",
  "id": 4512012861,
  "lat": -12.9829593,
  "lon": -38.5114937,
  "tags": {
    "amenity": "bus_station",
    "bus": "yes",
    "name": "Estação da Lapa",
    "public_transport": "station"
  }
},
{
  "type": "node",
  "id": 4553224289,
  "lat": -9.5358522,
  "lon": -50.8565659,
  "tags": {
    "amenity": "bus_station",
    "name": "Rodoviária da Vila Mandi",
    "name:pt": "Rodoviária da Vila Mandi"
  }
},
{
  "type": "node",
  "id": 4556829890,
  "lat": -2.9460217,
  "lon": -48.9547937,
  "tags": {
    "amenity": "bus_station",
    "name": "Cooptail"
  }
},
{
  "type": "node",
  "id": 4561953594,
  "lat": -13.1748039,
  "lon": -39.3632215,
  "tags": {
    "amenity": "bus_station",
    "name": "Ponto de ônibus",
    "name:pt": "Ponto de ônibus"
  }
},
{
  "type": "node",
  "id": 4562405292,
  "lat": -13.0341863,
  "lon": -39.0205488,
  "tags": {
    "amenity": "bus_station",
    "name": "Nazaré"
  }
},
{
  "type": "node",
  "id": 4568581689,
  "lat": -3.2093639,
  "lon": -45.0025601,
  "tags": {
    "amenity": "bus_station",
    "name": "Barra do sol",
    "name:en": "Barra de sun",
    "name:pt": "Barra do sol"
  }
},
{
  "type": "node",
  "id": 4568797894,
  "lat": -3.2096177,
  "lon": -45.0023744,
  "tags": {
    "amenity": "bus_station",
    "name": "Barra do sol",
    "name:en": "Barra de sun",
    "name:pt": "Barra do sol"
  }
},
{
  "type": "node",
  "id": 4571698697,
  "lat": -13.4738237,
  "lon": -40.2212275,
  "tags": {
    "amenity": "bus_station"
  }
},
{
  "type": "node",
  "id": 4578253690,
  "lat": -16.5830442,
  "lon": -39.7802993,
  "tags": {
    "addr:street": "Avenida Bahia",
    "amenity": "bus_station",
    "bus": "yes",
    "name": "Terminal Rodoviário de Guaratinga",
    "public_transport": "station"
  }
},
{
  "type": "node",
  "id": 4631830835,
  "lat": -14.7918976,
  "lon": -40.1476756,
  "tags": {
    "amenity": "bus_station"
  }
},
{
  "type": "node",
  "id": 4673702286,
  "lat": -16.7453632,
  "lon": -48.5142059,
  "tags": {
    "amenity": "bus_station",
    "bus": "yes",
    "name": "Estação Rodoviária de Vianópolis",
    "public_transport": "station"
  }
},
{
  "type": "node",
  "id": 4681844890,
  "lat": -17.7349893,
  "lon": -39.2623829,
  "tags": {
    "addr:city": "Caravelas",
    "addr:postcode": "45900-000",
    "addr:street": "Praça Teófilo Otoni",
    "addr:suburb": "Centro",
    "amenity": "bus_station",
    "bus": "yes",
    "name": "Terminal Rodoviário de Caravelas",
    "public_transport": "station"
  }
},
{
  "type": "node",
  "id": 4688264390,
  "lat": -12.9614415,
  "lon": -38.5068736,
  "tags": {
    "amenity": "bus_station",
    "bus": "yes",
    "public_transport": "station"
  }
},
{
  "type": "node",
  "id": 4688264391,
  "lat": -12.9692799,
  "lon": -38.5104448,
  "tags": {
    "amenity": "bus_station",
    "bus": "yes",
    "public_transport": "station"
  }
},
{
  "type": "node",
  "id": 4688696993,
  "lat": -7.3285916,
  "lon": -47.4551014,
  "tags": {
    "amenity": "bus_station"
  }
},
{
  "type": "node",
  "id": 4690841989,
  "lat": -13.7544378,
  "lon": -39.3693542,
  "tags": {
    "amenity": "bus_station",
    "name": "Ponto de ônibus sentido Piraí- são Benedito (esquerda)",
    "name:pt": "Ponto de ônibus sentido Piraí- são Benedito (esquerda)"
  }
},
{
  "type": "node",
  "id": 4707449990,
  "lat": -3.0548281,
  "lon": -40.1665828,
  "tags": {
    "amenity": "bus_station",
    "bus": "yes",
    "internet_access": "no",
    "name": "Terminal Rodoviário de Bela Cruz",
    "operator": "Fretcar",
    "public_transport": "station"
  }
},
{
  "type": "node",
  "id": 4712312392,
  "lat": -8.9066549,
  "lon": -36.4794309,
  "tags": {
    "amenity": "bus_station",
    "name": "Ponto final ônibus cohab 2",
    "name:pt": "Ponto final ônibus cohab 2"
  }
},
{
  "type": "node",
  "id": 4717011131,
  "lat": -3.7758113,
  "lon": -38.5638940,
  "tags": {
    "addr:city": "Fortaleza",
    "addr:suburb": "Parangaba",
    "internet_access": "wlan",
    "internet_access:fee": "no",
    "name": "Parangaba",
    "public_transport": "station",
    "railway": "station",
    "station": "subway",
    "subway": "yes",
    "website": "https://www.metrofor.ce.gov.br/linha-sul/",
    "wheelchair": "yes",
    "wikidata": "Q18363023"
  }
},
{
  "type": "node",
  "id": 4717011138,
  "lat": -3.7660690,
  "lon": -38.5600972,
  "tags": {
    "addr:city": "Fortaleza",
    "addr:suburb": "Demócrito Rocha",
    "internet_access": "no",
    "name": "Juscelino Kubitschek",
    "public_transport": "station",
    "railway": "station",
    "station": "subway",
    "subway": "yes",
    "website": "https://www.metrofor.ce.gov.br/linha-sul/",
    "wheelchair": "yes"
  }
},
{
  "type": "node",
  "id": 4718998729,
  "lat": -3.7203974,
  "lon": -38.5652099,
  "tags": {
    "internet_access": "no",
    "light_rail": "yes",
    "name": "Álvaro Weyne",
    "network": "Linha Oeste",
    "operator": "METROFOR",
    "public_transport": "station",
    "rail": "yes",
    "railway": "station",
    "station": "light_rail"
  }
},
{
  "type": "node",
  "id": 4718998730,
  "lat": -3.7300330,
  "lon": -38.5810835,
  "tags": {
    "internet_access": "no",
    "light_rail": "yes",
    "name": "Padre Andrade",
    "network": "Linha Oeste",
    "operator": "METROFOR",
    "public_transport": "station",
    "rail": "yes",
    "railway": "station",
    "station": "light_rail"
  }
},
{
  "type": "node",
  "id": 4718998731,
  "lat": -3.7348934,
  "lon": -38.5920298,
  "tags": {
    "internet_access": "no",
    "light_rail": "yes",
    "name": "Antônio Bezerra",
    "network": "Linha Oeste",
    "operator": "METROFOR",
    "public_transport": "station",
    "rail": "yes",
    "railway": "station",
    "station": "light_rail"
  }
},
{
  "type": "node",
  "id": 4718998732,
  "lat": -3.7492051,
  "lon": -38.6023976,
  "tags": {
    "internet_access": "no",
    "light_rail": "yes",
    "name": "São Miguel",
    "network": "Linha Oeste",
    "operator": "METROFOR",
    "public_transport": "station",
    "rail": "yes",
    "railway": "station",
    "station": "light_rail"
  }
},
{
  "type": "node",
  "id": 4718998733,
  "lat": -3.7575447,
  "lon": -38.6119567,
  "tags": {
    "internet_access": "no",
    "light_rail": "yes",
    "name": "Parque Albano",
    "network": "Linha Oeste",
    "operator": "METROFOR",
    "public_transport": "station",
    "rail": "yes",
    "railway": "station",
    "station": "light_rail"
  }
},
{
  "type": "node",
  "id": 4718998734,
  "lat": -3.7653036,
  "lon": -38.6153742,
  "tags": {
    "internet_access": "no",
    "light_rail": "yes",
    "name": "Conjunto Ceará",
    "network": "Linha Oeste",
    "operator": "METROFOR",
    "public_transport": "station",
    "rail": "yes",
    "railway": "station",
    "station": "light_rail"
  }
},
{
  "type": "node",
  "id": 4718998735,
  "lat": -3.7693834,
  "lon": -38.6228192,
  "tags": {
    "light_rail": "yes",
    "name": "Jurema",
    "network": "Linha Oeste",
    "operator": "METROFOR",
    "public_transport": "station",
    "rail": "yes",
    "railway": "station",
    "station": "light_rail"
  }
},
{
  "type": "node",
  "id": 4718998737,
  "lat": -3.7626414,
  "lon": -38.6398047,
  "tags": {
    "internet_access": "no",
    "light_rail": "yes",
    "name": "Araturi",
    "network": "Linha Oeste",
    "operator": "METROFOR",
    "public_transport": "station",
    "rail": "yes",
    "railway": "station",
    "station": "light_rail"
  }
},
{
  "type": "node",
  "id": 4718998738,
  "lat": -3.7357931,
  "lon": -38.6603535,
  "tags": {
    "internet_access": "no",
    "light_rail": "yes",
    "name": "Caucaia",
    "network": "Linha Oeste",
    "operator": "METROFOR",
    "public_transport": "station",
    "rail": "yes",
    "railway": "station",
    "station": "light_rail"
  }
},
{
  "type": "node",
  "id": 4811817758,
  "lat": -5.1948035,
  "lon": -37.3428529,
  "tags": {
    "amenity": "bus_station",
    "bus": "yes",
    "name": "Terminal do Carcará",
    "public_transport": "station"
  }
},
{
  "type": "node",
  "id": 4865074133,
  "lat": -1.3918668,
  "lon": -48.4804228,
  "tags": {
    "amenity": "bus_station",
    "name": "Terminal Aeroporto"
  }
},
{
  "type": "node",
  "id": 4872091171,
  "lat": -4.5713217,
  "lon": -37.7743149,
  "tags": {
    "addr:city": "Aracati",
    "addr:housenumber": "1160-1204",
    "addr:postcode": "62800-000",
    "addr:street": "Rua Coronel Pompeu",
    "addr:suburb": "Nossa Senhora de Lourdes",
    "amenity": "bus_station",
    "bus": "yes",
    "internet_access": "wlan",
    "internet_access:fee": "customers",
    "name": "Terminal Rdodviário Assis Nogueira",
    "public_transport": "station",
    "wheelchair": "yes"
  }
},
{
  "type": "node",
  "id": 4872914523,
  "lat": -16.5764756,
  "lon": -41.5012602,
  "tags": {
    "amenity": "bus_station",
    "bus": "yes",
    "name": "Rodoviária e ponto de apoio",
    "public_transport": "station"
  }
},
{
  "type": "node",
  "id": 4888392321,
  "lat": -12.0921996,
  "lon": -45.8048301,
  "tags": {
    "amenity": "bus_station",
    "bus": "yes",
    "name": "Agrosul",
    "name:pt": "Agrosul",
    "public_transport": "station"
  }
},
{
  "type": "node",
  "id": 4898437339,
  "lat": -1.1309697,
  "lon": -47.0612042,
  "tags": {
    "abandoned": "yes",
    "addr:city": "capanema",
    "addr:postcode": "6870500",
    "addr:street": "avenida: Frederico Fernandes",
    "addr:suburb": "tauari",
    "name": "Antiga estação do trem",
    "railway": "station"
  }
},
{
  "type": "node",
  "id": 4933555172,
  "lat": -4.2736340,
  "lon": -41.7853793,
  "tags": {
    "name": "Piripiri",
    "public_transport": "station",
    "railway": "station"
  }
},
{
  "type": "node",
  "id": 4934409881,
  "lat": -8.8921737,
  "lon": -36.1006062,
  "tags": {
    "name": "Paquevira",
    "railway": "station"
  }
},
{
  "type": "node",
  "id": 4934410581,
  "lat": -8.8276650,
  "lon": -36.0162816,
  "tags": {
    "name": "Quipapá",
    "public_transport": "station",
    "railway": "station",
    "train": "yes"
  }
},
{
  "type": "node",
  "id": 4934410582,
  "lat": -8.9712456,
  "lon": -36.0644916,
  "tags": {
    "disused:railway": "station",
    "name": "Serra Grande",
    "railway": "station"
  }
},
{
  "type": "node",
  "id": 4934410583,
  "lat": -8.8735995,
  "lon": -36.0806076,
  "tags": {
    "name": "Água Branca",
    "railway": "station"
  }
},
{
  "type": "node",
  "id": 4954179835,
  "lat": -5.1191749,
  "lon": -42.7858078,
  "tags": {
    "amenity": "bus_station",
    "internet_access": "yes",
    "internet_access:ssid": "OI WIFI FON",
    "name": "Parada Final do Rodoviária Circular I e II",
    "operator": "Consorcio Theresina e Transcol"
  }
},
{
  "type": "node",
  "id": 4956083122,
  "lat": -15.8846236,
  "lon": -48.1001525,
  "tags": {
    "addr:street": "Qs309/307 Sul",
    "amenity": "bus_station"
  }
},
{
  "type": "node",
  "id": 4956083127,
  "lat": -15.8836316,
  "lon": -48.0983689,
  "tags": {
    "addr:street": "Avenida Primeira Sul",
    "amenity": "bus_station"
  }
},
{
  "type": "node",
  "id": 4957621830,
  "lat": -15.8815071,
  "lon": -48.1011674,
  "tags": {
    "addr:street": "Avenida Primeira Sul",
    "amenity": "bus_station",
    "name": "Estação Favela City",
    "name:pt": "Estação Favela City"
  }
},
{
  "type": "node",
  "id": 4963144542,
  "lat": -8.8836486,
  "lon": -36.1894785,
  "tags": {
    "name": "Canhotinho",
    "railway": "station"
  }
},
{
  "type": "node",
  "id": 5015664121,
  "lat": -7.9897256,
  "lon": -38.3029157,
  "tags": {
    "amenity": "bus_station",
    "name": "Terminal Municipal de Transportes Alternativos"
  }
},
{
  "type": "node",
  "id": 5076391224,
  "lat": -14.9305818,
  "lon": -42.8205225,
  "tags": {
    "amenity": "bus_station"
  }
},
{
  "type": "node",
  "id": 5089218127,
  "lat": -2.8060725,
  "lon": -45.7042324,
  "tags": {
    "amenity": "bus_station",
    "bus": "yes",
    "name": "Nova Olinda do Maranhão",
    "name:pt": "Nova Olinda do Maranhão",
    "public_transport": "station"
  }
},
{
  "type": "node",
  "id": 5089218128,
  "lat": -3.2629654,
  "lon": -45.6548276,
  "tags": {
    "amenity": "bus_station",
    "name": "Terminal de Zé Doca",
    "name:pt": "Terminal de Zé Doca"
  }
},
{
  "type": "node",
  "id": 5089241122,
  "lat": -2.5474588,
  "lon": -45.7743183,
  "tags": {
    "amenity": "bus_station",
    "internet_access": "wlan",
    "name": "Terminal de Santa Luzia do Paruá"
  }
},
{
  "type": "node",
  "id": 5103694593,
  "lat": -6.7297563,
  "lon": -38.4497327,
  "tags": {
    "alt_name": "São João do Rio do Peixe",
    "name": "Antenor Navarro",
    "public_transport": "station",
    "railway": "station"
  }
},
{
  "type": "node",
  "id": 5116515438,
  "lat": -13.0139722,
  "lon": -42.6871638,
  "tags": {
    "amenity": "bus_station",
    "building": "public",
    "name": "Rodoviária"
  }
},
{
  "type": "node",
  "id": 5212746913,
  "lat": -4.9691257,
  "lon": -39.0118012,
  "tags": {
    "name": "Quixadá",
    "railway": "station"
  }
},
{
  "type": "node",
  "id": 5228439422,
  "lat": -3.8359236,
  "lon": -49.1014679,
  "tags": {
    "amenity": "bus_station",
    "name": "Rodoviária João Gomes da Silva"
  }
},
{
  "type": "node",
  "id": 5228704525,
  "lat": -2.9389171,
  "lon": -48.9568154,
  "tags": {
    "amenity": "bus_station",
    "name": "Rodoviária de Tailândia"
  }
},
{
  "type": "node",
  "id": 5235740721,
  "lat": -13.4025360,
  "lon": -46.3116801,
  "tags": {
    "amenity": "bus_station",
    "name": "Rodoviária"
  }
},
{
  "type": "node",
  "id": 5270376351,
  "lat": -7.3649724,
  "lon": -46.6168119,
  "tags": {
    "amenity": "bus_station",
    "bus": "yes",
    "name": "Rodoviária",
    "public_transport": "station"
  }
},
{
  "type": "node",
  "id": 5274403421,
  "lat": -10.7119794,
  "lon": -38.1748468,
  "tags": {
    "amenity": "bus_station",
    "name": "Praça do Triângulo"
  }
},
{
  "type": "node",
  "id": 5300632079,
  "lat": -7.5751110,
  "lon": -40.5105121,
  "tags": {
    "amenity": "bus_station",
    "bus": "yes",
    "name": "Terminal Rodoviário",
    "public_transport": "station"
  }
},
{
  "type": "node",
  "id": 5306756450,
  "lat": -15.5612436,
  "lon": -49.9443668,
  "tags": {
    "amenity": "bus_station",
    "internet_access": "no",
    "name": "RODOVIÁRIA MUNICIPAL DE ITAPURANGA"
  }
},
{
  "type": "node",
  "id": 5308745771,
  "lat": -15.1596453,
  "lon": -49.7996431,
  "tags": {
    "amenity": "bus_station",
    "name": "RODOVIÁRIA DE RUBIATABA"
  }
},
{
  "type": "node",
  "id": 5330886492,
  "lat": -12.9689224,
  "lon": -38.4770136,
  "tags": {
    "internet_access": "no",
    "name": "Acesso Norte",
    "operator": "CCR Metrô Bahia",
    "public_transport": "station",
    "railway": "station",
    "station": "subway",
    "subway": "yes",
    "surveillance": "indoor"
  }
},
{
  "type": "node",
  "id": 5333524416,
  "lat": -13.6561081,
  "lon": -48.8839649,
  "tags": {
    "amenity": "bus_station",
    "name": "Rodoviária de Formoso"
  }
},
{
  "type": "node",
  "id": 5354758721,
  "lat": -1.0585309,
  "lon": -46.7674382,
  "tags": {
    "amenity": "bus_station",
    "bus": "yes",
    "name": "Rodoviária de Bragança",
    "public_transport": "station",
    "wheelchair": "yes"
  }
},
{
  "type": "node",
  "id": 5370772049,
  "lat": -14.7248346,
  "lon": -49.4636858,
  "tags": {
    "amenity": "bus_station",
    "bus": "yes",
    "public_transport": "station"
  }
},
{
  "type": "node",
  "id": 5478813697,
  "lat": -1.3575106,
  "lon": -48.4422605,
  "tags": {
    "addr:city": "Belém",
    "addr:street": "Avenida Brasil",
    "amenity": "bus_station",
    "bus": "yes",
    "name": "Final da Linha Jd. Sideral I",
    "network": "SeMOB",
    "operator": "Forte",
    "public_transport": "station"
  }
},
{
  "type": "node",
  "id": 5514343728,
  "lat": -7.1203068,
  "lon": -38.5094931,
  "tags": {
    "amenity": "bus_station",
    "bus": "yes",
    "name": "Rodoviária de São José de Piranhas",
    "public_transport": "station"
  }
},
{
  "type": "node",
  "id": 5520561421,
  "lat": -12.3634488,
  "lon": -44.9749518,
  "tags": {
    "amenity": "bus_station",
    "bus": "yes",
    "name": "Rodoviária de São Desidério",
    "public_transport": "station"
  }
},
{
  "type": "node",
  "id": 5522848918,
  "lat": -8.7993573,
  "lon": -39.8278078,
  "tags": {
    "amenity": "bus_station",
    "name": "Rodoviária de Santa Maria da Boa Vista"
  }
},
{
  "type": "node",
  "id": 5534772730,
  "lat": -7.1992971,
  "lon": -37.9259453,
  "tags": {
    "amenity": "bus_station",
    "bus": "yes",
    "name": "Rodoviária de Piancó",
    "public_transport": "station"
  }
},
{
  "type": "node",
  "id": 5534834156,
  "lat": -7.4973853,
  "lon": -38.4038136,
  "tags": {
    "amenity": "bus_station",
    "bus": "yes",
    "name": "Terminal Rodoviário deibiara",
    "name:pt": "Terminal Rodoviário de Ibiara",
    "public_transport": "station"
  }
},
{
  "type": "node",
  "id": 5538768698,
  "lat": -7.3040686,
  "lon": -38.1555820,
  "tags": {
    "amenity": "bus_station",
    "name": "Terminal Rodoviário de Itaporanga"
  }
},
{
  "type": "node",
  "id": 5562862023,
  "lat": -3.8362511,
  "lon": -49.1017523,
  "tags": {
    "amenity": "bus_station",
    "name": "Terminal de Onibus"
  }
},
{
  "type": "node",
  "id": 5571556421,
  "lat": -10.7283966,
  "lon": -48.4092849,
  "tags": {
    "amenity": "bus_station",
    "name": "Estação Rodoviária"
  }
},
{
  "type": "node",
  "id": 5604716689,
  "lat": -14.0861995,
  "lon": -46.3663682,
  "tags": {
    "amenity": "bus_station"
  }
},
{
  "type": "node",
  "id": 5631136321,
  "lat": -17.2873236,
  "lon": -42.7252159,
  "tags": {
    "amenity": "bus_station",
    "bus": "yes",
    "public_transport": "station"
  }
},
{
  "type": "node",
  "id": 5713710078,
  "lat": -3.7760017,
  "lon": -38.5637231,
  "tags": {
    "addr:city": "Fortaleza",
    "addr:suburb": "Parangaba",
    "internet_access": "no",
    "light_rail": "yes",
    "name": "Parangaba",
    "operator": "METROFOR",
    "public_transport": "station",
    "railway": "station",
    "station": "light_rail",
    "website": "https://www.metrofor.ce.gov.br/vlt-fortaleza/",
    "wheelchair": "yes"
  }
},
{
  "type": "node",
  "id": 5713710079,
  "lat": -3.7734379,
  "lon": -38.5529476,
  "tags": {
    "addr:city": "Fortaleza",
    "internet_access": "no",
    "light_rail": "yes",
    "name": "Montese",
    "public_transport": "station",
    "railway": "station",
    "station": "light_rail",
    "website": "https://www.metrofor.ce.gov.br/vlt-fortaleza/",
    "wheelchair": "yes"
  }
},
{
  "type": "node",
  "id": 5713710080,
  "lat": -3.7697649,
  "lon": -38.5343751,
  "tags": {
    "addr:city": "Fortaleza",
    "addr:suburb": "Vila União",
    "internet_access": "no",
    "light_rail": "yes",
    "name": "Vila União",
    "public_transport": "station",
    "railway": "station",
    "station": "light_rail",
    "website": "https://www.metrofor.ce.gov.br/vlt-fortaleza/",
    "wheelchair": "yes"
  }
},
{
  "type": "node",
  "id": 5713710081,
  "lat": -3.7610605,
  "lon": -38.5289620,
  "tags": {
    "addr:city": "Fortaleza",
    "internet_access": "no",
    "light_rail": "yes",
    "name": "Borges de Melo",
    "public_transport": "station",
    "railway": "station",
    "station": "light_rail",
    "website": "https://www.metrofor.ce.gov.br/vlt-fortaleza/",
    "wheelchair": "yes"
  }
},
{
  "type": "node",
  "id": 5713710082,
  "lat": -3.7607627,
  "lon": -38.5125209,
  "tags": {
    "addr:city": "Fortaleza",
    "addr:suburb": "São João do Tauape",
    "internet_access": "no",
    "light_rail": "yes",
    "name": "São João do Tauape",
    "public_transport": "station",
    "railway": "station",
    "station": "light_rail",
    "website": "https://www.metrofor.ce.gov.br/vlt-fortaleza/",
    "wheelchair": "yes"
  }
},
{
  "type": "node",
  "id": 5713710083,
  "lat": -3.7521276,
  "lon": -38.5005523,
  "tags": {
    "addr:city": "Fortaleza",
    "addr:postcode": "60170-151",
    "addr:street": "Rua Vicente Leite",
    "addr:suburb": "Dionísio Torres",
    "internet_access": "no",
    "light_rail": "yes",
    "name": "Pontes Vieira",
    "public_transport": "station",
    "railway": "station",
    "station": "light_rail",
    "website": "https://www.metrofor.ce.gov.br/vlt-fortaleza/",
    "wheelchair": "yes"
  }
},
{
  "type": "node",
  "id": 5713710084,
  "lat": -3.7206604,
  "lon": -38.4770161,
  "tags": {
    "addr:city": "Fortaleza",
    "addr:street": "Avenida Vicente de Castro",
    "addr:suburb": "Cais do Porto",
    "internet_access": "no",
    "light_rail": "yes",
    "name": "Iate",
    "public_transport": "station",
    "railway": "station",
    "station": "light_rail",
    "website": "https://www.metrofor.ce.gov.br/vlt-fortaleza/",
    "wheelchair": "yes"
  }
},
{
  "type": "node",
  "id": 5713710085,
  "lat": -3.7261649,
  "lon": -38.4802753,
  "tags": {
    "addr:city": "Fortaleza",
    "addr:suburb": "Mucuripe",
    "internet_access": "no",
    "internet_access:fee": "no",
    "light_rail": "yes",
    "name": "Mucuripe",
    "public_transport": "station",
    "railway": "station",
    "station": "light_rail",
    "website": "https://www.metrofor.ce.gov.br/vlt-fortaleza/",
    "wheelchair": "yes"
  }
},
{
  "type": "node",
  "id": 5713710086,
  "lat": -3.7489203,
  "lon": -38.4937262,
  "tags": {
    "addr:city": "Fortaleza",
    "addr:suburb": "Dionísio Torres",
    "internet_access": "no",
    "light_rail": "yes",
    "name": "Antônio Sales",
    "network": "Linha 3–Azul (Nordeste)",
    "operator": "Metrofor",
    "public_transport": "station",
    "railway": "station",
    "station": "light_rail",
    "website": "https://www.metrofor.ce.gov.br/vlt-fortaleza/",
    "wheelchair": "yes"
  }
},
{
  "type": "node",
  "id": 5713710087,
  "lat": -3.7387160,
  "lon": -38.4865784,
  "tags": {
    "addr:city": "Fortaleza",
    "internet_access": "no",
    "light_rail": "yes",
    "name": "Papicu",
    "public_transport": "station",
    "railway": "station",
    "station": "light_rail",
    "wheelchair": "yes"
  }
},
{
  "type": "node",
  "id": 5749812221,
  "lat": -16.3231117,
  "lon": -48.9565289,
  "tags": {
    "amenity": "bus_station",
    "bus": "yes",
    "name": "Terminal Urbano de Anápolis",
    "public_transport": "station"
  }
},
{
  "type": "node",
  "id": 5752693308,
  "lat": -8.0010134,
  "lon": -37.4168479,
  "tags": {
    "name": "Albuquerque Né",
    "railway": "station",
    "ruins": "yes"
  }
},
{
  "type": "node",
  "id": 5752712744,
  "lat": -7.8644945,
  "lon": -37.9703970,
  "tags": {
    "abandoned:railway": "station",
    "name": "Flores",
    "public_transport": "station",
    "railway": "station",
    "train": "yes"
  }
},
{
  "type": "node",
  "id": 5754347126,
  "lat": -7.9067230,
  "lon": -38.0892563,
  "tags": {
    "abandoned:railway": "station",
    "name": "Engenheiro Cornélio",
    "public_transport": "station",
    "railway": "station",
    "ruins": "yes",
    "train": "yes"
  }
},
{
  "type": "node",
  "id": 5760975043,
  "lat": -13.1804220,
  "lon": -39.4170877,
  "tags": {
    "amenity": "bus_station",
    "bus": "yes",
    "public_transport": "station"
  }
},
{
  "type": "node",
  "id": 5771659553,
  "lat": -15.8787984,
  "lon": -52.2950594,
  "tags": {
    "amenity": "bus_station",
    "name": "Rodoviária de Barra do Garças",
    "operator": "Wesley Humberto"
  }
},
{
  "type": "node",
  "id": 5784334611,
  "lat": -9.3883461,
  "lon": -37.9886165,
  "tags": {
    "amenity": "bus_station",
    "bus": "yes",
    "name": "Terminal Rodoviário de Delmiro Gouveia",
    "public_transport": "station"
  }
},
{
  "type": "node",
  "id": 5800854929,
  "lat": -12.9823694,
  "lon": -38.5122905,
  "tags": {
    "name": "Lapa",
    "public_transport": "station",
    "railway": "station",
    "station": "subway",
    "subway": "yes",
    "wikidata": "Q306253",
    "wikipedia": "pt:Metrô de Salvador"
  }
},
{
  "type": "node",
  "id": 5823952653,
  "lat": -13.7314496,
  "lon": -39.1449316,
  "tags": {
    "amenity": "bus_station",
    "name": "Rodoviario Itubera",
    "name:en": "Itubera bus terminal"
  }
},
{
  "type": "node",
  "id": 5926722827,
  "lat": -6.5548987,
  "lon": -36.5941798,
  "tags": {
    "amenity": "bus_station",
    "bus": "yes",
    "name": "Terminal Rodoviário",
    "public_transport": "station"
  }
},
{
  "type": "node",
  "id": 5940939540,
  "lat": -14.7085472,
  "lon": -47.5230777,
  "tags": {
    "amenity": "bus_station",
    "bus": "yes",
    "public_transport": "station"
  }
},
{
  "type": "node",
  "id": 5962835339,
  "lat": -16.7098771,
  "lon": -49.2275584,
  "tags": {
    "amenity": "bus_station"
  }
},
{
  "type": "node",
  "id": 5969399807,
  "lat": -10.8756970,
  "lon": -51.6326201,
  "tags": {
    "amenity": "bus_station",
    "name": "Rodoviária De Porto Alegre Do Norte"
  }
},
{
  "type": "node",
  "id": 5983695099,
  "lat": -7.9872230,
  "lon": -38.3025428,
  "tags": {
    "amenity": "bus_station",
    "name": "Terminal Municipal de Transportes Alternativo"
  }
},
{
  "type": "node",
  "id": 5994463574,
  "lat": -1.7472777,
  "lon": -47.0594680,
  "tags": {
    "amenity": "bus_station",
    "bus": "yes",
    "public_transport": "station"
  }
},
{
  "type": "node",
  "id": 6053423418,
  "lat": -7.3116668,
  "lon": -38.9377087,
  "tags": {
    "addr:city": "Milagres",
    "addr:postcode": "63250-000",
    "addr:street": "Rodovia Santos Dumont",
    "addr:suburb": "Rodoviário",
    "amenity": "bus_station",
    "bus": "yes",
    "internet_access": "no",
    "name": "Terminal Rodoviário Antônia Valdelice Leite",
    "network": "Onibus",
    "nohousenumber": "yes",
    "operator": "Prefeitura de Milagres, CE",
    "public_transport": "station",
    "wheelchair": "yes"
  }
},
{
  "type": "node",
  "id": 6060626432,
  "lat": -7.0181589,
  "lon": -37.9453539,
  "tags": {
    "addr:city": "Coremas",
    "addr:postcode": "58770-000",
    "addr:street": "Avenida Getúlio Vargas",
    "addr:suburb": "Centro",
    "amenity": "bus_station",
    "bus": "yes",
    "internet_access": "yes",
    "name": "Terminal Rodoviário de Coremas",
    "public_transport": "station",
    "source": "IBGE"
  }
},
{
  "type": "node",
  "id": 6094279358,
  "lat": -1.2948339,
  "lon": -48.4839337,
  "tags": {
    "amenity": "bus_station",
    "bus": "yes",
    "public_transport": "station"
  }
},
{
  "type": "node",
  "id": 6096781890,
  "lat": -1.3385442,
  "lon": -48.4371430,
  "tags": {
    "amenity": "bus_station",
    "bus": "yes",
    "name": "Terminal Jardim Satélite",
    "network": "Zona Norte",
    "operator": "SeMOB",
    "public_transport": "station"
  }
},
{
  "type": "node",
  "id": 6130989685,
  "lat": -7.1892329,
  "lon": -48.2223072,
  "tags": {
    "amenity": "bus_station",
    "bus": "yes",
    "internet_access": "yes",
    "name": "Terminal Rodoviário De Araguaína",
    "name:en": "Bus terminal Araguania;Bus Terminal of Araguaína",
    "public_transport": "station"
  }
},
{
  "type": "node",
  "id": 6137616493,
  "lat": -10.3081424,
  "lon": -36.5841546,
  "tags": {
    "amenity": "bus_station",
    "name": "Balsa e Táxi Neópolis"
  }
},
{
  "type": "node",
  "id": 6137616496,
  "lat": -10.2942449,
  "lon": -36.5836036,
  "tags": {
    "amenity": "bus_station",
    "name": "Rodoviária de Penedo"
  }
},
{
  "type": "node",
  "id": 6188618645,
  "lat": -3.5194553,
  "lon": -41.4268133,
  "tags": {
    "amenity": "bus_station",
    "bus": "yes",
    "public_transport": "station"
  }
},
{
  "type": "node",
  "id": 6271647885,
  "lat": -2.7650024,
  "lon": -42.2785224,
  "tags": {
    "amenity": "bus_station",
    "bus": "yes",
    "name": "Terminal Rodoviario",
    "name:af": "Terminal bus station",
    "name:de": "Busbahnhof Tutoia",
    "public_transport": "station"
  }
},
{
  "type": "node",
  "id": 6357083486,
  "lat": -2.8999210,
  "lon": -40.8426411,
  "tags": {
    "amenity": "bus_station",
    "bus": "yes",
    "name": "Minibus para Je",
    "name:pt": "Minibus para Jijoca",
    "public_transport": "station"
  }
},
{
  "type": "node",
  "id": 6380568662,
  "lat": -9.9086811,
  "lon": -36.3477613,
  "tags": {
    "amenity": "bus_station",
    "bus": "yes",
    "name": "Terminal de Vans",
    "public_transport": "station"
  }
},
{
  "type": "node",
  "id": 6381277693,
  "lat": -4.1309712,
  "lon": -38.2390726,
  "tags": {
    "amenity": "bus_station",
    "bus": "yes",
    "network": "São Benedito, Aurora",
    "public_transport": "station"
  }
},
{
  "type": "node",
  "id": 6384261295,
  "lat": -9.9066460,
  "lon": -36.3597524,
  "tags": {
    "amenity": "bus_station",
    "bus": "yes",
    "name": "Mini Terminal",
    "public_transport": "station"
  }
},
{
  "type": "node",
  "id": 6386850560,
  "lat": -8.5168243,
  "lon": -41.0030409,
  "tags": {
    "description": "HISTÓRICO",
    "historic": "yes",
    "image": "https://www.estacoesferroviarias.com.br/ba_paulistana/fotos/afranio071.jpg",
    "name": "Afrânio",
    "public_transport": "station",
    "railway": "station",
    "train": "yes"
  }
},
{
  "type": "node",
  "id": 6397156567,
  "lat": -8.0750021,
  "lon": -39.1253891,
  "tags": {
    "disused": "yes",
    "name": "Salgueiro",
    "public_transport": "station",
    "railway": "station",
    "train": "yes"
  }
},
{
  "type": "node",
  "id": 6407961022,
  "lat": -5.1385568,
  "lon": -42.7991148,
  "tags": {
    "addr:city": "Teresina",
    "addr:street": "Avenida Doutor Luis Pires Chaves",
    "addr:suburb": "Saci",
    "amenity": "bus_station",
    "bus": "yes",
    "name": "Parada do vermelhao",
    "public_transport": "station"
  }
},
{
  "type": "node",
  "id": 6409071189,
  "lat": -10.1688877,
  "lon": -48.8843997,
  "tags": {
    "addr:city": "Paraíso do Tocantins",
    "addr:postcode": "776000-000",
    "addr:street": "Avenida Alfredo Nasser",
    "addr:suburb": "Interlagos",
    "amenity": "bus_station",
    "bus": "yes",
    "name": "Rodoviária de Paraíso do Toncantins",
    "nohousenumber": "yes",
    "public_transport": "station"
  }
},
{
  "type": "node",
  "id": 6409467509,
  "lat": -12.2471370,
  "lon": -41.6115065,
  "tags": {
    "amenity": "bus_station",
    "bus": "yes",
    "name": "Terminal Rodoviário de Iraquara",
    "public_transport": "station"
  }
},
{
  "type": "node",
  "id": 6432107985,
  "lat": -7.1951411,
  "lon": -39.3160927,
  "tags": {
    "amenity": "bus_station",
    "bus": "yes",
    "name": "Terminal Metropolitano de Juazeiro do Norte",
    "public_transport": "station"
  }
},
{
  "type": "node",
  "id": 6434742903,
  "lat": -16.0375597,
  "lon": -48.0565850,
  "tags": {
    "amenity": "bus_station",
    "bus": "yes",
    "name": "Terminal de Ônibus Setor Sul",
    "public_transport": "station"
  }
},
{
  "type": "node",
  "id": 6441383595,
  "lat": -12.7965990,
  "lon": -41.3278326,
  "tags": {
    "amenity": "bus_station",
    "bus": "yes",
    "name": "Rodoviária de Andaraí",
    "public_transport": "station"
  }
},
{
  "type": "node",
  "id": 6441763891,
  "lat": -3.8323995,
  "lon": -49.6779099,
  "tags": {
    "addr:city": "Tucuruí",
    "addr:street": "Rua Venezuela",
    "addr:suburb": "Vila Permanente",
    "amenity": "bus_station",
    "bus": "yes",
    "internet_access": "no",
    "name": "Rodoviaria da vila permanente",
    "public_transport": "station"
  }
},
{
  "type": "node",
  "id": 6441879586,
  "lat": -13.0066454,
  "lon": -41.3704855,
  "tags": {
    "amenity": "bus_station",
    "name": "Parada da Emtram",
    "survey:date": "2025-05-10"
  }
},
{
  "type": "node",
  "id": 6441886685,
  "lat": -13.0096139,
  "lon": -41.3725508,
  "tags": {
    "amenity": "bus_station",
    "name": "Parada da Cidade Sol",
    "wheelchair": "no"
  }
},
{
  "type": "node",
  "id": 6441886686,
  "lat": -13.0053148,
  "lon": -41.3722493,
  "tags": {
    "amenity": "bus_station",
    "name": "Parada da Cidade Sol"
  }
},
{
  "type": "node",
  "id": 6441886687,
  "lat": -13.0081482,
  "lon": -41.3694188,
  "tags": {
    "amenity": "bus_station",
    "name": "Parada de Excursões"
  }
},
{
  "type": "node",
  "id": 6443933466,
  "lat": -9.7578965,
  "lon": -36.6456754,
  "tags": {
    "amenity": "bus_station",
    "bus": "yes",
    "name": "Rodoviária de Arapiraca",
    "network": "Sinart",
    "public_transport": "station"
  }
},
{
  "type": "node",
  "id": 6456339708,
  "lat": -15.8736822,
  "lon": -48.0849112,
  "tags": {
    "addr:city": "Samambaia",
    "addr:housenumber": "202",
    "addr:postcode": "72316-050",
    "addr:street": "QN",
    "addr:suburb": "Samambaia Sul",
    "internet_access": "no",
    "name": "Samambaia",
    "opening_hours": "Mo-Sa 05:30-23:30; Su 07:00-19:00",
    "operator": "Metrô - DF",
    "public_transport": "station",
    "railway": "station",
    "start_date": "17 de agosto de 1998",
    "station": "subway",
    "subway": "yes",
    "wheelchair": "yes",
    "wikidata": "Q10276183",
    "wikipedia": "pt:Estação Terminal Samambaia"
  }
},
{
  "type": "node",
  "id": 6501085348,
  "lat": -12.9112085,
  "lon": -38.4953987,
  "tags": {
    "amenity": "bus_station",
    "bus": "yes",
    "name": "Terminal Ribeira",
    "public_transport": "station"
  }
},
{
  "type": "node",
  "id": 6520133542,
  "lat": -15.8332767,
  "lon": -48.0563320,
  "tags": {
    "addr:city": "Brasília",
    "addr:suburb": "Taguatinga Centro - DF",
    "air_conditioning": "no",
    "internet_access": "no",
    "internet_access:fee": "no",
    "level": "-1",
    "name": "Praça do Relógio",
    "operator": "Metrô-DF",
    "payment:cash": "yes",
    "phone": "+55 61 3353-7373",
    "public_transport": "station",
    "railway": "station",
    "station": "subway",
    "subway": "yes",
    "website": "https://www.metro.df.gov.br/",
    "wheelchair": "yes",
    "wikidata": "Q10276066",
    "wikipedia": "pt:Estação Praça do Relógio"
  }
},
{
  "type": "node",
  "id": 6530809755,
  "lat": -7.9831515,
  "lon": -38.2970653,
  "tags": {
    "name": "Estação Serra Talhada",
    "public_transport": "station",
    "railway": "station",
    "train": "yes"
  }
},
{
  "type": "node",
  "id": 6563952486,
  "lat": -8.3166014,
  "lon": -36.2893489,
  "tags": {
    "name": "Tacaimbó",
    "public_transport": "station",
    "railway": "station",
    "train": "yes"
  }
},
{
  "type": "node",
  "id": 6566313041,
  "lat": -3.7331173,
  "lon": -38.6571087,
  "tags": {
    "amenity": "bus_station",
    "bus": "yes",
    "departures_board": "no",
    "name": "Terminal Finanças",
    "operator": "Empresa Vitória",
    "public_transport": "station",
    "shelter": "yes"
  }
},
{
  "type": "node",
  "id": 6566401854,
  "lat": -10.6963514,
  "lon": -39.8513989,
  "tags": {
    "public_transport": "station",
    "railway": "station",
    "train": "yes"
  }
},
{
  "type": "node",
  "id": 6568841983,
  "lat": -5.0846237,
  "lon": -42.8037517,
  "tags": {
    "addr:city": "Teresina",
    "addr:housenumber": "2885",
    "addr:postcode": "64000-512",
    "addr:street": "Avenida Miguel Rosa",
    "addr:suburb": "Centro Sul",
    "light_rail": "yes",
    "name": "Frei Serafim",
    "public_transport": "station",
    "railway": "station",
    "station": "light_rail"
  }
},
{
  "type": "node",
  "id": 6592327430,
  "lat": -6.3638000,
  "lon": -39.2998632,
  "tags": {
    "name": "Iguatu",
    "public_transport": "station",
    "railway": "station",
    "train": "yes"
  }
},
{
  "type": "node",
  "id": 6603559361,
  "lat": -1.1282760,
  "lon": -47.6178842,
  "tags": {
    "amenity": "bus_station",
    "bus": "yes",
    "name": "Terminal Rodóviario",
    "public_transport": "station"
  }
},
{
  "type": "node",
  "id": 6603643725,
  "lat": -1.1285551,
  "lon": -47.6217488,
  "tags": {
    "amenity": "bus_station",
    "bus": "yes",
    "public_transport": "station"
  }
},
{
  "type": "node",
  "id": 6614838179,
  "lat": -8.9972619,
  "lon": -42.6826911,
  "tags": {
    "amenity": "bus_station",
    "bus": "yes",
    "name": "Estação Rodoviária de São Raimundo Nonato",
    "public_transport": "station"
  }
},
{
  "type": "node",
  "id": 6616139025,
  "lat": -12.1191517,
  "lon": -43.8891850,
  "tags": {
    "amenity": "bus_station"
  }
},
{
  "type": "node",
  "id": 6632603734,
  "lat": -15.7933591,
  "lon": -47.8825794,
  "tags": {
    "amenity": "bus_station",
    "bus": "yes",
    "name": "Rodoviria do Plano Piloto",
    "public_transport": "station"
  }
},
{
  "type": "node",
  "id": 6632634108,
  "lat": -15.7932743,
  "lon": -47.8826236,
  "tags": {
    "amenity": "bus_station",
    "bus": "yes",
    "name": "Rodoviaria do Plano Piloto",
    "public_transport": "station"
  }
},
{
  "type": "node",
  "id": 6650883125,
  "lat": -1.5112636,
  "lon": -48.6141185,
  "tags": {
    "amenity": "bus_station",
    "bus": "yes",
    "name": "cooperativa cootransbar",
    "public_transport": "station"
  }
},
{
  "type": "node",
  "id": 6650886581,
  "lat": -1.5109767,
  "lon": -48.6070696,
  "tags": {
    "amenity": "bus_station",
    "bus": "yes",
    "name": "Cooperativa Cobarta",
    "public_transport": "station"
  }
},
{
  "type": "node",
  "id": 6668229289,
  "lat": -12.8654546,
  "lon": -38.4711772,
  "tags": {
    "amenity": "bus_station",
    "bus": "yes",
    "internet_access": "no",
    "public_transport": "station"
  }
},
{
  "type": "node",
  "id": 6710206953,
  "lat": -4.3244647,
  "lon": -40.1492667,
  "tags": {
    "amenity": "bus_station",
    "name": "Rodoviária Deputado Chico Figueiredo"
  }
},
{
  "type": "node",
  "id": 6744979881,
  "lat": -12.7777455,
  "lon": -38.9182922,
  "tags": {
    "amenity": "bus_station",
    "bus": "yes",
    "name": "Rodoviária de Maragogipe",
    "public_transport": "station"
  }
},
{
  "type": "node",
  "id": 6811646657,
  "lat": -10.7454108,
  "lon": -47.5388947,
  "tags": {
    "amenity": "bus_station",
    "public_transport": "station"
  }
},
{
  "type": "node",
  "id": 6821330731,
  "lat": -3.6207987,
  "lon": -43.1092670,
  "tags": {
    "addr:city": "Mata Roma",
    "addr:postcode": "65510000",
    "addr:street": "Rua Deputado Raimundo Bacelar",
    "addr:suburb": "Centro",
    "amenity": "bus_station",
    "bus": "yes",
    "name": "Rodoviária Municipal",
    "public_transport": "station"
  }
},
{
  "type": "node",
  "id": 6831230686,
  "lat": -10.4641542,
  "lon": -51.4510528,
  "tags": {
    "amenity": "bus_station",
    "bus": "yes",
    "name": "Rodoviária do Canta Galo",
    "public_transport": "station"
  }
},
{
  "type": "node",
  "id": 6838704268,
  "lat": -1.4625569,
  "lon": -48.4550557,
  "tags": {
    "addr:street": "Rua São Domingos",
    "addr:suburb": "TERRA FIRME",
    "amenity": "bus_station",
    "bus": "yes",
    "name": "Parade ônibus",
    "public_transport": "station"
  }
},
{
  "type": "node",
  "id": 6838704269,
  "lat": -1.4625952,
  "lon": -48.4550922,
  "tags": {
    "addr:street": "Rua São Domingos",
    "addr:suburb": "TERRA FIRME",
    "amenity": "bus_station",
    "bus": "yes",
    "name": "Ponto de Combi",
    "public_transport": "station"
  }
},
{
  "type": "node",
  "id": 6838704271,
  "lat": -1.4613759,
  "lon": -48.4541978,
  "tags": {
    "addr:street": "Rua São Domingos",
    "addr:suburb": "TERRA FIRME",
    "amenity": "bus_station",
    "bus": "yes",
    "name": "Parada de ônibus",
    "public_transport": "station"
  }
},
{
  "type": "node",
  "id": 6838704272,
  "lat": -1.4598505,
  "lon": -48.4535072,
  "tags": {
    "addr:street": "Rua São Domingos",
    "addr:suburb": "TERRA FIRME",
    "amenity": "bus_station",
    "bus": "yes",
    "name": "Parada de ônibus",
    "public_transport": "station"
  }
},
{
  "type": "node",
  "id": 6838704273,
  "lat": -1.4583949,
  "lon": -48.4529596,
  "tags": {
    "addr:street": "Rua São Domingos",
    "addr:suburb": "TERRA FIRME",
    "amenity": "bus_station",
    "bus": "yes",
    "name": "Parada de ônibus",
    "public_transport": "station"
  }
},
{
  "type": "node",
  "id": 6838704274,
  "lat": -1.4563649,
  "lon": -48.4513316,
  "tags": {
    "addr:street": "Avenida Celso Malcher",
    "addr:suburb": "TERRA FIRME",
    "amenity": "bus_station",
    "bus": "yes",
    "name": "Ponto de MotoTaxi",
    "public_transport": "station"
  }
},
{
  "type": "node",
  "id": 6838704275,
  "lat": -1.4563892,
  "lon": -48.4513072,
  "tags": {
    "addr:street": "Avenida Celso Malcher",
    "addr:suburb": "TERRA FIRME",
    "amenity": "bus_station",
    "bus": "yes",
    "name": "Ponto de ônibus",
    "public_transport": "station"
  }
},
{
  "type": "node",
  "id": 6838704276,
  "lat": -1.4560844,
  "lon": -48.4512950,
  "tags": {
    "addr:street": "Rua São Domingos",
    "addr:suburb": "TERRA FIRME",
    "amenity": "bus_station",
    "bus": "yes",
    "name": "Ponto de ônibus",
    "public_transport": "station"
  }
},
{
  "type": "node",
  "id": 6838704277,
  "lat": -1.4568404,
  "lon": -48.4507177,
  "tags": {
    "addr:street": "Avenida Celso Malcher",
    "addr:suburb": "TERRA FIRME",
    "amenity": "bus_station",
    "bus": "yes",
    "name": "Ponto de Ônibus",
    "public_transport": "station"
  }
},
{
  "type": "node",
  "id": 6838736645,
  "lat": -1.4492907,
  "lon": -48.4469083,
  "tags": {
    "addr:street": "Avenida Perimetral",
    "addr:suburb": "Terra Firme",
    "amenity": "bus_station",
    "bus": "yes",
    "name": "Parada de ônibus",
    "public_transport": "station"
  }
},
{
  "type": "node",
  "id": 6838736648,
  "lat": -1.4467699,
  "lon": -48.4521040,
  "tags": {
    "amenity": "bus_station",
    "bus": "yes",
    "name": "Ponto de MotoTaxi",
    "public_transport": "station"
  }
},
{
  "type": "node",
  "id": 6838736649,
  "lat": -1.4472561,
  "lon": -48.4508638,
  "tags": {
    "amenity": "bus_station",
    "bus": "yes",
    "name": "Ponto de Moto Taxi",
    "public_transport": "station"
  }
},
{
  "type": "node",
  "id": 6874599700,
  "lat": -3.7262586,
  "lon": -38.5324527,
  "tags": {
    "addr:city": "Fortaleza",
    "addr:suburb": "Centro",
    "air_conditioning": "no",
    "internet_access": "no",
    "name": "José de Alencar",
    "public_transport": "station",
    "railway": "station",
    "station": "subway",
    "subway": "yes",
    "website": "https://www.metrofor.ce.gov.br/linha-sul/",
    "wheelchair": "yes"
  }
},
{
  "type": "node",
  "id": 6883560081,
  "lat": -16.1616076,
  "lon": -47.9730218,
  "tags": {
    "amenity": "bus_station",
    "bus": "yes",
    "name": "Terminal de Ônibus Catedral",
    "public_transport": "station"
  }
},
{
  "type": "node",
  "id": 6919483370,
  "lat": -13.5382048,
  "lon": -48.2228072,
  "tags": {
    "addr:city": "Minaçu",
    "addr:postcode": "76450000",
    "addr:street": "Rua 01",
    "amenity": "bus_station",
    "bus": "yes",
    "name": "Rodoviária Municipal de Minaçu",
    "operator": "Município de Minaçu",
    "public_transport": "station"
  }
},
{
  "type": "node",
  "id": 6935099999,
  "lat": -1.4570165,
  "lon": -48.4505583,
  "tags": {
    "amenity": "bus_station",
    "bus": "yes",
    "name": "GARAGEM CANUDOS",
    "public_transport": "station"
  }
},
{
  "type": "node",
  "id": 6935100000,
  "lat": -1.4570473,
  "lon": -48.4507740,
  "tags": {
    "amenity": "bus_station",
    "bus": "yes",
    "name": "GARAGEM GERAL CANUDOS",
    "public_transport": "station"
  }
},
{
  "type": "node",
  "id": 6968932685,
  "lat": -12.4002745,
  "lon": -46.4377436,
  "tags": {
    "amenity": "bus_station",
    "name": "Rodoviaria Taguatinga TO",
    "name:en": "Terminal bus Taguatinga TO",
    "name:fr": "Gare routière Taguatinga TO"
  }
},
{
  "type": "node",
  "id": 6969891170,
  "lat": -15.8354488,
  "lon": -48.0861545,
  "tags": {
    "name": "Centro Metropolitano",
    "public_transport": "station",
    "railway": "station",
    "station": "subway",
    "subway": "yes",
    "wikidata": "Q10275644",
    "wikipedia": "pt:Estação Centro Metropolitano"
  }
},
{
  "type": "node",
  "id": 6969915038,
  "lat": -15.8355465,
  "lon": -48.0827540,
  "tags": {
    "amenity": "bus_station",
    "bus": "yes",
    "name": "Rodoviária Provisória de Taguatinga",
    "public_transport": "station"
  }
},
{
  "type": "node",
  "id": 6992473950,
  "lat": -3.7201317,
  "lon": -38.5352742,
  "tags": {
    "alt_name": "Central",
    "name": "Central - Chico da Silva",
    "public_transport": "station",
    "railway": "station",
    "station": "subway",
    "subway": "yes"
  }
},
{
  "type": "node",
  "id": 6992486607,
  "lat": -3.7395374,
  "lon": -38.5396390,
  "tags": {
    "lit": "yes",
    "name": "Benfica",
    "public_transport": "station",
    "railway": "station",
    "station": "subway",
    "subway": "yes",
    "wheelchair": "yes"
  }
},
{
  "type": "node",
  "id": 6992492887,
  "lat": -3.7318123,
  "lon": -38.5345844,
  "tags": {
    "name": "São Benedito",
    "public_transport": "station",
    "railway": "station",
    "station": "subway",
    "subway": "yes",
    "wheelchair": "yes"
  }
},
{
  "type": "node",
  "id": 6992662722,
  "lat": -3.8395378,
  "lon": -38.6006270,
  "tags": {
    "name": "Alto Alegre",
    "network": "Linha Sul",
    "operator": "Companhia Cearense de Transportes Metropolitanos (Metrofor)",
    "public_transport": "station",
    "railway": "station",
    "station": "subway",
    "subway": "yes"
  }
},
{
  "type": "node",
  "id": 7017845442,
  "lat": -12.0073885,
  "lon": -44.6955065,
  "tags": {
    "amenity": "bus_station",
    "bus": "yes",
    "public_transport": "station"
  }
},
{
  "type": "node",
  "id": 7055710061,
  "lat": -3.8171248,
  "lon": -38.5857936,
  "tags": {
    "light_rail": "yes",
    "name": "Esperança",
    "network": "METROFOR",
    "operator": "Companhia Cearense de Transportes Metropolitanos",
    "public_transport": "station",
    "railway": "station",
    "station": "subway",
    "subway": "yes"
  }
},
{
  "type": "node",
  "id": 7055735691,
  "lat": -3.8874736,
  "lon": -38.6269201,
  "tags": {
    "name": "Jereissati",
    "network": "METROFOR",
    "operator": "Companhia Cearense de Transportes Metropolitanos",
    "public_transport": "station",
    "railway": "station",
    "station": "subway",
    "subway": "yes"
  }
},
{
  "type": "node",
  "id": 7055759117,
  "lat": -3.8507786,
  "lon": -38.6083741,
  "tags": {
    "light_rail": "yes",
    "name": "Rachel de Queiroz",
    "network": "METROFOR",
    "operator": "Companhia Cearense de Transportes Metropolitanos",
    "public_transport": "station",
    "railway": "station",
    "station": "subway",
    "subway": "yes",
    "wikimedia_commons": "File:Estação_Rachel_de_Queiroz_01.jpg"
  }
},
{
  "type": "node",
  "id": 7055764714,
  "lat": -3.8267832,
  "lon": -38.5919023,
  "tags": {
    "light_rail": "yes",
    "name": "Aracapé",
    "network": "METROFOR",
    "operator": "Companhia Cearense de Transportes Metropolitanos",
    "public_transport": "station",
    "railway": "station",
    "station": "subway",
    "subway": "yes"
  }
},
{
  "type": "node",
  "id": 7061644305,
  "lat": -3.7192717,
  "lon": -38.5369920,
  "tags": {
    "light_rail": "yes",
    "lit": "yes",
    "name": "Tirol - Moura Brasil",
    "network": "Linha Oeste",
    "operator": "METROFOR",
    "public_transport": "station",
    "railway": "station",
    "shelter": "yes",
    "station": "light_rail"
  }
},
{
  "type": "node",
  "id": 7098698122,
  "lat": -7.0424554,
  "lon": -36.1778015,
  "tags": {
    "name": "Engenheiro Benévolo",
    "railway": "station",
    "ruins": "yes",
    "wikidata": "Q106986116",
    "wikipedia": "pt:Estação Ferroviária Engenheiro Benévolo"
  }
},
{
  "type": "node",
  "id": 7098698123,
  "lat": -7.0566009,
  "lon": -36.3636678,
  "tags": {
    "name": "Soledade",
    "public_transport": "station",
    "railway": "station",
    "ruins": "yes",
    "wikidata": "Q106986122",
    "wikipedia": "pt:Estação Ferroviária de Soledade"
  }
},
{
  "type": "node",
  "id": 7098717125,
  "lat": -6.7201292,
  "lon": -38.6395302,
  "tags": {
    "name": "Santa Helena",
    "public_transport": "station",
    "railway": "station",
    "ruins": "yes"
  }
},
{
  "type": "node",
  "id": 7098717131,
  "lat": -6.8121328,
  "lon": -38.0962354,
  "tags": {
    "name": "Acauã",
    "railway": "station",
    "ruins": "yes"
  }
},
{
  "type": "node",
  "id": 7098717132,
  "lat": -6.8156410,
  "lon": -37.9426387,
  "tags": {
    "name": "São Domingos",
    "railway": "station",
    "ruins": "yes"
  }
},
{
  "type": "node",
  "id": 7107174699,
  "lat": -3.0745784,
  "lon": -42.2367469,
  "tags": {
    "amenity": "bus_station"
  }
},
{
  "type": "node",
  "id": 7129551552,
  "lat": -14.5428175,
  "lon": -52.7923256,
  "tags": {
    "amenity": "bus_station",
    "bus": "yes",
    "name": "Terminal rodoviário",
    "public_transport": "station"
  }
},
{
  "type": "node",
  "id": 7148935673,
  "lat": -8.0406232,
  "lon": -38.4715247,
  "tags": {
    "name": "Felipe Camarão",
    "railway": "station",
    "ref": "PE-3415",
    "ruins": "yes"
  }
},
{
  "type": "node",
  "id": 7148935674,
  "lat": -8.0782928,
  "lon": -38.5937465,
  "tags": {
    "name": "Vidal de Negreiros",
    "railway": "station",
    "ref": "PE-3416"
  }
},
{
  "type": "node",
  "id": 7148935677,
  "lat": -8.1069063,
  "lon": -38.8699561,
  "tags": {
    "name": "Fernandes Vieira",
    "railway": "station",
    "ref": "PE-3418"
  }
},
{
  "type": "node",
  "id": 7148935680,
  "lat": -8.1228926,
  "lon": -39.0022041,
  "tags": {
    "name": "Arlindo Luz",
    "railway": "station",
    "ref": "PE-3419"
  }
},
{
  "type": "node",
  "id": 7149016565,
  "lat": -8.1091733,
  "lon": -38.7286387,
  "tags": {
    "name": "Mirandiba",
    "public_transport": "station",
    "railway": "station",
    "ref": "PE-3417"
  }
},
{
  "type": "node",
  "id": 7166863808,
  "lat": -13.4365780,
  "lon": -40.4319317,
  "tags": {
    "amenity": "bus_station",
    "bus": "yes",
    "public_transport": "station"
  }
},