{
  "version": 0.6,
  "generator": "Overpass API 0.7.62.8 e802775f",
  "osm3s": {
    "timestamp_osm_base": "2025-12-02T13:14:22Z",
    "copyright": "The data included in this document is from www.openstreetmap.org. The data is made available under ODbL."
  },
  "elements": [

{
  "type": "node",
  "id": 316867697,
  "lat": -18.9372017,
  "lon": 47.5977896,
  "tags": {
    "amenity": "bus_station",
    "bus": "yes"
  }
},
{
  "type": "node",
  "id": 335739804,
  "lat": -22.1403144,
  "lon": 48.0134518,
  "tags": {
    "name": "Manakara",
    "operator": "FCE",
    "public_transport": "station",
    "railway": "station",
    "train": "yes"
  }
},
{
  "type": "node",
  "id": 335740773,
  "lat": -21.9303606,
  "lon": 47.9215145,
  "tags": {
    "name": "Mizilo",
    "operator": "FCE",
    "public_transport": "station",
    "railway": "station",
    "train": "yes"
  }
},
{
  "type": "node",
  "id": 335741448,
  "lat": -21.7679540,
  "lon": 47.7732632,
  "tags": {
    "name": "Fenomby",
    "operator": "FCE",
    "public_transport": "station",
    "railway": "station",
    "train": "yes"
  }
},
{
  "type": "node",
  "id": 335742608,
  "lat": -21.7521538,
  "lon": 47.7137313,
  "tags": {
    "name": "Mahabako",
    "operator": "FCE",
    "public_transport": "station",
    "railway": "station",
    "train": "yes"
  }
},
{
  "type": "node",
  "id": 335742626,
  "lat": -21.6693471,
  "lon": 47.5815042,
  "tags": {
    "name": "Ambinany Manampatrana",
    "operator": "FCE",
    "public_transport": "station",
    "railway": "station",
    "train": "yes"
  }
},
{
  "type": "node",
  "id": 335744728,
  "lat": -21.4773856,
  "lon": 47.3872037,
  "tags": {
    "name": "Ranomena",
    "operator": "FCE",
    "public_transport": "station",
    "railway": "station",
    "train": "yes"
  }
},
{
  "type": "node",
  "id": 335745515,
  "lat": -21.4461345,
  "lon": 47.2596088,
  "tags": {
    "name": "Sahambavy",
    "operator": "FCE",
    "public_transport": "station",
    "railway": "station",
    "train": "yes"
  }
},
{
  "type": "node",
  "id": 335745572,
  "lat": -21.4189726,
  "lon": 47.1640701,
  "tags": {
    "name": "Vohimasina",
    "public_transport": "station",
    "railway": "station",
    "train": "yes"
  }
},
{
  "type": "node",
  "id": 335746821,
  "lat": -21.4478254,
  "lon": 47.0904116,
  "tags": {
    "name": "Fianarantsoa",
    "operator": "FCE",
    "public_transport": "station",
    "railway": "station",
    "train": "yes"
  }
},
{
  "type": "node",
  "id": 335757276,
  "lat": -21.8082556,
  "lon": 47.8393370,
  "tags": {
    "name": "Sahasinaka",
    "operator": "FCE",
    "public_transport": "station",
    "railway": "station",
    "train": "yes"
  }
},
{
  "type": "node",
  "id": 335761430,
  "lat": -21.5599133,
  "lon": 47.5155540,
  "tags": {
    "name": "Tolongoina",
    "operator": "FCE",
    "public_transport": "station",
    "railway": "station",
    "train": "yes"
  }
},
{
  "type": "node",
  "id": 335762214,
  "lat": -21.5352468,
  "lon": 47.4824779,
  "tags": {
    "name": "Madiorano",
    "operator": "FCE",
    "public_transport": "station",
    "railway": "station",
    "train": "yes"
  }
},
{
  "type": "node",
  "id": 335762937,
  "lat": -21.5139325,
  "lon": 47.4279914,
  "tags": {
    "name": "Andrambovato",
    "operator": "FCE",
    "public_transport": "station",
    "railway": "station",
    "train": "yes"
  }
},
{
  "type": "node",
  "id": 335763648,
  "lat": -21.4810402,
  "lon": 47.3070595,
  "tags": {
    "name": "Ampitambe",
    "operator": "FCE",
    "public_transport": "station",
    "railway": "station",
    "train": "yes"
  }
},
{
  "type": "node",
  "id": 335803824,
  "lat": -18.9031635,
  "lon": 47.5210347,
  "tags": {
    "name": "Soarano",
    "operator": "Madarail",
    "public_transport": "station",
    "railway": "station",
    "wikidata": "Q20571241",
    "wikipedia": "fr:Gare de Soarano"
  }
},
{
  "type": "node",
  "id": 443387763,
  "lat": -19.8648704,
  "lon": 47.0385998,
  "tags": {
    "name": "Antsirabe",
    "name:ar": "أنتسيرابي",
    "public_transport": "station",
    "railway": "station",
    "train": "yes"
  }
},
{
  "type": "node",
  "id": 443403053,
  "lat": -19.8761992,
  "lon": 47.0359139,
  "tags": {
    "amenity": "bus_station",
    "name": "Stationnement local"
  }
},
{
  "type": "node",
  "id": 581190289,
  "lat": -18.9243261,
  "lon": 48.4165887,
  "tags": {
    "name": "Andasibe",
    "public_transport": "station",
    "railway": "station",
    "train": "yes"
  }
},
{
  "type": "node",
  "id": 589666212,
  "lat": -18.8546475,
  "lon": 47.4798950,
  "tags": {
    "amenity": "bus_station",
    "name": "Terminus 194 Andravoahangy",
    "ref": "Ligne_194 Rouge"
  }
},
{
  "type": "node",
  "id": 590835598,
  "lat": -18.9249853,
  "lon": 47.8144705,
  "tags": {
    "name": "Manjakandriana",
    "public_transport": "station",
    "railway": "station",
    "train": "yes"
  }
},
{
  "type": "node",
  "id": 595731096,
  "lat": -18.8183123,
  "lon": 49.0669526,
  "tags": {
    "name": "Brickaville",
    "public_transport": "station",
    "railway": "station",
    "train": "yes"
  }
},
{
  "type": "node",
  "id": 691477981,
  "lat": -23.3547610,
  "lon": 43.6809422,
  "tags": {
    "amenity": "bus_station",
    "name": "Stationnement National et Régional Sanfily"
  }
},
{
  "type": "node",
  "id": 709046192,
  "lat": -20.2878272,
  "lon": 44.2818934,
  "tags": {
    "amenity": "bus_station",
    "bus": "yes",
    "public_transport": "station"
  }
},
{
  "type": "node",
  "id": 710814399,
  "lat": -19.3826121,
  "lon": 47.4414666,
  "tags": {
    "name": "Ambatolampy",
    "public_transport": "station",
    "railway": "station",
    "train": "yes"
  }
},
{
  "type": "node",
  "id": 724366628,
  "lat": -18.9420923,
  "lon": 47.6612136,
  "tags": {
    "public_transport": "station",
    "railway": "station",
    "train": "yes"
  }
},
{
  "type": "node",
  "id": 727284591,
  "lat": -25.1778934,
  "lon": 46.0785307,
  "tags": {
    "amenity": "bus_station",
    "ele": "127"
  }
},
{
  "type": "node",
  "id": 727292571,
  "lat": -22.1554665,
  "lon": 48.0038828,
  "tags": {
    "amenity": "bus_station"
  }
},
{
  "type": "node",
  "id": 727298887,
  "lat": -20.5249941,
  "lon": 47.2494000,
  "tags": {
    "amenity": "bus_station",
    "name": "Gare routière"
  }
},
{
  "type": "node",
  "id": 1332794068,
  "lat": -21.8340482,
  "lon": 46.9266762,
  "tags": {
    "amenity": "bus_station",
    "public_transport": "station"
  }
},
{
  "type": "node",
  "id": 1425349507,
  "lat": -18.5985011,
  "lon": 49.2477188,
  "tags": {
    "name": "Andranokoditra",
    "public_transport": "station",
    "railway": "station",
    "train": "yes"
  }
},
{
  "type": "node",
  "id": 1429796876,
  "lat": -18.9201690,
  "lon": 48.5368122,
  "tags": {
    "name": "Fanovana",
    "public_transport": "station",
    "railway": "station",
    "train": "yes"
  }
},
{
  "type": "node",
  "id": 1429796879,
  "lat": -18.7981419,
  "lon": 48.6018619,
  "tags": {
    "name": "Andekaleka",
    "public_transport": "station",
    "railway": "station",
    "train": "yes"
  }
},
{
  "type": "node",
  "id": 1429862585,
  "lat": -18.7963797,
  "lon": 48.7947048,
  "tags": {
    "name": "Fanasana",
    "public_transport": "station",
    "railway": "station",
    "train": "yes"
  }
},
{
  "type": "node",
  "id": 1429863889,
  "lat": -18.7882523,
  "lon": 48.6811420,
  "tags": {
    "name": "Lohariandava",
    "public_transport": "station",
    "railway": "station",
    "train": "yes"
  }
},
{
  "type": "node",
  "id": 1430311566,
  "lat": -18.7311728,
  "lon": 48.9803247,
  "tags": {
    "name": "Anivorano",
    "public_transport": "station",
    "railway": "station",
    "train": "yes"
  }
},
{
  "type": "node",
  "id": 1635338556,
  "lat": -18.8837692,
  "lon": 47.9778512,
  "tags": {
    "name": "Anjiro",
    "public_transport": "station",
    "railway": "station",
    "train": "yes"
  }
},
{
  "type": "node",
  "id": 1636457106,
  "lat": -18.2198472,
  "lon": 48.2662011,
  "tags": {
    "name": "Andaingo",
    "public_transport": "station",
    "railway": "station",
    "train": "yes"
  }
},
{
  "type": "node",
  "id": 1636457139,
  "lat": -18.4387514,
  "lon": 48.2728841,
  "tags": {
    "name": "Amboasary",
    "public_transport": "station",
    "railway": "station",
    "train": "yes"
  }
},
{
  "type": "node",
  "id": 1636457235,
  "lat": -18.6057071,
  "lon": 48.2771178,
  "tags": {
    "name": "Ambohidray",
    "public_transport": "station",
    "railway": "station",
    "train": "yes"
  }
},
{
  "type": "node",
  "id": 1640752334,
  "lat": -19.5260787,
  "lon": 47.4319608,
  "tags": {
    "name": "Ambohimandroso",
    "public_transport": "station",
    "railway": "station",
    "train": "yes"
  }
},
{
  "type": "node",
  "id": 1640752335,
  "lat": -19.7729021,
  "lon": 47.1148334,
  "tags": {
    "name": "Andranomanelatra",
    "public_transport": "station",
    "railway": "station",
    "train": "yes"
  }
},
{
  "type": "node",
  "id": 1804467090,
  "lat": -18.9478646,
  "lon": 48.2299438,
  "tags": {
    "amenity": "bus_station"
  }
},
{
  "type": "node",
  "id": 1909997403,
  "lat": -19.2134269,
  "lon": 47.4886667,
  "tags": {
    "name": "Behenjy",
    "public_transport": "station",
    "railway": "station",
    "train": "yes"
  }
},
{
  "type": "node",
  "id": 1963917238,
  "lat": -19.6604270,
  "lon": 46.5322035,
  "tags": {
    "amenity": "bus_station",
    "name": "Gare routière d'Ankazomiriotra"
  }
},
{
  "type": "node",
  "id": 1968478538,
  "lat": -18.8526084,
  "lon": 47.4659941,
  "tags": {
    "amenity": "bus_station",
    "bus": "yes",
    "name": "Terminus 112 Morondava",
    "note": "Bleu",
    "public_transport": "station"
  }
},
{
  "type": "node",
  "id": 1968478539,
  "lat": -18.8590267,
  "lon": 47.4727235,
  "tags": {
    "amenity": "bus_station",
    "name": "Terminus 112 Andranoro",
    "note": "Rouge"
  }
},
{
  "type": "node",
  "id": 1969406391,
  "lat": -18.9124730,
  "lon": 47.5448360,
  "tags": {
    "amenity": "bus_station",
    "bus": "yes",
    "name": "Terminus Bus 194 V",
    "public_transport": "station"
  }
},
{
  "type": "node",
  "id": 1969406392,
  "lat": -18.9126580,
  "lon": 47.5478939,
  "tags": {
    "amenity": "bus_station",
    "bus": "yes",
    "name": "Terminus Bus 194B et 194V",
    "public_transport": "station"
  }
},
{
  "type": "node",
  "id": 1969417540,
  "lat": -18.9542032,
  "lon": 47.5157759,
  "tags": {
    "amenity": "bus_station",
    "name": "Terminus Bus 159"
  }
},
{
  "type": "node",
  "id": 1997083407,
  "lat": -18.9623379,
  "lon": 48.3373378,
  "tags": {
    "name": "Ampasimpotsy",
    "public_transport": "station",
    "railway": "station",
    "train": "yes"
  }
},
{
  "type": "node",
  "id": 1997089796,
  "lat": -18.8862783,
  "lon": 48.5646196,
  "tags": {
    "name": "Ambatovola",
    "public_transport": "station",
    "railway": "station",
    "train": "yes"
  }
},
{
  "type": "node",
  "id": 2359208715,
  "lat": -22.1308731,
  "lon": 48.0133894,
  "tags": {
    "amenity": "bus_station",
    "name": "Stationnement Avaratra"
  }
},
{
  "type": "node",
  "id": 2529148415,
  "lat": -18.9288589,
  "lon": 47.4967235,
  "tags": {
    "amenity": "bus_station",
    "bus": "yes",
    "name": "Terminus 138",
    "public_transport": "station"
  }
},
{
  "type": "node",
  "id": 3256289566,
  "lat": -18.7324443,
  "lon": 48.9787767,
  "tags": {
    "amenity": "bus_station",
    "name": "Taxi-Brousse Station",
    "note": "Brousses run daily, roughly from 5am to 5pm Monday through Satuday and limited on Sunday, leaving when full. The fare is 3,000 Ariary one way. Depending on the size, brousses fill to 18-25 people. The trip to Brickaville, the district capital, takes 1hr."
  }
},
{
  "type": "node",
  "id": 3600257949,
  "lat": -18.8408267,
  "lon": 49.1536672,
  "tags": {
    "name": "Ambila Lemaitso",
    "public_transport": "station",
    "railway": "station",
    "train": "yes"
  }
},
{
  "type": "node",
  "id": 3642704594,
  "lat": -18.8547287,
  "lon": 47.4799963,
  "tags": {
    "addr:city": "Antananarivo",
    "addr:postcode": "101",
    "addr:street": "Làlana Andranomena",
    "amenity": "bus_station",
    "bus": "yes",
    "name": "Terminus 194 Analamahitsy",
    "public_transport": "station",
    "ref": "Ligne_194 Bleu"
  }
},
{
  "type": "node",
  "id": 3642704595,
  "lat": -18.8553344,
  "lon": 47.4801194,
  "tags": {
    "amenity": "bus_station",
    "name": "Terminus 194 Fasankarana",
    "ref": "Ligne_194 Vert"
  }
},
{
  "type": "node",
  "id": 3696893901,
  "lat": -21.4260359,
  "lon": 47.1011078,
  "tags": {
    "amenity": "bus_station",
    "name": "Stationnement Ikalamavony",
    "network": "MG:regional",
    "public_transport": "station"
  }
},
{
  "type": "node",
  "id": 3869413853,
  "lat": -18.8928741,
  "lon": 47.5296742,
  "tags": {
    "amenity": "bus_station",
    "contact:email": "cotissetana@alpa.mg",
    "contact:phone": "+261321102733",
    "name": "Cotisse Transport",
    "website": "https://cotisse-transport.com/home"
  }
},
{
  "type": "node",
  "id": 3904829120,
  "lat": -18.8081725,
  "lon": 47.4725252,
  "tags": {
    "amenity": "bus_station",
    "bus": "yes",
    "name": "Mamory"
  }
},
{
  "type": "node",
  "id": 3989373186,
  "lat": -21.8298692,
  "lon": 46.9404146,
  "tags": {
    "amenity": "bus_station",
    "network": "MG:regional",
    "public_transport": "station"
  }
},
{
  "type": "node",
  "id": 4047413231,
  "lat": -18.8994687,
  "lon": 47.5176544,
  "tags": {
    "amenity": "bus_station",
    "bus": "yes",
    "highway": "bus_stop",
    "name": "Primus Ligne D - Vassacos",
    "public_transport": "station"
  }
},
{
  "type": "node",
  "id": 4047413245,
  "lat": -18.8984442,
  "lon": 47.5174154,
  "tags": {
    "amenity": "bus_station",
    "name": "Stationnement Vassacos"
  }
},
{
  "type": "node",
  "id": 4271717790,
  "lat": -21.6154640,
  "lon": 47.5677131,
  "tags": {
    "name": "Amboanjobe",
    "operator": "FCE",
    "public_transport": "station",
    "railway": "station",
    "train": "yes"
  }
},
{
  "type": "node",
  "id": 4273741466,
  "lat": -19.6416704,
  "lon": 47.1585698,
  "tags": {
    "name": "Sambaina",
    "public_transport": "station",
    "railway": "station",
    "train": "yes"
  }
},
{
  "type": "node",
  "id": 4273745029,
  "lat": -19.6401649,
  "lon": 47.3140800,
  "tags": {
    "name": "Ilempona",
    "public_transport": "station",
    "railway": "station",
    "train": "yes"
  }
},
{
  "type": "node",
  "id": 4283888779,
  "lat": -18.9116758,
  "lon": 47.7062484,
  "tags": {
    "public_transport": "station",
    "railway": "station",
    "train": "yes"
  }
},
{
  "type": "node",
  "id": 4288374702,
  "lat": -18.5241474,
  "lon": 49.2791888,
  "tags": {
    "name": "Tampina",
    "public_transport": "station",
    "railway": "station",
    "train": "yes"
  }
},
{
  "type": "node",
  "id": 4293545713,
  "lat": -18.8802961,
  "lon": 47.5427299,
  "tags": {
    "amenity": "bus_station",
    "operator": "CTVA"
  }
},
{
  "type": "node",
  "id": 4453443688,
  "lat": -18.9536008,
  "lon": 46.9075493,
  "tags": {
    "amenity": "bus_station",
    "operator": "KOFIMANDIDY et FIFIAMI"
  }
},
{
  "type": "node",
  "id": 4539620496,
  "lat": -19.8872933,
  "lon": 47.0403856,
  "tags": {
    "amenity": "bus_station",
    "name:en": "South Bus Station",
    "name:es": "Estación Sur de Autobuses"
  }
},
{
  "type": "node",
  "id": 4700192489,
  "lat": -18.8975384,
  "lon": 47.5599069,
  "tags": {
    "amenity": "bus_station",
    "bus": "yes",
    "name:en": "Terminus 147",
    "operator": "Copérative Tselatra",
    "public_transport": "station"
  }
},
{
  "type": "node",
  "id": 5072717813,
  "lat": -20.2915540,
  "lon": 44.2771750,
  "tags": {
    "amenity": "bus_station",
    "bus": "yes",
    "name:en": "Cotisse",
    "name:fr": "Sonatra Plus",
    "public_transport": "station"
  }
},
{
  "type": "node",
  "id": 5074111722,
  "lat": -19.8887024,
  "lon": 47.0397489,
  "tags": {
    "amenity": "bus_station"
  }
},
{
  "type": "node",
  "id": 5099892021,
  "lat": -23.3621150,
  "lon": 43.6703046,
  "tags": {
    "amenity": "bus_station",
    "name:en": "Anakao express boatservice"
  }
},
{
  "type": "node",
  "id": 5114278026,
  "lat": -18.1495345,
  "lon": 49.4044224,
  "tags": {
    "addr:city": "Toamasina",
    "addr:postcode": "501",
    "addr:street": "Boulevard d'Andevoranto",
    "amenity": "bus_station",
    "bus": "yes",
    "name": "Transport Vatsy",
    "name:en": "Transport VATSY",
    "operator": "Transport Vatsy",
    "public_transport": "station"
  }
},
{
  "type": "node",
  "id": 5116627521,
  "lat": -18.1498715,
  "lon": 49.4044668,
  "tags": {
    "amenity": "bus_station",
    "bus": "yes",
    "name:en": "BESADY",
    "public_transport": "station"
  }
},
{
  "type": "node",
  "id": 5116627721,
  "lat": -18.1498312,
  "lon": 49.4044240,
  "tags": {
    "amenity": "bus_station",
    "bus": "yes",
    "name:en": "COTRAMADY",
    "public_transport": "station"
  }
},
{
  "type": "node",
  "id": 5116627722,
  "lat": -18.1490343,
  "lon": 49.4039949,
  "tags": {
    "amenity": "bus_station",
    "bus": "yes",
    "name:en": "BESADY+",
    "public_transport": "station"
  }
},
{
  "type": "node",
  "id": 5116627723,
  "lat": -18.1488649,
  "lon": 49.4037114,
  "tags": {
    "amenity": "bus_station",
    "bus": "yes",
    "name:en": "ANJARA TRANS",
    "public_transport": "station"
  }
},
{
  "type": "node",
  "id": 5209508023,
  "lat": -18.1487714,
  "lon": 49.4035309,
  "tags": {
    "amenity": "bus_station",
    "bus": "yes",
    "name:en": "Trans JIABY",
    "public_transport": "station"
  }
},
{
  "type": "node",
  "id": 5209509023,
  "lat": -18.1491828,
  "lon": 49.4034703,
  "tags": {
    "amenity": "bus_station",
    "bus": "yes",
    "name:en": "TRANS RAPIDE",
    "public_transport": "station"
  }
},
{
  "type": "node",
  "id": 5209509024,
  "lat": -18.1487400,
  "lon": 49.4029304,
  "tags": {
    "amenity": "bus_station",
    "bus": "yes",
    "name:en": "MADAGASCAR VOYAGE",
    "public_transport": "station"
  }
},
{
  "type": "node",
  "id": 5209509122,
  "lat": -18.1503362,
  "lon": 49.4049444,
  "tags": {
    "amenity": "bus_station",
    "bus": "yes",
    "name:en": "COTRANSU RN5",
    "public_transport": "station"
  }
},
{
  "type": "node",
  "id": 5336143922,
  "lat": -21.2355883,
  "lon": 48.3472402,
  "tags": {
    "amenity": "bus_station",
    "bus": "yes",
    "name:en": "Taxi-Bruss Station",
    "name:ru": "Автостанция такси-брюсс",
    "public_transport": "station"
  }
},
{
  "type": "node",
  "id": 5356894621,
  "lat": -22.4827749,
  "lon": 46.8870165,
  "tags": {
    "amenity": "bus_station",
    "name:en": "Taxi-bruss station"
  }
},
{
  "type": "node",
  "id": 5431604447,
  "lat": -18.8975663,
  "lon": 47.4958183,
  "tags": {
    "addr:street": "RN4, Rocade Andohatapenaka",
    "amenity": "bus_station",
    "name:en": "Gare Routière Maki",
    "name:fr": "Gare Routière Maki"
  }
},
{
  "type": "node",
  "id": 5431608238,
  "lat": -18.8828925,
  "lon": 47.5412556,
  "tags": {
    "addr:street": "RN3",
    "amenity": "bus_station",
    "name:fr": "Gare Routière Trans NIAINA",
    "opening_hours": "24/7"
  }
},
{
  "type": "node",
  "id": 5442335640,
  "lat": -18.9477029,
  "lon": 47.5720929,
  "tags": {
    "amenity": "bus_station",
    "name": "terminus I commune Mahatsinjo"
  }
},
{
  "type": "node",
  "id": 5527444422,
  "lat": -23.3648754,
  "lon": 43.6958123,
  "tags": {
    "addr:street": "RN7",
    "amenity": "bus_station",
    "name:en": "Trans Malala office Tulear",
    "phone": "034 26 537 77",
    "website": "http://www.transmalala.com"
  }
},
{
  "type": "node",
  "id": 5527444423,
  "lat": -23.3595136,
  "lon": 43.6674292,
  "tags": {
    "amenity": "bus_station",
    "name:en": "Transfert Anakao office - boat transfer",
    "phone": "020 94 922 20",
    "website": "https://transfert-anakao.com/"
  }
},
{
  "type": "node",
  "id": 5573364795,
  "lat": -18.9358344,
  "lon": 47.5953001,
  "tags": {
    "amenity": "bus_station",
    "bus": "yes"
  }
},
{
  "type": "node",
  "id": 5573419328,
  "lat": -18.9329736,
  "lon": 47.5794598,
  "tags": {
    "amenity": "bus_station",
    "bus": "yes"
  }
},
{
  "type": "node",
  "id": 5589041894,
  "lat": -19.1374803,
  "lon": 47.1724150,
  "tags": {
    "amenity": "bus_station",
    "name": "Terminus Taxi-Brousse Arivonimamo-Amboanana",
    "public_transport": "platform"
  }
},
{
  "type": "node",
  "id": 5650717973,
  "lat": -21.8338997,
  "lon": 46.9261188,
  "tags": {
    "amenity": "bus_station",
    "name:en": "Kofifi (Nationale)"
  }
},
{
  "type": "node",
  "id": 5669675839,
  "lat": -18.8091671,
  "lon": 47.4825608,
  "tags": {
    "amenity": "bus_station",
    "bus": "yes",
    "name": "Tsena"
  }
},
{
  "type": "node",
  "id": 5669675841,
  "lat": -18.8063955,
  "lon": 47.4792044,
  "tags": {
    "amenity": "bus_station",
    "bus": "yes",
    "name": "Essence"
  }
},
{
  "type": "node",
  "id": 5669675843,
  "lat": -18.8066707,
  "lon": 47.4760050,
  "tags": {
    "amenity": "bus_station",
    "bus": "yes",
    "name": "Pompe"
  }
},
{
  "type": "node",
  "id": 5669675845,
  "lat": -18.8196439,
  "lon": 47.4665469,
  "tags": {
    "amenity": "bus_station",
    "bus": "yes",
    "name": "13"
  }
},
{
  "type": "node",
  "id": 5669675847,
  "lat": -18.8506268,
  "lon": 47.4779744,
  "tags": {
    "amenity": "bus_station",
    "bus": "yes",
    "name": "Plaque"
  }
},
{
  "type": "node",
  "id": 5729653310,
  "lat": -18.6899371,
  "lon": 47.3729313,
  "tags": {
    "amenity": "bus_station",
    "name": "Primus/Terminus Taxi-Brousse Mahitsy-Antanetibe Mahazaza"
  }
},
{
  "type": "node",
  "id": 5738510649,
  "lat": -19.8645891,
  "lon": 47.0261072,
  "tags": {
    "amenity": "bus_station",
    "bench": "no",
    "highway": "bus_stop",
    "name": "Voirie",
    "public_transport": "platform",
    "shelter": "no"
  }
},
{
  "type": "node",
  "id": 5796258846,
  "lat": -18.8809519,
  "lon": 47.5427867,
  "tags": {
    "amenity": "bus_station",
    "name": "Soava Tsara Transport",
    "network": "Zone Nationale"
  }
},
{
  "type": "node",
  "id": 5805932277,
  "lat": -18.7693031,
  "lon": 46.0464719,
  "tags": {
    "amenity": "bus_station",
    "bus": "yes",
    "network": "MG:suburban",
    "public_transport": "station"
  }
},
{
  "type": "node",
  "id": 5805932278,
  "lat": -18.7732699,
  "lon": 46.0520603,
  "tags": {
    "amenity": "bus_station",
    "bus": "yes",
    "network": "MG:suburban",
    "public_transport": "station"
  }
},
{
  "type": "node",
  "id": 6026405866,
  "lat": -19.8775192,
  "lon": 47.0358340,
  "tags": {
    "amenity": "bus_station",
    "name": "Mpanao pneu"
  }
},
{
  "type": "node",
  "id": 6026406926,
  "lat": -19.8658900,
  "lon": 46.9763241,
  "tags": {
    "amenity": "bus_station",
    "name": "Terminus bus ligne 5 Andraikiba"
  }
},
{
  "type": "node",
  "id": 6026407108,
  "lat": -19.8649778,
  "lon": 47.0113878,
  "tags": {
    "amenity": "bus_station",
    "name": "Sampanan'ivohitra",
    "public_transport": "platform"
  }
},
{
  "type": "node",
  "id": 6026407268,
  "lat": -19.8969805,
  "lon": 47.0423245,
  "tags": {
    "amenity": "bus_station",
    "name": "Terminus bus ligne 12 seminaire Ambohimena"
  }
},
{
  "type": "node",
  "id": 6026407673,
  "lat": -19.8372273,
  "lon": 47.0450444,
  "tags": {
    "amenity": "bus_station",
    "name": "Primus bus ligne 16 Vatofotsy"
  }
},
{
  "type": "node",
  "id": 6026407692,
  "lat": -19.8437028,
  "lon": 47.0379803,
  "tags": {
    "amenity": "bus_station",
    "name": "Terminus bus ligne 12"
  }
},
{
  "type": "node",
  "id": 6026407727,
  "lat": -19.8815721,
  "lon": 47.0465075,
  "tags": {
    "amenity": "bus_station",
    "name": "Terminus Bus ligne 13"
  }
},
{
  "type": "node",
  "id": 6026408176,
  "lat": -19.9364715,
  "lon": 47.0506116,
  "tags": {
    "amenity": "bus_station",
    "name": "Terminus 10 Antsira"
  }
},
{
  "type": "node",
  "id": 6027925366,
  "lat": -19.8842192,
  "lon": 47.0099265,
  "tags": {
    "amenity": "bus_station",
    "name": "Terminus bus ligne 14 Tsenan'omby"
  }
},
{
  "type": "node",
  "id": 6027925859,
  "lat": -19.9420242,
  "lon": 47.0417963,
  "tags": {
    "amenity": "bus_station",
    "name": "Terminus bus ligne 17 Lavarano"
  }
},
{
  "type": "node",
  "id": 6028771570,
  "lat": -19.8176237,
  "lon": 47.0756787,
  "tags": {
    "amenity": "bus_station",
    "name": "Primus bus ligne 17 Soroka Iray"
  }
},
{
  "type": "node",
  "id": 6030371680,
  "lat": -19.8637840,
  "lon": 46.9712957,
  "tags": {
    "amenity": "bus_station",
    "bus": "yes",
    "name": "Terminus bus ligne 11 Talata",
    "public_transport": "station"
  }
},
{
  "type": "node",
  "id": 6031731891,
  "lat": -19.8581220,
  "lon": 47.0169609,
  "tags": {
    "amenity": "bus_station",
    "name": "Terminus bus ligne 18 Ampahitra"
  }
},
{
  "type": "node",
  "id": 6031731957,
  "lat": -19.8855880,
  "lon": 47.0480091,
  "tags": {
    "amenity": "bus_station",
    "name": "Primus bus ligne 18 cite MELIA"
  }
},
{
  "type": "node",
  "id": 6034011466,
  "lat": -19.8593924,
  "lon": 46.9511262,
  "tags": {
    "amenity": "bus_station",
    "name": "Terminus bus ligne 4 Ambohidrano"
  }
},
{
  "type": "node",
  "id": 6034711645,
  "lat": -19.8188533,
  "lon": 47.0724047,
  "tags": {
    "amenity": "bus_station",
    "name": "Primus bus ligne 11 Antsaha"
  }
},
{
  "type": "node",
  "id": 6034711646,
  "lat": -19.9009165,
  "lon": 47.0429714,
  "tags": {
    "amenity": "bus_station",
    "name": "Terminus bus ligne 16 SOBA Ambohimena"
  }
},
{
  "type": "node",
  "id": 6034711647,
  "lat": -19.8286746,
  "lon": 47.0543641,
  "tags": {
    "amenity": "bus_station",
    "name": "Terminus bus ligne 14 Antsampanimahazo"
  }
},
{
  "type": "node",
  "id": 6034711648,
  "lat": -19.8442347,
  "lon": 47.0390736,
  "tags": {
    "amenity": "bus_station",
    "name": "Primus bus ligne 12 Stationnement Vatofotsy"
  }
},
{
  "type": "node",
  "id": 6034711649,
  "lat": -19.8357925,
  "lon": 47.0375003,
  "tags": {
    "amenity": "bus_station",
    "name": "Terminus bus ligne 11 Dalle Vatofotsy"
  }
},
{
  "type": "node",
  "id": 6034711650,
  "lat": -19.8273167,
  "lon": 47.0564710,
  "tags": {
    "amenity": "bus_station",
    "name": "Terminus bus ligne 5BIS Antsampanimahazo"
  }
},
{
  "type": "node",
  "id": 6040961691,
  "lat": -19.8239604,
  "lon": 47.0625661,
  "tags": {
    "amenity": "bus_station",
    "name": "Terminus bus ligne 5 Tombontsoa"
  }
},
{
  "type": "node",
  "id": 6281856206,
  "lat": -18.9438188,
  "lon": 48.2306936,
  "tags": {
    "name": "Moramanga",
    "platforms": "2",
    "public_transport": "station",
    "railway": "station",
    "train": "yes"
  }
},
{
  "type": "node",
  "id": 6393470386,
  "lat": -18.8950930,
  "lon": 47.5613484,
  "tags": {
    "amenity": "bus_station",
    "bus": "yes",
    "name:en": "Bushtaxi Ambatomanga",
    "public_transport": "station"
  }
},
{
  "type": "node",
  "id": 6393478385,
  "lat": -18.8950316,
  "lon": 47.5613754,
  "tags": {
    "amenity": "bus_station",
    "bus": "yes",
    "name:en": "Bushtaxi Mantasoa",
    "public_transport": "station"
  }
},
{
  "type": "node",
  "id": 6411425185,
  "lat": -19.5227047,
  "lon": 47.4320541,
  "tags": {
    "amenity": "bus_station",
    "name": "Gare Routière (Tana-Ambohimandroso, Ambohimandroso-Antsirabe)"
  }
},
{
  "type": "node",
  "id": 6411425186,
  "lat": -19.5256840,
  "lon": 47.4316290,
  "tags": {
    "amenity": "bus_station",
    "name": "Gare Routière (Tana-Ambohimandroso, Ambohimandroso-Antanifotsy)"
  }
},
{
  "type": "node",
  "id": 6424857286,
  "lat": -18.9418190,
  "lon": 47.6616164,
  "tags": {
    "amenity": "bus_station",
    "bus": "yes",
    "name": "Taxi Brousse Anjeva",
    "name:en": "Terminus Anjeva",
    "public_transport": "station"
  }
},
{
  "type": "node",
  "id": 6449340385,
  "lat": -20.2923551,
  "lon": 44.2758115,
  "tags": {
    "amenity": "bus_station",
    "bus": "yes",
    "name:en": "Taxi-brousse to Belo-sur-Mer",
    "public_transport": "station"
  }
},
{
  "type": "node",
  "id": 6466065885,
  "lat": -20.2975105,
  "lon": 44.2826569,
  "tags": {
    "amenity": "bus_station",
    "bus": "yes",
    "name:en": "TSY TARA minibuses to Tana",
    "public_transport": "station"
  }
},
{
  "type": "node",
  "id": 6472194403,
  "lat": -20.3034354,
  "lon": 44.2679523,
  "tags": {
    "amenity": "bus_station",
    "name:en": "Boats to Belo-sur-mer",
    "name:fr": "Pirogues vers Belo-sur-mer"
  }
},
{
  "type": "node",
  "id": 6673050656,
  "lat": -18.0574739,
  "lon": 44.0304679,
  "tags": {
    "amenity": "bus_station",
    "bus": "yes",
    "name": "Stationnement KOFIMANDIDY",
    "operator": "KOFIMANDIDY",
    "public_transport": "station"
  }
},
{
  "type": "node",
  "id": 6673207787,
  "lat": -18.8737815,
  "lon": 47.4868413,
  "tags": {
    "amenity": "bus_station",
    "name": "Terminus Bus 114 Ambodihady"
  }
},
{
  "type": "node",
  "id": 6680031310,
  "lat": -18.0570281,
  "lon": 44.0276219,
  "tags": {
    "amenity": "bus_station",
    "bus": "yes",
    "name": "Stationnement FIFITSI",
    "public_transport": "station"
  }
},
{
  "type": "node",
  "id": 6702213351,
  "lat": -18.6757055,
  "lon": 44.6220297,
  "tags": {
    "amenity": "bus_station",
    "name": "Stationnement Taxi brousse"
  }
},
{
  "type": "node",
  "id": 6711776947,
  "lat": -20.2961524,
  "lon": 44.4009967,
  "tags": {
    "amenity": "bus_station",
    "bus": "yes",
    "name": "Stationnement Belo Tsiribihina",
    "public_transport": "station"
  }
},
{
  "type": "node",
  "id": 6715089778,
  "lat": -19.7038957,
  "lon": 44.5456211,
  "tags": {
    "amenity": "bus_station",
    "name": "Stationnement Taxi Brousse",
    "operator": "MAFiO"
  }
},
{
  "type": "node",
  "id": 6777604344,
  "lat": -22.8187652,
  "lon": 47.8182095,
  "tags": {
    "amenity": "bus_station",
    "internet_access": "no",
    "name": "Gare routière farafangana"
  }
},
{
  "type": "node",
  "id": 6883393315,
  "lat": -19.6181037,
  "lon": 47.1392273,
  "tags": {
    "amenity": "bus_station",
    "name": "Primus Taxi Brousse"
  }
},
{
  "type": "node",
  "id": 6883393316,
  "lat": -19.6178258,
  "lon": 47.1386419,
  "tags": {
    "amenity": "bus_station",
    "name": "Terminus Taxi Brousse"
  }
},
{
  "type": "node",
  "id": 7167467695,
  "lat": -18.9752740,
  "lon": 47.4283450,
  "tags": {
    "amenity": "bus_station",
    "name": "Terminus G Cur"
  }
},
{
  "type": "node",
  "id": 7434425886,
  "lat": -18.9211105,
  "lon": 47.5209340,
  "tags": {
    "amenity": "bus_station",
    "bus": "yes",
    "name:en": "SoaTrans",
    "public_transport": "station"
  }
},
{
  "type": "node",
  "id": 7590076349,
  "lat": -21.6441531,
  "lon": 47.1593674,
  "tags": {
    "amenity": "bus_station"
  }
},
{
  "type": "node",
  "id": 7657593185,
  "lat": -18.8800634,
  "lon": 47.5421800,
  "tags": {
    "addr:housenumber": "3",
    "addr:postcode": "101",
    "addr:street": "Andranobevava",
    "amenity": "bus_station",
    "name:en": "SAVA MIRINDRA TRANSPORT",
    "name:fr": "Transporteur SAVA MIRINDRA",
    "opening_hours": "Mo-Sa 09:00-18:00",
    "phone": "0326530841"
  }
},
{
  "type": "node",
  "id": 7873180874,
  "lat": -18.9202479,
  "lon": 47.5243041,
  "tags": {
    "amenity": "bus_station",
    "bus": "yes",
    "name": "Mahamasina",
    "public_transport": "station",
    "ref": "Ligne 017"
  }
},
{
  "type": "node",
  "id": 8065861644,
  "lat": -20.2431713,
  "lon": 47.3847935,
  "tags": {
    "amenity": "bus_station"
  }
},
{
  "type": "node",
  "id": 8403206453,
  "lat": -19.8382842,
  "lon": 46.8543760,
  "tags": {
    "amenity": "bus_station",
    "name": "Bus Station"
  }
},
{
  "type": "node",
  "id": 8568469276,
  "lat": -18.9376450,
  "lon": 47.5537405,
  "tags": {
    "name": "Mandroseza",
    "public_transport": "station",
    "railway": "station",
    "train": "yes"
  }
},
{
  "type": "node",
  "id": 9132957168,
  "lat": -18.8681880,
  "lon": 47.5604682,
  "tags": {
    "amenity": "bus_station",
    "name": "Primus 126 Antanetibe"
  }
},
{
  "type": "node",
  "id": 9132981633,
  "lat": -18.9907957,
  "lon": 47.5027249,
  "tags": {
    "amenity": "bus_station",
    "name": "Terminus Bus Ankadivoribe-Andoharanofotsy"
  }
},
{
  "type": "node",
  "id": 9474084964,
  "lat": -21.6989228,
  "lon": 47.9617958,
  "tags": {
    "amenity": "bus_station",
    "name": "Stationnement Analavory - Ampasimanjeva",
    "public_transport": "station"
  }
},
{
  "type": "node",
  "id": 9491673894,
  "lat": -21.8833417,
  "lon": 43.8954541,
  "tags": {
    "amenity": "bus_station",
    "name": "Gare routiere",
    "note": "taxi-brousse"
  }
},
{
  "type": "node",
  "id": 9491678922,
  "lat": -21.6061811,
  "lon": 43.6747622,
  "tags": {
    "amenity": "bus_station",
    "name": "Gare routiere"
  }
},
{
  "type": "node",
  "id": 9492289898,
  "lat": -22.1043865,
  "lon": 43.8938840,
  "tags": {
    "amenity": "bus_station",
    "name": "Stationnement de taxi brousse de befandriana -sud"
  }
},
{
  "type": "node",
  "id": 9498103776,
  "lat": -22.4075093,
  "lon": 46.1244896,
  "tags": {
    "amenity": "bus_station",
    "bus": "yes",
    "name": "Stationnement Analaliry",
    "public_transport": "station"
  }
},
{
  "type": "node",
  "id": 9518820004,
  "lat": -23.3526276,
  "lon": 43.6793263,
  "tags": {
    "amenity": "bus_station",
    "name": "Bonne chance"
  }
},
{
  "type": "node",
  "id": 9533744562,
  "lat": -22.0724961,
  "lon": 43.2388013,
  "tags": {
    "amenity": "bus_station",
    "note": "taxi-brousse"
  }
},
{
  "type": "node",
  "id": 9544465227,
  "lat": -21.7033430,
  "lon": 43.7454036,
  "tags": {
    "amenity": "bus_station",
    "name": "Stationnement de taxi brousse Tanandava"
  }
},
{
  "type": "node",
  "id": 9552426946,
  "lat": -21.7434329,
  "lon": 43.3607078,
  "tags": {
    "amenity": "bus_station",
    "note": "taxi-brousse"
  }
},
{
  "type": "node",
  "id": 9552446993,
  "lat": -21.7041685,
  "lon": 43.7463658,
  "tags": {
    "amenity": "bus_station",
    "note": "taxi_brousse"
  }
},
{
  "type": "node",
  "id": 9562233901,
  "lat": -21.6710735,
  "lon": 43.5323730,
  "tags": {
    "amenity": "bus_station",
    "fixme": "from local knowledge but exact location to check",
    "note": "taxi-brousse"
  }
},
{
  "type": "node",
  "id": 9562233902,
  "lat": -21.6828656,
  "lon": 43.5213116,
  "tags": {
    "amenity": "bus_station",
    "fixme": "from local knowledge but exact location to check",
    "note": "taxi-brousse"
  }
},
{
  "type": "node",
  "id": 9562233904,
  "lat": -21.7250637,
  "lon": 43.4939825,
  "tags": {
    "amenity": "bus_station",
    "fixme": "from local knowledge but exact location to check",
    "note": "taxi-brousse"
  }
},
{
  "type": "node",
  "id": 9586172837,
  "lat": -24.9853182,
  "lon": 44.1075926,
  "tags": {
    "amenity": "bus_station",
    "note": "taxi-brousse"
  }
},
{
  "type": "node",
  "id": 9791979480,
  "lat": -18.1504274,
  "lon": 49.4041418,
  "tags": {
    "amenity": "bus_station",
    "bus": "yes",
    "name": "Trans Ravinala Weendy Class",
    "public_transport": "station"
  }
},
{
  "type": "node",
  "id": 9871944820,
  "lat": -19.0290582,
  "lon": 47.4214058,
  "tags": {
    "amenity": "bus_station",
    "name": "Tsionjoarivo"
  }
},
{
  "type": "node",
  "id": 9939397879,
  "lat": -18.9053705,
  "lon": 47.5259052,
  "tags": {
    "amenity": "bus_station",
    "name": "Terminus"
  }
},
{
  "type": "node",
  "id": 10056819917,
  "lat": -18.9662050,
  "lon": 47.5339656,
  "tags": {
    "addr:postcode": "102",
    "addr:street": "Route d’Ankaraobato",
    "amenity": "bus_station",
    "name:fr": "Trans-Denis"
  }
},
{
  "type": "node",
  "id": 10243075431,
  "lat": -23.3577270,
  "lon": 43.6839986,
  "tags": {
    "amenity": "bus_station",
    "note": "taxi-brousse"
  }
},
{
  "type": "node",
  "id": 10784268971,
  "lat": -24.6936082,
  "lon": 44.7475564,
  "tags": {
    "amenity": "bus_station",
    "note": "taxi-brousse"
  }
},
{
  "type": "node",
  "id": 10836642020,
  "lat": -18.9981810,
  "lon": 47.5359052,
  "tags": {
    "amenity": "bus_station",
    "name": "Terminus bus 137,187,172"
  }
},
{
  "type": "node",
  "id": 10836642022,
  "lat": -18.9771579,
  "lon": 47.5330165,
  "tags": {
    "amenity": "bus_station"
  }
},
{
  "type": "node",
  "id": 10976833708,
  "lat": -23.3507786,
  "lon": 47.6037028,
  "tags": {
    "amenity": "bus_station",
    "network": "MG:national"
  }
},
{
  "type": "node",
  "id": 10976833720,
  "lat": -23.3491888,
  "lon": 47.6050664,
  "tags": {
    "amenity": "bus_station",
    "network": "MG:national"
  }
},
{
  "type": "node",
  "id": 11028307091,
  "lat": -19.8644142,
  "lon": 47.0342735,
  "tags": {
    "amenity": "bus_station",
    "name": "Soatrans Plus"
  }
},
{
  "type": "node",
  "id": 11030372469,
  "lat": -19.8649116,
  "lon": 47.0355796,
  "tags": {
    "amenity": "bus_station",
    "name": "Sotrate"
  }
},
{
  "type": "node",
  "id": 11041595762,
  "lat": -20.4197752,
  "lon": 47.3333357,
  "tags": {
    "amenity": "bus_station",
    "name": "Gare Routière Imito"
  }
},
{
  "type": "node",
  "id": 11042847761,
  "lat": -21.4408427,
  "lon": 47.0974310,
  "tags": {
    "addr:city": "Fianarantsoa",
    "addr:housenumber": "Ambalafary",
    "addr:postcode": "301",
    "amenity": "bus_station",
    "bus": "yes",
    "contact:phone": "+261 34 777 02",
    "internet_access": "yes",
    "name": "Coopérative SOATRANS Plus",
    "operator": "Transporteur privé",
    "public_transport": "station"
  }
},
{
  "type": "node",
  "id": 11052056205,
  "lat": -23.3472585,
  "lon": 43.6715176,
  "tags": {
    "amenity": "bus_station",
    "name:en": "Cotisse Transport",
    "name:fr": "Cotisse Transport",
    "phone": "0321202710",
    "website": "https://cotisse-transport.com/"
  }
},
{
  "type": "node",
  "id": 11064825721,
  "lat": -21.4483273,
  "lon": 47.0900036,
  "tags": {
    "addr:city": "Fianarantsoa",
    "addr:housenumber": "7",
    "addr:postcode": "301",
    "addr:street": "Route Nationale",
    "amenity": "bus_station",
    "bus": "yes",
    "name": "Sonatra Plus",
    "phone": "+261321102733",
    "public_transport": "station"
  }
},
{
  "type": "node",
  "id": 11068165303,
  "lat": -22.8221841,
  "lon": 47.8273888,
  "tags": {
    "amenity": "bus_station",
    "name": "Rapide Service"
  }
},
{
  "type": "node",
  "id": 11078885355,
  "lat": -18.9299868,
  "lon": 47.5832831,
  "tags": {
    "name": "Amoronakona",
    "public_transport": "station",
    "railway": "station",
    "train": "yes"
  }
},
{
  "type": "node",
  "id": 11078885372,
  "lat": -18.9475518,
  "lon": 47.5336952,
  "tags": {
    "name": "Androndrakely",
    "public_transport": "station",
    "railway": "station",
    "train": "yes"
  }
},
{
  "type": "node",
  "id": 11078885381,
  "lat": -18.9403485,
  "lon": 47.5220256,
  "tags": {
    "name": "Soanierana",
    "public_transport": "station",
    "railway": "station",
    "train": "yes"
  }
},
{
  "type": "node",
  "id": 11082697172,
  "lat": -18.7680961,
  "lon": 46.0472029,
  "tags": {
    "addr:city": "Tsiroanomandidy",
    "addr:postcode": "111",
    "amenity": "bus_station",
    "bus": "yes",
    "name": "Gare routière Ampivarotakisoa",
    "public_transport": "station"
  }
},
{
  "type": "node",
  "id": 11082895628,
  "lat": -20.5265640,
  "lon": 47.2496698,
  "tags": {
    "addr:city": "Ambositra",
    "addr:housenumber": "7",
    "addr:place": "Iajaky",
    "addr:postcode": "306",
    "amenity": "bus_station",
    "bus": "yes",
    "name": "Soatrans",
    "public_transport": "station"
  }
},
{
  "type": "node",
  "id": 11083622310,
  "lat": -18.0848662,
  "lon": 48.2403184,
  "tags": {
    "name": "Anoairoa",
    "public_transport": "station",
    "railway": "station",
    "train": "yes"
  }
},
{
  "type": "node",
  "id": 11083622417,
  "lat": -18.1565047,
  "lon": 48.2532931,
  "tags": {
    "public_transport": "station",
    "railway": "station",
    "train": "yes"
  }
},
{
  "type": "node",
  "id": 11085659964,
  "lat": -22.8217916,
  "lon": 47.8242766,
  "tags": {
    "amenity": "bus_station",
    "bus": "yes",
    "name": "Stationement Lotragnambo",
    "public_transport": "station"
  }
},
{
  "type": "node",
  "id": 11089065497,
  "lat": -18.9431249,
  "lon": 47.5995604,
  "tags": {
    "name": "Ambohimanambola",
    "public_transport": "station",
    "railway": "station",
    "train": "yes"
  }
},
{
  "type": "node",
  "id": 11089245532,
  "lat": -18.9276970,
  "lon": 47.8831677,
  "tags": {
    "name": "Ambatolaona",
    "public_transport": "station",
    "railway": "station",
    "train": "yes"
  }
},
{
  "type": "node",
  "id": 11090085421,
  "lat": -21.2394300,
  "lon": 48.3458666,
  "tags": {
    "addr:city": "Mananjary",
    "addr:postcode": "317",
    "amenity": "bus_station",
    "bus": "yes",
    "name": "Stationnement régional",
    "public_transport": "station"
  }
},
{
  "type": "node",
  "id": 11259334757,
  "lat": -18.9970885,
  "lon": 46.4693285,
  "tags": {
    "amenity": "bus_station",
    "name": "Gare routière"
  }
},
{
  "type": "node",
  "id": 11761871769,
  "lat": -23.3474091,
  "lon": 43.6713429,
  "tags": {
    "amenity": "bus_station",
    "name": "cotisse transport"
  }
},
{
  "type": "node",
  "id": 11849665946,
  "lat": -18.9061201,
  "lon": 47.5225054,
  "tags": {
    "amenity": "bus_station",
    "bus": "yes",
    "name": "Transport Première Classe",
    "public_transport": "station"
  }
},
{
  "type": "node",
  "id": 11866141349,
  "lat": -18.9454006,
  "lon": 47.5246070,
  "tags": {
    "amenity": "bus_station",
    "bus": "yes",
    "name": "Gare routière FICOTRANS Ankadimbahoaka",
    "public_transport": "station"
  }
},
{
  "type": "node",
  "id": 11866189234,
  "lat": -19.3806567,
  "lon": 47.4398136,
  "tags": {
    "amenity": "bus_station",
    "bus": "yes",
    "name": "Gare routière SOATRANS AMBATOLAMPY",
    "operator": "SOATRANS",
    "public_transport": "station"
  }
},
{
  "type": "node",
  "id": 12124334394,
  "lat": -18.8939348,
  "lon": 47.5487381,
  "tags": {
    "amenity": "bus_station",
    "bus": "yes",
    "name": "Gare Ampasampito",
    "public_transport": "station"
  }
},
{
  "type": "node",
  "id": 12549716422,
  "lat": -18.0516992,
  "lon": 44.0244263,
  "tags": {
    "amenity": "bus_station",
    "bus": "yes",
    "name": "Trans Fy Aina",
    "public_transport": "station"
  }
},
{
  "type": "node",
  "id": 13041279001,
  "lat": -25.3183653,
  "lon": 45.4839367,
  "tags": {
    "amenity": "bus_station",
    "name": "Gare routiere"
  }
},
{
  "type": "node",
  "id": 13095703545,
  "lat": -18.8771314,
  "lon": 47.5733385,
  "tags": {
    "amenity": "bus_station",
    "name": "Primus/Terminus 135 Ambohibe"
  }
},
{
  "type": "node",
  "id": 13306370501,
  "lat": -18.9466003,
  "lon": 48.2280633,
  "tags": {
    "amenity": "bus_station",
    "name:fr": "TAFITA CLASS MORAMANGA"
  }
},
{
  "type": "node",
  "id": 13306374601,
  "lat": -18.9480269,
  "lon": 48.2301116,
  "tags": {
    "amenity": "bus_station",
    "name:fr": "KOMPIMA"
  }
},
{
  "type": "node",
  "id": 13306374801,
  "lat": -18.9478908,
  "lon": 48.2297948,
  "tags": {
    "amenity": "bus_station",
    "name:fr": "KOFIMANGA"
  }
},
{
  "type": "node",
  "id": 13306376001,
  "lat": -18.9478516,
  "lon": 48.2301308,
  "tags": {
    "amenity": "bus_station",
    "name:fr": "KOFIMA"
  }
},
{
  "type": "node",
  "id": 13306377201,
  "lat": -18.9479018,
  "lon": 48.2302372,
  "tags": {
    "amenity": "bus_station",
    "name:fr": "TAFITA"
  }
},
{
  "type": "node",
  "id": 13307890001,
  "lat": -18.8935255,
  "lon": 47.5524712,
  "tags": {
    "amenity": "bus_station",
    "name:fr": "Tafita class"
  }
},
{
  "type": "node",
  "id": 13317257601,
  "lat": -18.8916955,
  "lon": 47.5580235,
  "tags": {
    "amenity": "bus_station",
    "name:fr": "Transam"
  }
},
{
  "type": "way",
  "id": 37800941,
  "nodes": [
    443385457,
    443385458,
    5023360928,
    5023360929,
    5023360930,
    5023360938,
    443385456,
    443385461,
    5023360937,
    5023360936,
    5023360935,
    5023360933,
    5023360934,
    443385462,
    443385459,
    443385460,
    5023360932,
    5023360931,
    443385457
  ],
  "tags": {
    "amenity": "bus_station",
    "name": "Stationnement sud"
  }
},
{
  "type": "way",
  "id": 37800986,
  "nodes": [
    443385107,
    443385109,
    10774077303,
    443385110,
    443385112,
    443385107
  ],
  "tags": {
    "amenity": "bus_station",
    "bus": "yes",
    "name": "North Bus Station",
    "public_transport": "station"
  }
},
{
  "type": "way",
  "id": 37828795,
  "nodes": [
    443645155,
    443645159,
    443645157,
    443645172,
    443645173,
    443645168,
    443645166,
    443645167,
    443645164,
    5017455175,
    443645165,
    443645174,
    443645155
  ],
  "tags": {
    "amenity": "bus_station",
    "name": "Stationnement Ouest"
  }
},
{
  "type": "way",
  "id": 53578792,
  "nodes": [
    676825748,
    676825735,
    676825733,
    676826561,
    676825754,
    676825755,
    676825756,
    676825748
  ],
  "tags": {
    "amenity": "bus_station",
    "bus": "yes",
    "public_transport": "station"
  }
},
{
  "type": "way",
  "id": 59591816,
  "nodes": [
    739293659,
    739293667,
    739293670,
    739293675,
    739293678,
    739293682,
    739293685,
    739293688,
    739293691,
    739293659
  ],
  "tags": {
    "amenity": "bus_station",
    "name": "Stationnement Taxi-brousse Fasan'ny Karana",
    "note": "Stationnement taxi-brousse du sud"
  }
},
{
  "type": "way",
  "id": 70257290,
  "nodes": [
    838828788,
    838828792,
    838828795,
    838828798,
    838828788
  ],
  "tags": {
    "amenity": "bus_station",
    "bus": "yes",
    "name": "Stationnement taxi-brousse d'Ambodivona",
    "public_transport": "station"
  }
},
{
  "type": "way",
  "id": 70870494,
  "nodes": [
    844904750,
    844904752,
    844904754,
    844904757,
    844904758,
    844904759,
    844904760,
    844904762,
    844904766,
    844904772,
    844904775,
    8458670166,
    844904750
  ],
  "tags": {
    "amenity": "bus_station",
    "building": "yes",
    "bus": "yes",
    "name": "Gare routière Ampasampito",
    "public_transport": "station"
  }
},
{
  "type": "way",
  "id": 114869455,
  "nodes": [
    1300054944,
    3812445959,
    12709432047,
    1300055152,
    1300054976,
    1300054944
  ],
  "tags": {
    "amenity": "bus_station",
    "bus": "yes",
    "name": "Stationnement Avaratra",
    "network": "MG:regional",
    "public_transport": "station"
  }
},
{
  "type": "way",
  "id": 114984519,
  "nodes": [
    3701697126,
    1300926248,
    12615323080,
    1300926126,
    1300926008,
    3701695817,
    3701697127,
    3701697126
  ],
  "tags": {
    "amenity": "bus_station",
    "image": "https://upload.wikimedia.org/wikipedia/commons/a/aa/Bush_taxi_parking.jpg",
    "name": "Stationnement Atsimo",
    "network": "MG:national",
    "public_transport": "station"
  }
},
{
  "type": "way",
  "id": 119501887,
  "nodes": [
    1342568341,
    1342568087,
    1342568285,
    1342568116,
    1342568341
  ],
  "tags": {
    "amenity": "bus_station"
  }
},
{
  "type": "way",
  "id": 169776733,
  "nodes": [
    1809349820,
    1809349811,
    1809349809,
    1809349802,
    5072717813,
    1809349807,
    1809349813,
    1809349815,
    1809349820
  ],
  "tags": {
    "amenity": "bus_station",
    "bus": "yes",
    "public_transport": "station"
  }
},
{
  "type": "way",
  "id": 191059788,
  "nodes": [
    2016459420,
    2016459414,
    5157568104,
    2016459412,
    2016459419,
    5157568105,
    2016459421,
    2016535817,
    2016459423,
    2016535820,
    2016459418,
    5464934108,
    2016459410,
    2016459417,
    2016459420
  ],
  "tags": {
    "amenity": "bus_station",
    "bus": "yes",
    "name": "Gare routière de Tsiroanomandidy",
    "public_transport": "station",
    "source": "bing"
  }
},
{
  "type": "way",
  "id": 318955835,
  "nodes": [
    3253582122,
    3253582109,
    3253582095,
    3253582116,
    3253582122
  ],
  "tags": {
    "building": "yes",
    "operator": "FCE",
    "public_transport": "station",
    "railway": "station"
  }
},
{
  "type": "way",
  "id": 321487175,
  "nodes": [
    3282379511,
    3282379513,
    3282379512,
    8715295602,
    3282379510,
    3282379511
  ],
  "tags": {
    "amenity": "bus_station",
    "name": "Gare Routière du Sud",
    "public_transport": "station"
  }
},
{
  "type": "way",
  "id": 321489741,
  "nodes": [
    3282407028,
    3549389869,
    3549389868,
    3282407026,
    3282407025,
    3549389867,
    3166554962,
    3166554961,
    3166554963,
    3282407027,
    3166555001,
    3166555004,
    3282407029,
    3282407030,
    3282407028
  ],
  "tags": {
    "amenity": "bus_station",
    "bus": "yes",
    "name": "Bâtiment Madarail",
    "public_transport": "station"
  }
},
{
  "type": "way",
  "id": 321500053,
  "nodes": [
    3282498325,
    3282498323,
    3282498324,
    3282498322,
    3282498327,
    3282498330,
    3282498332,
    3282498334,
    3282498333,
    3282498331,
    3282498328,
    3282498326,
    3282498325
  ],
  "tags": {
    "amenity": "bus_station",
    "bus": "yes",
    "public_transport": "station"
  }
},
{
  "type": "way",
  "id": 373181790,
  "nodes": [
    3766935655,
    3766935656,
    3766937557,
    3766937558,
    3766937559,
    3766935655
  ],
  "tags": {
    "amenity": "bus_station"
  }
},
{
  "type": "way",
  "id": 510735097,
  "nodes": [
    4996782038,
    4996782037,
    4999889686,
    4996782036,
    4999889682,
    4996782035,
    4996782038
  ],
  "tags": {
    "amenity": "bus_station",
    "bus": "yes",
    "public_transport": "station"
  }
},
{
  "type": "way",
  "id": 542891071,
  "nodes": [
    5248407273,
    5248407272,
    5248407271,
    5248407270,
    5248407269,
    5248407268,
    5248407267,
    5642637994,
    5248407266,
    5248407265,
    5248407264,
    5248407263,
    5248407262,
    5248407261,
    5248407260,
    5248407259,
    5248407258,
    5248407257,
    5248407256,
    5248407273
  ],
  "tags": {
    "amenity": "bus_station",
    "name": "Primus/Terminus 163"
  }
},
{
  "type": "way",
  "id": 561525267,
  "nodes": [
    5414315196,
    5414315198,
    5414315199,
    5414315197,
    5414315196
  ],
  "tags": {
    "amenity": "bus_station",
    "name": "Terminus KOMAFILA Marobiby"
  }
},
{
  "type": "way",
  "id": 561554114,
  "nodes": [
    5414519576,
    5414519575,
    5414519574,
    5414519573,
    5414519572,
    5414519568,
    5414519563,
    5414519562,
    5414519576
  ],
  "tags": {
    "amenity": "bus_station",
    "bus": "yes",
    "name": "Terminus Bus 178 Manga Andraisoro",
    "public_transport": "station"
  }
},
{
  "type": "way",
  "id": 563864131,
  "nodes": [
    5420300114,
    5573419322,
    5420300116,
    5420300111,
    5442335688,
    5420300113,
    5420300114
  ],
  "tags": {
    "amenity": "bus_station",
    "name": "Terminus I Ambohijatovo"
  }
},
{
  "type": "way",
  "id": 563864132,
  "nodes": [
    5433307306,
    5433307305,
    5433307304,
    5433307303,
    5433307302,
    5433307301,
    5433307300,
    5433307299,
    5433307298,
    5433307297,
    5433307296,
    5433307295,
    5433307306
  ],
  "tags": {
    "amenity": "bus_station",
    "name": "Primus I Ambohitrazaka"
  }
},
{
  "type": "way",
  "id": 564210416,
  "nodes": [
    5436716958,
    5436716957,
    5436716956,
    5436716955,
    5436716954,
    5436716953,
    5436716952,
    5436716951,
    5436716950,
    5436716949,
    5436716948,
    5436716958
  ],
  "tags": {
    "amenity": "bus_station",
    "name": "Primus 110 Anosizato andrefana"
  }
},
{
  "type": "way",
  "id": 564233531,
  "nodes": [
    5436845071,
    5436845070,
    5436845069,
    5436845068,
    5436845067,
    5436845066,
    5436845065,
    5436845064,
    5436845063,
    5436845062,
    5436845061,
    5436845060,
    5436845059,
    5436845058,
    5436845057,
    5436845071
  ],
  "tags": {
    "amenity": "bus_station",
    "bus": "yes",
    "name": "terminus 110 Ambodifilao",
    "public_transport": "station"
  }
},
{
  "type": "way",
  "id": 564931049,
  "nodes": [
    5442019696,
    5442019695,
    5442019694,
    5442019693,
    5442019692,
    5442019691,
    5442019690,
    5442019689,
    5442019688,
    5442019687,
    5442019696
  ],
  "tags": {
    "amenity": "bus_station",
    "bus": "yes",
    "name": "primus 110 Ambodifilao",
    "public_transport": "station"
  }
},
{
  "type": "way",
  "id": 564942673,
  "nodes": [
    5442108066,
    5442108065,
    5442108064,
    5442108063,
    5442108062,
    5442108061,
    5442108060,
    5442108059,
    5442108058,
    5442108057,
    5442108056,
    5442108066
  ],
  "tags": {
    "amenity": "bus_station",
    "name": "Terminus Bus 110 Anosizato Andrefana"
  }
},
{
  "type": "way",
  "id": 564976356,
  "nodes": [
    5442335687,
    5442335686,
    5442335685,
    5442335684,
    5442335683,
    5442335682,
    5442335681,
    5442335680,
    5442335679,
    5442335678,
    5442335677,
    5442335687
  ],
  "tags": {
    "amenity": "bus_station",
    "bus": "yes",
    "name": "Primus_I_Ambohijatovo",
    "public_transport": "station"
  }
},
{
  "type": "way",
  "id": 564993431,
  "nodes": [
    5442445028,
    5442445027,
    5442445026,
    5442445025,
    5442445024,
    5442445023,
    5442445022,
    5442445021,
    5442444020,
    5442444019,
    5442444018,
    5442444017,
    5442444016,
    5442445028
  ],
  "tags": {
    "amenity": "bus_station",
    "bus": "yes",
    "name": "terminus_bus_146_Mena_Mausolée",
    "public_transport": "station"
  }
},
{
  "type": "way",
  "id": 565297464,
  "nodes": [
    5444782188,
    5444782187,
    5444782186,
    5444782185,
    5444782184,
    5444782183,
    5444782182,
    5444782181,
    5444782180,
    5444782179,
    5444782178,
    5444782177,
    5444782176,
    5444782175,
    5444782174,
    5444782173,
    5444782172,
    5444782188
  ],
  "tags": {
    "amenity": "bus_station",
    "bus": "yes",
    "name": "primus 146 Manga Mausolée",
    "public_transport": "station"
  }
},
{
  "type": "way",
  "id": 565388328,
  "nodes": [
    5445275270,
    5445275269,
    5445275268,
    5445275267,
    5445275266,
    5445275265,
    5445275264,
    5445275270
  ],
  "tags": {
    "amenity": "bus_station",
    "bus": "yes",
    "name": "terminus_146_Manga_Mausolée",
    "public_transport": "station"
  }
},
{
  "type": "way",
  "id": 565393036,
  "nodes": [
    5445302604,
    5445302603,
    5445302602,
    5445302601,
    5445302604
  ],
  "tags": {
    "amenity": "bus_station",
    "bus": "yes",
    "name": "Terminus F Ambatofahavalo",
    "public_transport": "station"
  }
},
{
  "type": "way",
  "id": 565393055,
  "nodes": [
    5445302618,
    5445302617,
    5445302614,
    5445302616,
    5445302615,
    5445302618
  ],
  "tags": {
    "amenity": "bus_station",
    "name": "Primus F Ambatofahavalo"
  }
},
{
  "type": "way",
  "id": 565393057,
  "nodes": [
    5445303522,
    5445303521,
    5445302620,
    5445302619,
    5445303522
  ],
  "tags": {
    "amenity": "bus_station",
    "name": "Terminus F Ambatofahavalo"
  }
},
{
  "type": "way",
  "id": 565393065,
  "nodes": [
    5445303540,
    5445303539,
    5445303538,
    5445303537,
    5445303536,
    5445303535,
    5445303534,
    5445303533,
    5445303532,
    5445303531,
    5445303530,
    5445303529,
    5445303528,
    5445303527,
    5445303540
  ],
  "tags": {
    "amenity": "bus_station",
    "bus": "yes",
    "name": "Primus F Ambatofahavalo",
    "public_transport": "station"
  }
},
{
  "type": "way",
  "id": 565427018,
  "nodes": [
    5445503110,
    5445503111,
    5445503112,
    5445503113,
    5445503110
  ],
  "tags": {
    "amenity": "bus_station",
    "bus": "yes",
    "name": "Terminus 114 Ambohijanahary",
    "network": "114_Ambohijanahary",
    "operator": "SCOTAT",
    "public_transport": "station"
  }
},
{
  "type": "way",
  "id": 565439301,
  "nodes": [
    5445578721,
    5445578722,
    5445578724,
    5445578726,
    5445578721
  ],
  "tags": {
    "amenity": "bus_station",
    "bus": "yes",
    "name": "Primus 140 Tsaralalana",
    "public_transport": "station"
  }
},
{
  "type": "way",
  "id": 565439306,
  "nodes": [
    5445578731,
    5445578732,
    5445578734,
    8504882528,
    5445578731
  ],
  "tags": {
    "amenity": "bus_station",
    "name": "Terminus 140 Ampitatafika"
  }
},
{
  "type": "way",
  "id": 565439307,
  "nodes": [
    8504882529,
    5549724960,
    5445578737,
    5445578738,
    8504882529
  ],
  "tags": {
    "amenity": "bus_station",
    "name": "primus 140 Ampitatafika"
  }
},
{
  "type": "way",
  "id": 565444949,
  "nodes": [
    5445640375,
    5445640376,
    5445640377,
    5445640378,
    5445640375
  ],
  "tags": {
    "amenity": "bus_station",
    "name": "Primus 135 - 135 II"
  }
},
{
  "type": "way",
  "id": 565723517,
  "nodes": [
    5447676171,
    5447676172,
    5447676173,
    5447676174,
    5447676171
  ],
  "tags": {
    "amenity": "bus_station",
    "name": "Terminus 135 - 135 II"
  }
},
{
  "type": "way",
  "id": 565743373,
  "nodes": [
    5447808908,
    5447808909,
    5447808911,
    5447808912,
    5447808908
  ],
  "tags": {
    "amenity": "bus_station",
    "name": "Terminus 154"
  }
},
{
  "type": "way",
  "id": 566079782,
  "nodes": [
    5450707811,
    5450707812,
    5450707813,
    5450707814,
    5450707811
  ],
  "tags": {
    "amenity": "bus_station",
    "bus": "yes",
    "name": "Terminus G Ankaditany",
    "public_transport": "station"
  }
},
{
  "type": "way",
  "id": 566079783,
  "nodes": [
    5450707815,
    5450707816,
    5450707817,
    5450707818,
    5450707815
  ],
  "tags": {
    "amenity": "bus_station",
    "name": "Terminus G Ankaditany"
  }
},
{
  "type": "way",
  "id": 566102512,
  "nodes": [
    5450895714,
    5450895713,
    5450895712,
    5450895711,
    5450895714
  ],
  "tags": {
    "amenity": "bus_station",
    "bus": "yes",
    "name": "Terminus_Bus_146_Mena_Mausolée",
    "public_transport": "station"
  }
},
{
  "type": "way",
  "id": 566104133,
  "nodes": [
    5450919093,
    5450919094,
    5450919095,
    5450919096,
    5450919093
  ],
  "tags": {
    "amenity": "bus_station",
    "name": "primus 154"
  }
},
{
  "type": "way",
  "id": 566107840,
  "nodes": [
    5450915077,
    5450915078,
    5450915079,
    5450915080,
    5450915077
  ],
  "tags": {
    "amenity": "bus_station",
    "name": "Terminus F Atalata"
  }
},
{
  "type": "way",
  "id": 566107841,
  "nodes": [
    5450915081,
    5450915082,
    5450915083,
    5450915084,
    5450915081
  ],
  "tags": {
    "amenity": "bus_station",
    "name": "Primus F- Atalata"
  }
},
{
  "type": "way",
  "id": 566118804,
  "nodes": [
    5451022236,
    5451022237,
    4036290706,
    5451022238,
    5451022239,
    5451022236
  ],
  "tags": {
    "amenity": "bus_station",
    "bus": "yes",
    "name": "primus H Sabotsy Mascar",
    "public_transport": "station"
  }
},
{
  "type": "way",
  "id": 566234042,
  "nodes": [
    5452429784,
    5452429783,
    5452429782,
    5452429781,
    5452429784
  ],
  "tags": {
    "amenity": "bus_station",
    "bus": "yes",
    "name": "Terminus",
    "public_transport": "station"
  }
},
{
  "type": "way",
  "id": 566234043,
  "nodes": [
    5452429853,
    5452429852,
    5452429851,
    5452429850,
    5452429849,
    5452429848,
    5452429853
  ],
  "tags": {
    "amenity": "bus_station",
    "name": "Terminus"
  }
},
{
  "type": "way",
  "id": 566309506,
  "nodes": [
    5453788745,
    5453788744,
    5453788743,
    5453788742,
    5453788745
  ],
  "tags": {
    "amenity": "bus_station",
    "name": "Primus Ligne A-Andohatanjona"
  }
},
{
  "type": "way",
  "id": 566314682,
  "nodes": [
    5453837944,
    5453837943,
    5453837942,
    5453837941,
    5453837944
  ],
  "tags": {
    "amenity": "bus_station",
    "name": "Terminus Ligne KOFIMI Andohatanjona"
  }
},
{
  "type": "way",
  "id": 566314683,
  "nodes": [
    5453837948,
    5453837947,
    5453837946,
    5453837945,
    5453837948
  ],
  "tags": {
    "amenity": "bus_station",
    "name": "Terminus Ligne A-Andohatanjona"
  }
},
{
  "type": "way",
  "id": 566314684,
  "nodes": [
    5453837952,
    5453837951,
    5453837950,
    5453837949,
    5453837952
  ],
  "tags": {
    "amenity": "bus_station",
    "name": "Primus Ligne KOFIMI Andohatanjona"
  }
},
{
  "type": "way",
  "id": 566334796,
  "nodes": [
    5453973484,
    5453973483,
    5453973482,
    5453973481,
    5453973484
  ],
  "tags": {
    "amenity": "bus_station",
    "name": "Primus Ligne G-Cité Itaosy"
  }
},
{
  "type": "way",
  "id": 566343972,
  "nodes": [
    5454041009,
    5454041008,
    5454041007,
    5454041006,
    5454041009
  ],
  "tags": {
    "amenity": "bus_station",
    "name": "Terminus Ligne A-Ambaniala",
    "operator": "KOFITAMA"
  }
},
{
  "type": "way",
  "id": 566343986,
  "nodes": [
    5454041014,
    5454041013,
    5454041012,
    5454041011,
    5454041014
  ],
  "tags": {
    "amenity": "bus_station",
    "bus": "yes",
    "name": "Primus Ligne A-Ambaniala Tsaralalàna",
    "public_transport": "station"
  }
},
{
  "type": "way",
  "id": 566353519,
  "nodes": [
    5454111824,
    5454111823,
    5454111822,
    5454111821,
    5454111824
  ],
  "tags": {
    "amenity": "bus_station",
    "name": "Primus Ligne A-Ambaniala"
  }
},
{
  "type": "way",
  "id": 566353520,
  "nodes": [
    5454111828,
    5454111827,
    5454111826,
    5454111825,
    5454111828
  ],
  "tags": {
    "amenity": "bus_station",
    "bus": "yes",
    "name": "Terminus Ligne A-Ambaniala Tsaralalàna",
    "public_transport": "station"
  }
},
{
  "type": "way",
  "id": 566364101,
  "nodes": [
    5454193828,
    5454193827,
    5454193826,
    5454193825,
    5454193828
  ],
  "tags": {
    "amenity": "bus_station",
    "name": "Primus Ligne A-Cité"
  }
},
{
  "type": "way",
  "id": 566364103,
  "nodes": [
    5454193838,
    5454193837,
    5454193836,
    5454193835,
    5454193838
  ],
  "tags": {
    "amenity": "bus_station",
    "bus": "yes",
    "public_transport": "station"
  }
},
{
  "type": "way",
  "id": 568162193,
  "nodes": [
    5466727556,
    5466727557,
    5466727560,
    5466727558,
    5466727559,
    5466727556
  ],
  "tags": {
    "amenity": "bus_station",
    "name": "Primus E-KOFIATRA / E-KOLOINA"
  }
},
{
  "type": "way",
  "id": 568162194,
  "nodes": [
    5466727561,
    5466727562,
    5466727563,
    5466727564,
    5466727561
  ],
  "tags": {
    "amenity": "bus_station",
    "bus": "yes",
    "name": "Terminus_E-KOFIATRA_A",
    "public_transport": "station"
  }
},
{
  "type": "way",
  "id": 568176748,
  "nodes": [
    5466821557,
    5466821558,
    5466821559,
    5527202938,
    5466821560,
    5466821557
  ],
  "tags": {
    "amenity": "bus_station",
    "bus": "yes",
    "name": "Primus_Ligne_E-KOFIATRA_R",
    "public_transport": "station"
  }
},
{
  "type": "way",
  "id": 568176759,
  "nodes": [
    5466821561,
    5466821562,
    5466821563,
    5466821564,
    5466821561
  ],
  "tags": {
    "amenity": "bus_station",
    "name": "Terminus E-KOFIATRA / E-KOLOINA"
  }
},
{
  "type": "way",
  "id": 568218207,
  "nodes": [
    5467072089,
    5467072090,
    5467072091,
    5467072092,
    5467072089
  ],
  "tags": {
    "amenity": "bus_station",
    "bus": "yes",
    "name": "Terminus_E-KOLOINA_A",
    "public_transport": "station"
  }
},
{
  "type": "way",
  "id": 568228097,
  "nodes": [
    5467134141,
    5467134142,
    5467134143,
    5467134144,
    5467134141
  ],
  "tags": {
    "amenity": "bus_station",
    "bus": "yes",
    "name": "Primus_E-KOLOINA_R",
    "public_transport": "station"
  }
},
{
  "type": "way",
  "id": 569427015,
  "nodes": [
    5476282068,
    5476282067,
    5476282066,
    5476282065,
    5476282068
  ],
  "tags": {
    "amenity": "bus_station",
    "name": "terminus"
  }
},
{
  "type": "way",
  "id": 569427017,
  "nodes": [
    5476282083,
    5476282082,
    5476282081,
    5476282080,
    5476282083
  ],
  "tags": {
    "amenity": "bus_station",
    "name": "terminus"
  }
},
{
  "type": "way",
  "id": 569443832,
  "nodes": [
    5476424897,
    5476424896,
    5476424895,
    5476424894,
    5476424897
  ],
  "tags": {
    "amenity": "bus_station",
    "name": "terminus"
  }
},
{
  "type": "way",
  "id": 569456681,
  "nodes": [
    5476564794,
    5476564793,
    5476564792,
    5476564791,
    5476564794
  ],
  "tags": {
    "amenity": "bus_station",
    "name": "terminus Ambohimamory"
  }
},
{
  "type": "way",
  "id": 569828932,
  "nodes": [
    5479476012,
    5479476004,
    8758210445,
    7281537474,
    5479476012
  ],
  "tags": {
    "amenity": "bus_station",
    "name": "Terminus 192 Ankadikely Ilafy",
    "public_transport": "station"
  }
},
{
  "type": "way",
  "id": 569828938,
  "nodes": [
    5479476731,
    5479476009,
    5479476011,
    5479476010,
    5479476731
  ],
  "tags": {
    "amenity": "bus_station",
    "name": "Terminus 192 Mandikanamana",
    "public_transport": "station"
  }
},
{
  "type": "way",
  "id": 570665564,
  "nodes": [
    5486328777,
    5486328776,
    5486328775,
    5486328774,
    5486328773,
    5486328772,
    5486328777
  ],
  "tags": {
    "amenity": "bus_station",
    "public_transport": "station"
  }
},
{
  "type": "way",
  "id": 570702511,
  "nodes": [
    5486651146,
    5486651145,
    5486651144,
    5486651143,
    5486651146
  ],
  "tags": {
    "amenity": "bus_station",
    "name": "Gare Routiere de Vatomandry",
    "public_transport": "station"
  }
},
{
  "type": "way",
  "id": 573583234,
  "nodes": [
    5508316476,
    5508316475,
    5508316474,
    5508316473,
    5508316472,
    5508316471,
    5508316470,
    5508316469,
    5508316468,
    5508316467,
    5508316466,
    5508316465,
    5508316464,
    5508316463,
    5508316462,
    5508316461,
    5508316460,
    5508316459,
    5508316458,
    5508316457,
    5508316476
  ],
  "tags": {
    "amenity": "bus_station"
  }
},
{
  "type": "way",
  "id": 576398417,
  "nodes": [
    5528462732,
    5528462731,
    5528462730,
    5528462729,
    5528462728,
    5528462727,
    5528462726,
    5528462732
  ],
  "tags": {
    "amenity": "bus_station",
    "name": "Anosisoa"
  }
},
{
  "type": "way",
  "id": 576526678,
  "nodes": [
    5529638728,
    5529638727,
    5529638726,
    5529638725,
    5529638728
  ],
  "tags": {
    "amenity": "bus_station",
    "name": "Primus 162 Ambohijatovo"
  }
},
{
  "type": "way",
  "id": 576639303,
  "nodes": [
    5530232442,
    5530232443,
    5530232444,
    5530232445,
    5530232442
  ],
  "tags": {
    "amenity": "bus_station",
    "bench": "yes",
    "bus": "yes",
    "name": "primus 166 Ankatso",
    "public_transport": "station",
    "shelter": "yes"
  }
},
{
  "type": "way",
  "id": 576656034,
  "nodes": [
    5530330563,
    5530330564,
    5530330565,
    5530330566,
    5530330563
  ],
  "tags": {
    "amenity": "bus_station",
    "bus": "yes",
    "name": "Primus Ligne 128 Tsimbazaza",
    "public_transport": "station"
  }
},
{
  "type": "way",
  "id": 576656036,
  "nodes": [
    5530330568,
    5530330569,
    5530330570,
    5530330571,
    5530330568
  ],
  "tags": {
    "amenity": "bus_station",
    "bus": "yes",
    "name": "Terminus Ligne 128 Tsimbazaza",
    "public_transport": "station"
  }
},
{
  "type": "way",
  "id": 576656038,
  "nodes": [
    5530330572,
    5530330573,
    5530330574,
    5530330575,
    5530330572
  ],
  "tags": {
    "amenity": "bus_station",
    "bus": "yes",
    "name": "Terminus 128 Ambohijatovo",
    "public_transport": "station"
  }
},
{
  "type": "way",
  "id": 576656043,
  "nodes": [
    5530330585,
    5530330586,
    5530330587,
    5530330588,
    5530330585
  ],
  "tags": {
    "amenity": "bus_station",
    "bus": "yes",
    "name": "Terminus 128",
    "public_transport": "station"
  }
},
{
  "type": "way",
  "id": 576696070,
  "nodes": [
    5530561641,
    5530561642,
    5530561643,
    5530561644,
    5530561641
  ],
  "tags": {
    "amenity": "bus_station",
    "name": "Terminus et Primus 186 Analamahitsy Cité"
  }
},
{
  "type": "way",
  "id": 576699684,
  "nodes": [
    5530583412,
    5530583413,
    5530583414,
    5530583415,
    5530583412
  ],
  "tags": {
    "amenity": "bus_station",
    "name": "Primus H_Ilafy"
  }
},
{
  "type": "way",
  "id": 576699686,
  "nodes": [
    5530584232,
    5530584233,
    5530584234,
    5530584235,
    5530584232
  ],
  "tags": {
    "amenity": "bus_station",
    "name": "Primus H_Andranovelona"
  }
},
{
  "type": "way",
  "id": 576744163,
  "nodes": [
    5530873401,
    5530873402,
    5530873403,
    5530873404,
    5530873401
  ],
  "tags": {
    "amenity": "bus_station",
    "name": "primus/terminus 120"
  }
},
{
  "type": "way",
  "id": 576754001,
  "nodes": [
    5530927315,
    5530927316,
    5530927317,
    5530927318,
    5530927315
  ],
  "tags": {
    "amenity": "bus_station",
    "name": "Terminus 135-Ambohijatovo_Anosy_A"
  }
},
{
  "type": "way",
  "id": 576754004,
  "nodes": [
    5530927319,
    5530927320,
    5530927421,
    5530927422,
    5530927319
  ],
  "tags": {
    "amenity": "bus_station",
    "name": "Terminus Ligne_135-Ambanidia_Tsimbazaza_R"
  }
},
{
  "type": "way",
  "id": 576754014,
  "nodes": [
    5530927446,
    5530927447,
    5530927448,
    5530927449,
    5530927446
  ],
  "tags": {
    "amenity": "bus_station",
    "name": "Terminus Ligne_154/B_R"
  }
},
{
  "type": "way",
  "id": 576754019,
  "nodes": [
    5530927451,
    5530927452,
    5530927453,
    5530927454,
    5530927451
  ],
  "tags": {
    "amenity": "bus_station",
    "name": "Primus Ligne_154/B_A"
  }
},
{
  "type": "way",
  "id": 577136637,
  "nodes": [
    5533502336,
    5533502337,
    5533502338,
    5533502339,
    5533502336
  ],
  "tags": {
    "amenity": "bus_station",
    "bus": "yes",
    "name": "Primus F-Atalata",
    "public_transport": "station"
  }
},
{
  "type": "way",
  "id": 577136639,
  "nodes": [
    5533502343,
    5533502344,
    5533502345,
    5533502346,
    5533502343
  ],
  "tags": {
    "amenity": "bus_station",
    "bus": "yes",
    "name": "Terminus F-Atalata",
    "public_transport": "station"
  }
},
{
  "type": "way",
  "id": 577152037,
  "nodes": [
    5533584810,
    5533584811,
    5533584812,
    5533584813,
    5533584810
  ],
  "tags": {
    "amenity": "bus_station",
    "name": "Terminus Ligne_115_R"
  }
},
{
  "type": "way",
  "id": 577152038,
  "nodes": [
    5533584814,
    5533584815,
    5533584816,
    5533584817,
    5533584814
  ],
  "tags": {
    "amenity": "bus_station",
    "name": "Primus Ligne_115_A"
  }
},
{
  "type": "way",
  "id": 577152042,
  "nodes": [
    5533584819,
    5533584820,
    5533585221,
    5533585222,
    5533584819
  ],
  "tags": {
    "amenity": "bus_station",
    "bus": "yes",
    "name": "Terminus Ligne_115_A",
    "public_transport": "station"
  }
},
{
  "type": "way",
  "id": 577152043,
  "nodes": [
    5533585223,
    5533585224,
    5533585225,
    5533585226,
    5533585223
  ],
  "tags": {
    "amenity": "bus_station",
    "bus": "yes",
    "name": "Primus Ligne_115_R",
    "public_transport": "station"
  }
},
{
  "type": "way",
  "id": 577152044,
  "nodes": [
    5533585227,
    5533585228,
    5533585229,
    5533585230,
    5533585227
  ],
  "tags": {
    "amenity": "bus_station",
    "bus": "yes",
    "name": "Terminus Ligne 184",
    "public_transport": "station"
  }
},
{
  "type": "way",
  "id": 577152045,
  "nodes": [
    5533585231,
    5533585232,
    5533585233,
    5533585234,
    5533585231
  ],
  "tags": {
    "amenity": "bus_station",
    "bus": "yes",
    "name": "Primus Ligne 184",
    "public_transport": "station"
  }
},
{
  "type": "way",
  "id": 577152047,
  "nodes": [
    5533585236,
    5533585237,
    5533585238,
    5533585239,
    5533585236
  ],
  "tags": {
    "amenity": "bus_station",
    "name": "Terminus Ligne 184"
  }
},
{
  "type": "way",
  "id": 577152048,
  "nodes": [
    5533585240,
    5533585241,
    5533585242,
    5533585243,
    5533585240
  ],
  "tags": {
    "amenity": "bus_station",
    "bus": "yes",
    "name": "Primus Ligne 184",
    "public_transport": "station"
  }
},
{
  "type": "way",
  "id": 577465784,
  "nodes": [
    5535873036,
    5535873035,
    5535873034,
    5535873033,
    5535873036
  ],
  "tags": {
    "amenity": "bus_station",
    "name": "Primus 162 67 Ha"
  }
},
{
  "type": "way",
  "id": 577465785,
  "nodes": [
    5535873040,
    5535873039,
    5535873038,
    5535873037,
    5535873040
  ],
  "tags": {
    "amenity": "bus_station",
    "name": "Terminus 162"
  }
},
{
  "type": "way",
  "id": 577818059,
  "nodes": [
    5538353065,
    5538353063,
    8727633642,
    5538353062,
    5538353065
  ],
  "tags": {
    "amenity": "bus_station",
    "name": "Primus 165 Mahatony"
  }
},
{
  "type": "way",
  "id": 577830086,
  "nodes": [
    5538478927,
    5538478926,
    5538478925,
    5538478924,
    5538478927
  ],
  "tags": {
    "amenity": "bus_station",
    "name": "Primus 165 Mahatony"
  }
},
{
  "type": "way",
  "id": 577830087,
  "nodes": [
    5538478931,
    5538478930,
    5538478929,
    5538478928,
    5538478931
  ],
  "tags": {
    "amenity": "bus_station",
    "name": "Terminus 165 Mahatony"
  }
},
{
  "type": "way",
  "id": 577987322,
  "nodes": [
    5539556164,
    5539556165,
    5539556166,
    5539556167,
    5539556164
  ],
  "tags": {
    "amenity": "bus_station",
    "bus": "yes",
    "name": "Terminus 147-D Rouge/Bleu",
    "operator": "Tselatra I",
    "public_transport": "station"
  }
},
{
  "type": "way",
  "id": 577987323,
  "nodes": [
    5539556168,
    5539556169,
    5539556170,
    5539556171,
    5539556168
  ],
  "tags": {
    "amenity": "bus_station",
    "bus": "yes",
    "name": "Primus 147-D Bleu",
    "public_transport": "station"
  }
},
{
  "type": "way",
  "id": 577987324,
  "nodes": [
    5539556172,
    5539556173,
    5539556174,
    5539556175,
    5539556172
  ],
  "tags": {
    "amenity": "bus_station",
    "bus": "yes",
    "name": "Primus 147-D Rouge",
    "public_transport": "station"
  }
},
{
  "type": "way",
  "id": 578059122,
  "nodes": [
    5539990122,
    5539990123,
    5539990124,
    5539990125,
    5539990122
  ],
  "tags": {
    "amenity": "bus_station",
    "name": "Terminus 187-67Ha- Fiadanamanga"
  }
},
{
  "type": "way",
  "id": 578059124,
  "nodes": [
    5539990128,
    5539990129,
    5539990130,
    5539990131,
    5539990128
  ],
  "tags": {
    "amenity": "bus_station",
    "name": "Primus-187- 67Ha-Fiadanamanga"
  }
},
{
  "type": "way",
  "id": 578111543,
  "nodes": [
    5540287083,
    5540287084,
    5540287085,
    5540287086,
    5540287083
  ],
  "tags": {
    "amenity": "bus_station",
    "bus": "yes",
    "name": "Terminus J-Alatsinainy Ambazaha",
    "public_transport": "station"
  }
},
{
  "type": "way",
  "id": 578748064,
  "nodes": [
    5544528468,
    5544528469,
    5544528470,
    5544528471,
    5544528468
  ],
  "tags": {
    "amenity": "bus_station",
    "bus": "yes",
    "name": "Primus ligne J- CNaPs - Amptatafika- Alatsinainy Ambazaha",
    "public_transport": "station"
  }
},
{
  "type": "way",
  "id": 579188949,
  "nodes": [
    5547491783,
    5547491784,
    5547491785,
    5547491786,
    5547491783
  ],
  "tags": {
    "amenity": "bus_station",
    "name": "Primus G-Beravina Anosizato andrefana"
  }
},
{
  "type": "way",
  "id": 579211305,
  "nodes": [
    5547624120,
    5547626421,
    5547626422,
    5547626423,
    5547624120
  ],
  "tags": {
    "amenity": "bus_station",
    "name": "Termninus G-Beravina Beravina"
  }
},
{
  "type": "way",
  "id": 579211306,
  "nodes": [
    5547626424,
    5547626425,
    5547626426,
    5547626427,
    5547626424
  ],
  "tags": {
    "amenity": "bus_station",
    "name": "Primus G-Beravina Beravina"
  }
},
{
  "type": "way",
  "id": 579211308,
  "nodes": [
    5547626428,
    5547626429,
    5547626430,
    5547626431,
    5547626428
  ],
  "tags": {
    "amenity": "bus_station",
    "name": "Terminus G-Beravina Anosizato andrefana"
  }
},
{
  "type": "way",
  "id": 579219233,
  "nodes": [
    5547677629,
    5547677630,
    5547677631,
    5547677632,
    5547677629
  ],
  "tags": {
    "amenity": "bus_station",
    "bus": "yes",
    "name": "primus -140- Tsaralalana-Ampitatafika",
    "public_transport": "station"
  }
},
{
  "type": "way",
  "id": 579282550,
  "nodes": [
    5548116591,
    5548116590,
    5548116589,
    5548116588,
    5548116591
  ],
  "tags": {
    "amenity": "bus_station",
    "bus": "yes",
    "name": "Terminus 143-Mahamasina",
    "public_transport": "station"
  }
},
{
  "type": "way",
  "id": 579282552,
  "nodes": [
    5548116595,
    5548116592,
    5548116593,
    5548116594,
    5548116595
  ],
  "tags": {
    "amenity": "bus_station",
    "bus": "yes",
    "name": "Primus 143-Mahamasina",
    "public_transport": "station"
  }
},
{
  "type": "way",
  "id": 579282568,
  "nodes": [
    5548116785,
    5548116786,
    5548116787,
    5548116788,
    5548116785
  ],
  "tags": {
    "amenity": "bus_station",
    "bus": "yes",
    "name": "Primus J Alatsinainy Ambazaha-Ampitatafika-CNaPs",
    "public_transport": "station"
  }
},
{
  "type": "way",
  "id": 579290788,
  "nodes": [
    5548170209,
    5548170210,
    5548170211,
    5548170212,
    5548170209
  ],
  "tags": {
    "amenity": "bus_station",
    "name": "Primus G-Antanetikely Anosizato andrefana"
  }
},
{
  "type": "way",
  "id": 579290789,
  "nodes": [
    5548170213,
    5548170214,
    5548170215,
    5548170216,
    5548170213
  ],
  "tags": {
    "amenity": "bus_station",
    "name": "Terminus G-Antanetikely Anosizato andrefana"
  }
},
{
  "type": "way",
  "id": 579300044,
  "nodes": [
    5548221959,
    5548221958,
    5548221957,
    5548221956,
    5548221959
  ],
  "tags": {
    "amenity": "bus_station",
    "name": "Primus 143 Ambohidrapeto Siniben-drano"
  }
},
{
  "type": "way",
  "id": 579476484,
  "nodes": [
    5549598593,
    5549598594,
    5549598595,
    5549598596,
    5549598593
  ],
  "tags": {
    "amenity": "bus_station",
    "bus": "yes",
    "name": "Terminus ligne J Alatsinainy Ambazaha- Ampitatfika- CNaPS",
    "public_transport": "station"
  }
},
{
  "type": "way",
  "id": 579496108,
  "nodes": [
    5549724976,
    5549724977,
    5549724978,
    5549724979,
    5549724976
  ],
  "tags": {
    "amenity": "bus_station",
    "bus": "yes",
    "name": "Terminus 140-Ampitatafika- Tsaralalana",
    "public_transport": "station"
  }
},
{
  "type": "way",
  "id": 579526037,
  "nodes": [
    5549936252,
    5549936253,
    5549936254,
    5549936255,
    5549936252
  ],
  "tags": {
    "amenity": "bus_station",
    "bus": "yes",
    "name": "Terminus 147 Bleu - 147 Rouge",
    "operator": "FITSEMA / TSELATRA I",
    "public_transport": "station"
  }
},
{
  "type": "way",
  "id": 579526038,
  "nodes": [
    5549936256,
    5549936257,
    5549936258,
    5549936259,
    5549936256
  ],
  "tags": {
    "amenity": "bus_station",
    "bus": "yes",
    "name": "Primus 147 Bleu - 147 Rouge",
    "operator": "FITSEMA / TSELATRA I",
    "public_transport": "station"
  }
},
{
  "type": "way",
  "id": 579536211,
  "nodes": [
    5550028559,
    5550028560,
    5550028561,
    5550028562,
    5550028563,
    5550028559
  ],
  "tags": {
    "amenity": "bus_station",
    "name": "Terminus E Koloina / Kofiatra JOVENA"
  }
},
{
  "type": "way",
  "id": 579536212,
  "nodes": [
    5550028564,
    5550028565,
    5550028566,
    5550028567,
    5550028564
  ],
  "tags": {
    "amenity": "bus_station",
    "name": "Primus E Koloina / Kofiatra JOVENA"
  }
},
{
  "type": "way",
  "id": 579613046,
  "nodes": [
    5550589817,
    5550589814,
    5550589815,
    5550589816,
    5550589817
  ],
  "tags": {
    "amenity": "bus_station",
    "bus": "yes",
    "name": "Primus 163-Anosy",
    "public_transport": "station"
  }
},
{
  "type": "way",
  "id": 579806049,
  "nodes": [
    5552087744,
    5552087743,
    5552087742,
    5552087741,
    5552087744
  ],
  "tags": {
    "amenity": "bus_station",
    "bus": "yes",
    "name": "Terminus 153 Antanimena Poste",
    "public_transport": "station"
  }
},
{
  "type": "way",
  "id": 579806050,
  "nodes": [
    5552087748,
    5552087747,
    5552087746,
    5552087745,
    5552087748
  ],
  "tags": {
    "amenity": "bus_station",
    "bus": "yes",
    "name": "Primus 153 Antanimena Poste",
    "public_transport": "station"
  }
},
{
  "type": "way",
  "id": 579806056,
  "nodes": [
    5552087753,
    5552087752,
    5552087751,
    5552087750,
    5552087753
  ],
  "tags": {
    "amenity": "bus_station",
    "bus": "yes",
    "name": "Terminus 153 Antanimena CEG",
    "public_transport": "station"
  }
},
{
  "type": "way",
  "id": 579806057,
  "nodes": [
    5552087757,
    5552087756,
    5552087755,
    5552087754,
    5552087757
  ],
  "tags": {
    "amenity": "bus_station",
    "bus": "yes",
    "name": "Primus 153 Antanimena CEG",
    "public_transport": "station"
  }
},
{
  "type": "way",
  "id": 579808182,
  "nodes": [
    5552103283,
    5552103280,
    5552103281,
    5552103282,
    5552103283
  ],
  "tags": {
    "amenity": "bus_station",
    "name": "Primus 163-Ambohimangakely"
  }
},
{
  "type": "way",
  "id": 579963159,
  "nodes": [
    5553238007,
    5553238006,
    5553238005,
    5553238004,
    5553238007
  ],
  "tags": {
    "amenity": "bus_station",
    "name": "Primus D Ambodifasina Ivato"
  }
},
{
  "type": "way",
  "id": 579963162,
  "nodes": [
    5553239728,
    5553239725,
    5553239726,
    5553239727,
    5553239728
  ],
  "tags": {
    "amenity": "bus_station",
    "name": "Primus D Ambodifasina Ambatolampy Tsimahafotsy"
  }
},
{
  "type": "way",
  "id": 579966373,
  "nodes": [
    5553292153,
    5553292152,
    5553292151,
    5553292150,
    5553292153
  ],
  "tags": {
    "amenity": "bus_station",
    "name": "Terminus D Ivato Anjomakely"
  }
},
{
  "type": "way",
  "id": 579966374,
  "nodes": [
    5553292157,
    5553292156,
    5553292155,
    5553292154,
    5553292157
  ],
  "tags": {
    "amenity": "bus_station",
    "name": "Primus D Ivato Anjomakely"
  }
},
{
  "type": "way",
  "id": 579966375,
  "nodes": [
    5553292161,
    5553292160,
    5553292159,
    5553292158,
    5553292161
  ],
  "tags": {
    "amenity": "bus_station",
    "name": "Terminus D Ambodifasina Ivato"
  }
},
{
  "type": "way",
  "id": 579966376,
  "nodes": [
    5553292165,
    5553292164,
    5553292163,
    5553292162,
    5553292165
  ],
  "tags": {
    "amenity": "bus_station",
    "name": "Primus D Ambodifasina Ivato"
  }
},
{
  "type": "way",
  "id": 579975741,
  "nodes": [
    5553415242,
    5553415241,
    5553415240,
    5553415239,
    5553415242
  ],
  "tags": {
    "amenity": "bus_station",
    "name": "Terminus 109 Antanandrano"
  }
},
{
  "type": "way",
  "id": 579976932,
  "nodes": [
    5553429680,
    5553429679,
    5553429678,
    5553429677,
    5553429680
  ],
  "tags": {
    "amenity": "bus_station",
    "bus": "yes",
    "name": "Primus 128 Ambohijatovo",
    "public_transport": "station"
  }
},
{
  "type": "way",
  "id": 580358900,
  "nodes": [
    5555936464,
    5555936463,
    5555936462,
    5555936461,
    5555936464
  ],
  "tags": {
    "amenity": "bus_station",
    "bus": "yes",
    "name": "Primus 128 Tsimbazaza",
    "public_transport": "station"
  }
},
{
  "type": "way",
  "id": 580455587,
  "nodes": [
    5556555138,
    5556555139,
    5556555140,
    5556555141,
    5556555138
  ],
  "tags": {
    "amenity": "bus_station",
    "bus": "yes",
    "name": "Tsimbazaza - Rasalama",
    "public_transport": "station"
  }
},
{
  "type": "way",
  "id": 581222198,
  "nodes": [
    5561816678,
    5561816679,
    5561816680,
    5561816681,
    5561816678
  ],
  "tags": {
    "amenity": "bus_station",
    "name": "Primus H Talata"
  }
},
{
  "type": "way",
  "id": 581552266,
  "nodes": [
    5564109573,
    5564109574,
    5564109575,
    5564109576,
    5564109573
  ],
  "tags": {
    "amenity": "bus_station",
    "name": "Primus_H_Belanitra"
  }
},
{
  "type": "way",
  "id": 581554858,
  "nodes": [
    5564128774,
    5564128775,
    5564128776,
    5564128777,
    5564128774
  ],
  "tags": {
    "amenity": "bus_station",
    "name": "Terminus_H_Belanitra"
  }
},
{
  "type": "way",
  "id": 581561817,
  "nodes": [
    5564181763,
    5564181764,
    5564181765,
    5564181766,
    5564181763
  ],
  "tags": {
    "amenity": "bus_station",
    "name": "Primus_H_Belanitra"
  }
},
{
  "type": "way",
  "id": 581579195,
  "nodes": [
    5564284030,
    9999414631,
    5564284031,
    9997877282,
    5564284032,
    5564284033,
    5564284030
  ],
  "tags": {
    "amenity": "bus_station",
    "name": "Terminus_H_Ambohimanga"
  }
},
{
  "type": "way",
  "id": 581582015,
  "nodes": [
    5564301091,
    5564301092,
    5564301093,
    5564301094,
    5564301091
  ],
  "tags": {
    "amenity": "bus_station",
    "bus": "yes",
    "name": "Primus Anosy Soamanatombo",
    "public_transport": "station"
  }
},
{
  "type": "way",
  "id": 581582016,
  "nodes": [
    5564301095,
    5564301096,
    5564301097,
    5564301098,
    5564301095
  ],
  "tags": {
    "amenity": "bus_station",
    "name": "Terminus Ambatomirahavavy Tany menabe"
  }
},
{
  "type": "way",
  "id": 582880625,
  "nodes": [
    5573364779,
    5573364778,
    5573364777,
    5573364775,
    5573364779
  ],
  "tags": {
    "amenity": "bus_station",
    "name": "Terminus Bus I Ambohimanambola"
  }
},
{
  "type": "way",
  "id": 582887221,
  "nodes": [
    5573419339,
    5573364779,
    5573364775,
    5573419336,
    5573419339
  ],
  "tags": {
    "amenity": "bus_station",
    "name": "Primus Bus I Ambohimanambola"
  }
},
{
  "type": "way",
  "id": 583984564,
  "nodes": [
    5582785636,
    5582785637,
    5582785638,
    5582785639,
    5582785636
  ],
  "tags": {
    "amenity": "bus_station",
    "network": "MG:suburban"
  }
},
{
  "type": "way",
  "id": 585142600,
  "nodes": [
    5592316955,
    5592316956,
    5592316957,
    5592316958,
    5592316955
  ],
  "tags": {
    "amenity": "bus_station",
    "name": "primus 154"
  }
},
{
  "type": "way",
  "id": 586830789,
  "nodes": [
    5606494094,
    5108964758,
    5756190194,
    5756190193,
    5606494094
  ],
  "tags": {
    "amenity": "bus_station",
    "bus": "yes",
    "description": "Guichet de Taxi Brousse",
    "name": "KOFIMANGA",
    "operator": "KOFIMANGA",
    "public_transport": "station"
  }
},
{
  "type": "way",
  "id": 590449558,
  "nodes": [
    5637273212,
    5637273213,
    5637273214,
    5637273215,
    5637273212
  ],
  "tags": {
    "amenity": "bus_station",
    "bus": "yes",
    "name": "Terminus 141-Manga",
    "public_transport": "station"
  }
},
{
  "type": "way",
  "id": 590449559,
  "nodes": [
    5637273216,
    5637273217,
    5637273218,
    5637273219,
    5637273216
  ],
  "tags": {
    "amenity": "bus_station",
    "bus": "yes",
    "name": "Primus 141 Manga",
    "public_transport": "station"
  }
},
{
  "type": "way",
  "id": 591357138,
  "nodes": [
    5645770252,
    5645770251,
    5645770250,
    5645770249,
    5645770252
  ],
  "tags": {
    "amenity": "bus_station",
    "name": "Terminus 143 Ambohidrapeto Siniben-drano"
  }
},
{
  "type": "way",
  "id": 591357142,
  "nodes": [
    5645770265,
    5645770264,
    5645770263,
    5645770262,
    5645770265
  ],
  "tags": {
    "amenity": "bus_station",
    "bus": "yes",
    "name": "Primus 143-Analakely",
    "public_transport": "station"
  }
},
{
  "type": "way",
  "id": 591580605,
  "nodes": [
    5647606330,
    5647606329,
    5647606328,
    5647606327,
    5647606330
  ],
  "tags": {
    "amenity": "bus_station",
    "name": "Terminus 116 Mandroseza"
  }
},
{
  "type": "way",
  "id": 591587044,
  "nodes": [
    5647647536,
    5647647535,
    5647647534,
    5647647533,
    5647647536
  ],
  "tags": {
    "amenity": "bus_station",
    "bus": "yes",
    "name": "Primus 116 Ambohijatovo",
    "public_transport": "station"
  }
},
{
  "type": "way",
  "id": 591587046,
  "nodes": [
    5647647540,
    5647647539,
    5647647538,
    5647647537,
    5647647540
  ],
  "tags": {
    "amenity": "bus_station",
    "bus": "yes",
    "name": "Terminus 116 Mandroseza",
    "public_transport": "station"
  }
},
{
  "type": "way",
  "id": 591587049,
  "nodes": [
    5647647544,
    5647647543,
    5647647542,
    5647647541,
    5647647544
  ],
  "tags": {
    "amenity": "bus_station",
    "name": "Primus 116 Mandroseza"
  }
},
{
  "type": "way",
  "id": 591738490,
  "nodes": [
    5648982907,
    5648982908,
    5648982909,
    5648982910,
    5648982907
  ],
  "tags": {
    "amenity": "bus_station",
    "name": "Primus 147Bis Manga - 147Bis Mena"
  }
},
{
  "type": "way",
  "id": 591752796,
  "nodes": [
    5649089870,
    5649089871,
    5649089872,
    5649089873,
    5649089870
  ],
  "tags": {
    "amenity": "bus_station",
    "name": "Primus 135-Ambanidia / 135-Anosy"
  }
},
{
  "type": "way",
  "id": 591752797,
  "nodes": [
    5649089874,
    5649089875,
    5649089876,
    9372629682,
    5649089874
  ],
  "tags": {
    "amenity": "bus_station",
    "name": "Terminus 135-Amanidia / 135-Anosy"
  }
},
{
  "type": "way",
  "id": 591765198,
  "nodes": [
    5649176966,
    5649176967,
    5649176968,
    5649176969,
    5649176966
  ],
  "tags": {
    "amenity": "bus_station",
    "bench": "yes",
    "bus": "yes",
    "name": "terminus 166 Antanimena",
    "public_transport": "station",
    "shelter": "yes"
  }
},
{
  "type": "way",
  "id": 591789274,
  "nodes": [
    5530927318,
    5530927317,
    5649341952,
    5649341953,
    5530927318
  ],
  "tags": {
    "amenity": "bus_station",
    "name": "Primus 135-Ambanidia_Tsimbazaza_R"
  }
},
{
  "type": "way",
  "id": 591799282,
  "nodes": [
    5649402664,
    5649402665,
    5649402666,
    5649402667,
    5649402664
  ],
  "tags": {
    "amenity": "bus_station",
    "name": "terminus 154"
  }
},
{
  "type": "way",
  "id": 591805477,
  "nodes": [
    5649447134,
    5649447135,
    5649447136,
    5649447137,
    5649447134
  ],
  "tags": {
    "amenity": "bus_station",
    "name": "Terminus 129"
  }
},
{
  "type": "way",
  "id": 591811167,
  "nodes": [
    5649486389,
    5649486390,
    5649486391,
    5649486392,
    5649486389
  ],
  "tags": {
    "amenity": "bus_station",
    "name": "Primus 129"
  }
},
{
  "type": "way",
  "id": 591811168,
  "nodes": [
    5649486393,
    5649486394,
    5649486395,
    5649486396,
    5649486393
  ],
  "tags": {
    "amenity": "bus_station",
    "bus": "yes",
    "name": "Terminus 129",
    "public_transport": "station"
  }
},
{
  "type": "way",
  "id": 591811169,
  "nodes": [
    5649486397,
    5649486398,
    5649486399,
    5649486400,
    5649486397
  ],
  "tags": {
    "amenity": "bus_station",
    "name": "Primus 129"
  }
},
{
  "type": "way",
  "id": 591830156,
  "nodes": [
    5649623127,
    5649623128,
    5649623129,
    5649623130,
    5649623127
  ],
  "tags": {
    "amenity": "bus_station",
    "name": "Terminus/Primus_Ligne_114_Ambatolampy",
    "public_transport": "station"
  }
},
{
  "type": "way",
  "id": 592994556,
  "nodes": [
    5658240744,
    5658240745,
    5658240746,
    5658240747,
    5658240744
  ],
  "tags": {
    "amenity": "bus_station",
    "bus": "yes",
    "name": "primus 187 Ankatso- Fiadanamanga",
    "public_transport": "station"
  }
},
{
  "type": "way",
  "id": 593869791,
  "nodes": [
    5664378127,
    5664378126,
    5664378125,
    5664378124,
    5664378127
  ],
  "tags": {
    "amenity": "bus_station",
    "bus": "yes",
    "name": "Primus G Antsahadinta",
    "public_transport": "station"
  }
},
{
  "type": "way",
  "id": 593899862,
  "nodes": [
    5664607057,
    5664607056,
    5664607055,
    10168772861,
    5664607057
  ],
  "tags": {
    "amenity": "bus_station",
    "name": "Antsahadinta Primus G"
  }
},
{
  "type": "way",
  "id": 594046131,
  "nodes": [
    5665638543,
    5665638542,
    5665638541,
    5665638540,
    5665638543
  ],
  "tags": {
    "amenity": "bus_station",
    "bus": "yes",
    "name": "Primus 194 Analamahitsy",
    "public_transport": "station"
  }
},
{
  "type": "way",
  "id": 594481247,
  "nodes": [
    5668754968,
    5668754967,
    5668754966,
    5668754965,
    5668754968
  ],
  "tags": {
    "amenity": "bus_station",
    "name": "Primus_D_Ivato_Horizon"
  }
},
{
  "type": "way",
  "id": 594612272,
  "nodes": [
    5669575415,
    5669575416,
    5669575417,
    5669575418,
    5669575415
  ],
  "tags": {
    "amenity": "bus_station",
    "name": "primus teminus 136"
  }
},
{
  "type": "way",
  "id": 594627899,
  "nodes": [
    5669675810,
    5669675809,
    5669675808,
    5669675807,
    5669675810
  ],
  "tags": {
    "amenity": "bus_station",
    "name": "Terminus bus Ivato D, Horizon"
  }
},
{
  "type": "way",
  "id": 604878135,
  "nodes": [
    5738445903,
    5738445902,
    5738445901,
    5738445900,
    5738445903
  ],
  "tags": {
    "amenity": "bus_station",
    "name": "primus ligne 12 Vatofotsy"
  }
},
{
  "type": "way",
  "id": 605498761,
  "nodes": [
    5742856277,
    5742856276,
    5742856275,
    5742856274,
    5742856277
  ],
  "tags": {
    "amenity": "bus_station",
    "bus": "yes",
    "name": "Primus 119",
    "public_transport": "station"
  }
},
{
  "type": "way",
  "id": 605943519,
  "nodes": [
    5746003693,
    5746003692,
    5746003691,
    5746003690,
    5746003693
  ],
  "tags": {
    "amenity": "bus_station",
    "name": "Terminus 015 67Ha"
  }
},
{
  "type": "way",
  "id": 605943520,
  "nodes": [
    5746003697,
    5746003696,
    5746003695,
    5746003694,
    5746003697
  ],
  "tags": {
    "amenity": "bus_station",
    "name": "Primus 119 67Ha"
  }
},
{
  "type": "way",
  "id": 605943521,
  "nodes": [
    5746003701,
    5746003700,
    5746003699,
    5746003698,
    5746003701
  ],
  "tags": {
    "amenity": "bus_station",
    "name": "Primus 015 67Ha"
  }
},
{
  "type": "way",
  "id": 633295752,
  "nodes": [
    5978208928,
    5978208929,
    5978208930,
    5978208928
  ],
  "tags": {
    "amenity": "bus_station",
    "building": "yes",
    "bus": "yes",
    "name": "STATIONNEMENT TAXIBROUSSE",
    "public_transport": "station"
  }
},
{
  "type": "way",
  "id": 640813292,
  "nodes": [
    6036284815,
    6036284814,
    6036284813,
    6036284812,
    6036284815
  ],
  "tags": {
    "amenity": "bus_station"
  }
},
{
  "type": "way",
  "id": 645617181,
  "nodes": [
    6068451915,
    6068451914,
    6068451913,
    6068451912,
    6068451915
  ],
  "tags": {
    "amenity": "bus_station",
    "name": "Primus 199 Soavina"
  }
},
{
  "type": "way",
  "id": 722861702,
  "nodes": [
    6780518329,
    6174374233,
    6780518333,
    6780518332,
    6780518331,
    6780518330,
    6780518329
  ],
  "tags": {
    "amenity": "bus_station"
  }
},
{
  "type": "way",
  "id": 742965267,
  "nodes": [
    6954882748,
    6954882747,
    6954882746,
    6954882745,
    6954882748
  ],
  "tags": {
    "amenity": "bus_station"
  }
},
{
  "type": "way",
  "id": 769049579,
  "nodes": [
    7178969313,
    7178969312,
    7178969308,
    7178969307,
    7178969313
  ],
  "tags": {
    "amenity": "bus_station"
  }
},
{
  "type": "way",
  "id": 911829614,
  "nodes": [
    8467225879,
    8467225878,
    8467225877,
    8467225876,
    8467225879
  ],
  "tags": {
    "amenity": "bus_station",
    "bus": "yes",
    "name": "Primus/Terminus 161 Ambatobe",
    "public_transport": "station"
  }
},
{
  "type": "way",
  "id": 912239574,
  "nodes": [
    8474325031,
    8474325030,
    8474325029,
    8474325028,
    8474325031
  ],
  "tags": {
    "amenity": "bus_station",
    "name": "Primus/Terminus 150 Antanandrano"
  }
},
{
  "type": "way",
  "id": 913833761,
  "nodes": [
    8488855252,
    8488855251,
    8488855250,
    8488855249,
    8488855252
  ],
  "tags": {
    "amenity": "bus_station",
    "bus": "yes",
    "name": "Primus 009 Tsaralalana",
    "public_transport": "station"
  }
},
{
  "type": "way",
  "id": 913833762,
  "nodes": [
    8488855256,
    8488855255,
    8488855254,
    8488855253,
    8488855256
  ],
  "tags": {
    "amenity": "bus_station",
    "bus": "yes",
    "name": "Primus 138 Tsaralalana",
    "public_transport": "station"
  }
},
{
  "type": "way",
  "id": 913833763,
  "nodes": [
    8488855260,
    8488855259,
    8488855258,
    8488855257,
    8488855260
  ],
  "tags": {
    "amenity": "bus_station",
    "bus": "yes",
    "name": "Primus 140 Tsaralalana",
    "public_transport": "station"
  }
},
{
  "type": "way",
  "id": 915977353,
  "nodes": [
    8508045166,
    8508045165,
    8508045164,
    8508045162,
    8508045166
  ],
  "tags": {
    "amenity": "bus_station",
    "name": "Primus/Terminus H Viliahazo"
  }
},
{
  "type": "way",
  "id": 946074739,
  "nodes": [
    8758260217,
    8758231316,
    8758231315,
    8758231314,
    8758260217
  ],
  "tags": {
    "amenity": "bus_station",
    "name": "Primus et Terminus 126 Manjaka"
  }
},
{
  "type": "way",
  "id": 968720526,
  "nodes": [
    8962442392,
    8962442383,
    8962442384,
    8962442388,
    8962442386,
    8962442385,
    8962442387,
    8962442391,
    8962442390,
    8962442389,
    8962442392
  ],
  "tags": {
    "addr:city": "Manakara",
    "addr:housenumber": "12",
    "addr:postcode": "316",
    "addr:street": "RN",
    "amenity": "bus_station",
    "building": "yes",
    "bus": "yes",
    "name": "Soatrans Plus",
    "public_transport": "station"
  }
},
{
  "type": "way",
  "id": 1078400945,
  "nodes": [
    9886596695,
    9886596694,
    9886596693,
    9886596692,
    9886596691,
    9886596690,
    9886596695
  ],
  "tags": {
    "amenity": "bus_station",
    "public_transport": "station"
  }
},
{
  "type": "way",
  "id": 1148830311,
  "nodes": [
    10688325933,
    10688325932,
    10688325931,
    10688325930,
    10688325929,
    10688325928,
    10688325927,
    10688325926,
    10688325925,
    10688325924,
    10688325923,
    10688325922,
    10688325921,
    10688325920,
    10688325919,
    10688325918,
    10688325917,
    10688325916,
    10688325933
  ],
  "tags": {
    "amenity": "bus_station"
  }
},
{
  "type": "way",
  "id": 1211529690,
  "nodes": [
    11224539388,
    11224539389,
    11224539390,
    11224539391,
    11224539392,
    11224539393,
    11224539388
  ],
  "tags": {
    "addr:city": "belo sur tsiribihina",
    "addr:postcode": "608",
    "amenity": "bus_station",
    "bus": "yes",
    "internet_access": "no",
    "name": "Station taxi-brousse",
    "network": "transport commun",
    "operator": "population",
    "public_transport": "station"
  }
},
{
  "type": "way",
  "id": 1281447865,
  "nodes": [
    11893683590,
    11893683591,
    11893683592,
    11893683593,
    11893683594,
    11893683595,
    11893683596,
    11893683597,
    11893683598,
    11893683599,
    11893683600,
    11893683590
  ],
  "tags": {
    "amenity": "bus_station",
    "bus": "yes",
    "name": "Transport STRF",
    "public_transport": "station"
  }
},
{
  "type": "way",
  "id": 1365308804,
  "nodes": [
    12643345121,
    12643345122,
    12643345123,
    12643345124,
    12643345125,
    12643345126,
    12643345127,
    12643345121
  ],
  "tags": {
    "amenity": "bus_station",
    "bus": "yes",
    "name": "Station Vangaindraino",
    "public_transport": "station"
  }
},
{
  "type": "node",
  "id": 1342568087,
  "lat": -23.3362888,
  "lon": 43.6594634
},
{
  "type": "node",
  "id": 1342568116,
  "lat": -23.3355833,
  "lon": 43.6599060
},