{
  "version": 0.6,
  "generator": "Overpass API 0.7.62.8 e802775f",
  "osm3s": {
    "timestamp_osm_base": "2025-12-02T13:17:28Z",
    "copyright": "The data included in this document is from www.openstreetmap.org. The data is made available under ODbL."
  },
  "elements": [

{
  "type": "node",
  "id": 302592195,
  "lat": -5.7959326,
  "lon": -35.2375946,
  "tags": {
    "light_rail": "yes",
    "name": "Quintas",
    "public_transport": "stop_position",
    "railway": "station",
    "station": "light_rail"
  }
},
{
  "type": "node",
  "id": 481318044,
  "lat": -9.6302386,
  "lon": -35.6968844,
  "tags": {
    "amenity": "bus_station",
    "bus": "yes",
    "name": "Terminal de Cruz das Almas",
    "public_transport": "station",
    "shelter": "yes"
  }
},
{
  "type": "node",
  "id": 501086794,
  "lat": -5.8331818,
  "lon": -35.2029388,
  "tags": {
    "amenity": "bus_station",
    "bus": "yes",
    "name": "Terminal do Circular Direto",
    "public_transport": "station"
  }
},
{
  "type": "node",
  "id": 501086798,
  "lat": -5.8331671,
  "lon": -35.2030976,
  "tags": {
    "amenity": "bus_station",
    "bus": "yes",
    "name": "Terminal do Circular Inverso",
    "public_transport": "station"
  }
},
{
  "type": "node",
  "id": 501215506,
  "lat": -5.8581484,
  "lon": -35.2345144,
  "tags": {
    "addr:city": "Natal",
    "addr:street": "Rua Rio Gramame",
    "addr:suburb": "Pitimbu",
    "amenity": "bus_station",
    "bus": "yes",
    "public_transport": "station",
    "shelter": "yes"
  }
},
{
  "type": "node",
  "id": 502762282,
  "lat": -5.8297387,
  "lon": -35.2388258,
  "tags": {
    "amenity": "bus_station",
    "bus": "yes",
    "public_transport": "station"
  }
},
{
  "type": "node",
  "id": 616553702,
  "lat": -9.5545038,
  "lon": -35.7159356,
  "tags": {
    "amenity": "bus_station",
    "name": "Terminal do Conjunto Frei Damião"
  }
},
{
  "type": "node",
  "id": 616554906,
  "lat": -9.5418704,
  "lon": -35.7832260,
  "tags": {
    "amenity": "bus_station",
    "bus": "yes",
    "name": "Terminal do Eustáquio Gomes",
    "public_transport": "station"
  }
},
{
  "type": "node",
  "id": 616558855,
  "lat": -9.5645231,
  "lon": -35.7299482,
  "tags": {
    "amenity": "bus_station",
    "bus": "yes",
    "name": "Terminal Quadra C - 53",
    "public_transport": "station"
  }
},
{
  "type": "node",
  "id": 616775165,
  "lat": -9.6743744,
  "lon": -35.7611332,
  "tags": {
    "amenity": "bus_station",
    "bus": "yes",
    "name": "Terminal do Trapiche",
    "public_transport": "station"
  }
},
{
  "type": "node",
  "id": 616895377,
  "lat": -9.5480650,
  "lon": -35.7477625,
  "tags": {
    "amenity": "bus_station",
    "name": "Terminal Graciliano Ramos"
  }
},
{
  "type": "node",
  "id": 616928627,
  "lat": -9.6524338,
  "lon": -35.7609468,
  "tags": {
    "amenity": "bus_station",
    "bus": "yes",
    "name": "Terminal Vergel do Lago",
    "public_transport": "station"
  }
},
{
  "type": "node",
  "id": 620514509,
  "lat": -5.9215853,
  "lon": -35.2814570,
  "tags": {
    "amenity": "bus_station",
    "bus": "yes",
    "name": "Terminal Trampolim da Vitória",
    "public_transport": "station"
  }
},
{
  "type": "node",
  "id": 622238935,
  "lat": -9.6096970,
  "lon": -35.7094062,
  "tags": {
    "amenity": "bus_station",
    "highway": "bus_stop",
    "internet_access": "no",
    "internet_access:fee": "no",
    "name": "Terminal José Tenório",
    "operator": "Cidade de Maceió",
    "public_transport": "station"
  }
},
{
  "type": "node",
  "id": 622429451,
  "lat": -9.6213348,
  "lon": -35.7262623,
  "tags": {
    "amenity": "bus_station",
    "bus": "yes",
    "name": "Terminal Novo Mundo",
    "public_transport": "station"
  }
},
{
  "type": "node",
  "id": 625635031,
  "lat": -9.6681533,
  "lon": -35.7439409,
  "tags": {
    "amenity": "bus_station",
    "bus": "yes",
    "public_transport": "station"
  }
},
{
  "type": "node",
  "id": 625724706,
  "lat": -9.5899976,
  "lon": -35.7849702,
  "tags": {
    "amenity": "bus_station",
    "bus": "yes",
    "name": "Terminal de Fernão Velho",
    "public_transport": "station"
  }
},
{
  "type": "node",
  "id": 625848973,
  "lat": -9.5795605,
  "lon": -35.7779432,
  "tags": {
    "amenity": "bus_station",
    "bus": "yes",
    "name": "Terminal do Osman Loureiro",
    "public_transport": "station",
    "wheelchair": "limited"
  }
},
{
  "type": "node",
  "id": 633285588,
  "lat": -9.5634608,
  "lon": -35.7471613,
  "tags": {
    "amenity": "bus_station",
    "bus": "yes",
    "name": "Terminal Salvador Lyra",
    "public_transport": "station"
  }
},
{
  "type": "node",
  "id": 635114219,
  "lat": -9.6268287,
  "lon": -35.7428184,
  "tags": {
    "amenity": "bus_station",
    "bus": "yes",
    "name": "Terminal do Sanatório",
    "operator": "Real alagoas",
    "public_transport": "station"
  }
},
{
  "type": "node",
  "id": 635428825,
  "lat": -9.5740257,
  "lon": -35.8122395,
  "tags": {
    "amenity": "bus_station",
    "name": "Terminal do Rio Novo"
  }
},
{
  "type": "node",
  "id": 645561085,
  "lat": -9.6659175,
  "lon": -35.7433925,
  "tags": {
    "amenity": "bus_station",
    "bus": "yes",
    "public_transport": "station"
  }
},
{
  "type": "node",
  "id": 645828278,
  "lat": -9.5372579,
  "lon": -35.7188552,
  "tags": {
    "amenity": "bus_station",
    "name": "Terminal do Benedito Bentes I"
  }
},
{
  "type": "node",
  "id": 646117854,
  "lat": -9.6003640,
  "lon": -35.7294965,
  "tags": {
    "amenity": "bus_station",
    "name": "Terminal de Ouro Preto"
  }
},
{
  "type": "node",
  "id": 751950281,
  "lat": -9.6063903,
  "lon": -35.7612421,
  "tags": {
    "amenity": "bus_station",
    "bus": "yes",
    "name": "Terminal João Sampaio",
    "public_transport": "station"
  }
},
{
  "type": "node",
  "id": 913522339,
  "lat": -9.6913676,
  "lon": -35.7734009,
  "tags": {
    "amenity": "bus_station",
    "bus": "yes",
    "name": "Terminal Pontal da Barra",
    "public_transport": "station"
  }
},
{
  "type": "node",
  "id": 1014478734,
  "lat": -6.0618232,
  "lon": -35.1020616,
  "tags": {
    "amenity": "bus_station",
    "bench": "yes",
    "bus": "yes",
    "highway": "bus_stop",
    "internet_access": "no",
    "name": "Terminal do Ônibus Natal-Tabatinga",
    "public_transport": "platform",
    "shelter": "yes"
  }
},
{
  "type": "node",
  "id": 1418412016,
  "lat": -7.9988339,
  "lon": -34.8603608,
  "tags": {
    "amenity": "bus_station"
  }
},
{
  "type": "node",
  "id": 1418921322,
  "lat": -8.1098917,
  "lon": -34.9090843,
  "tags": {
    "covered": "yes",
    "name": "Antônio Falcão",
    "public_transport": "station",
    "railway": "station",
    "station": "subway",
    "subway": "yes",
    "wheelchair": "yes"
  }
},
{
  "type": "node",
  "id": 1429121403,
  "lat": -5.8911983,
  "lon": -35.1919976,
  "tags": {
    "amenity": "bus_station",
    "bus": "yes",
    "name": "Terminal Cidade Verde",
    "public_transport": "station"
  }
},
{
  "type": "node",
  "id": 1659528208,
  "lat": -8.5952370,
  "lon": -35.1120977,
  "tags": {
    "amenity": "bus_station",
    "internet_access": "no",
    "internet_access:fee": "no",
    "name": "Terminal Rodoviário do Sirinhaém",
    "wheelchair": "no"
  }
},
{
  "type": "node",
  "id": 1689602072,
  "lat": -8.2863815,
  "lon": -35.0364626,
  "tags": {
    "light_rail": "yes",
    "name": "Cabo",
    "operator": "Metro",
    "public_transport": "station",
    "railway": "station",
    "ref": "Estação Cabo",
    "station": "light_rail"
  }
},
{
  "type": "node",
  "id": 2007184556,
  "lat": -5.7698470,
  "lon": -35.2689669,
  "tags": {
    "amenity": "bus_station",
    "name": "Parada das Mangueiras"
  }
},
{
  "type": "node",
  "id": 2007184582,
  "lat": -5.7701561,
  "lon": -35.2689904,
  "tags": {
    "amenity": "bus_station"
  }
},
{
  "type": "node",
  "id": 2007216208,
  "lat": -5.7729901,
  "lon": -35.2720509,
  "tags": {
    "amenity": "bus_station",
    "bus": "yes",
    "highway": "bus_stop",
    "public_transport": "platform"
  }
},
{
  "type": "node",
  "id": 2007216221,
  "lat": -5.7731129,
  "lon": -35.2719704,
  "tags": {
    "amenity": "bus_station",
    "bus": "yes",
    "highway": "bus_stop",
    "public_transport": "platform"
  }
},
{
  "type": "node",
  "id": 2039200278,
  "lat": -6.6148439,
  "lon": -35.4428273,
  "tags": {
    "disused": "yes",
    "name": "Caiçara",
    "railway": "station",
    "railway:signal:direction": "disabled"
  }
},
{
  "type": "node",
  "id": 2046800968,
  "lat": -7.9181652,
  "lon": -34.8358043,
  "tags": {
    "amenity": "bus_station"
  }
},
{
  "type": "node",
  "id": 2052331519,
  "lat": -7.9272907,
  "lon": -34.8497030,
  "tags": {
    "amenity": "bus_station",
    "name": "Terminal de Maranguape II"
  }
},
{
  "type": "node",
  "id": 2072413509,
  "lat": -7.9371284,
  "lon": -34.8307910,
  "tags": {
    "amenity": "bus_station",
    "bus": "yes",
    "name": "Terminal do Conjunto Praia do Janga",
    "public_transport": "station"
  }
},
{
  "type": "node",
  "id": 2079344658,
  "lat": -6.8474190,
  "lon": -35.4886092,
  "tags": {
    "amenity": "bus_station",
    "building": "public",
    "name": "Terminal Rodoviário",
    "source": "GPS"
  }
},
{
  "type": "node",
  "id": 2111531387,
  "lat": -7.0364351,
  "lon": -34.8503911,
  "tags": {
    "name": "Jacaré",
    "public_transport": "station",
    "railway": "station",
    "station": "train",
    "train": "yes"
  }
},
{
  "type": "node",
  "id": 2131676890,
  "lat": -8.0378186,
  "lon": -34.9818597,
  "tags": {
    "amenity": "bus_station",
    "bus": "yes",
    "name": "Terminal Ur-07",
    "public_transport": "station"
  }
},
{
  "type": "node",
  "id": 2281113593,
  "lat": -5.5403773,
  "lon": -35.8205970,
  "tags": {
    "disused:railway": "station",
    "internet_access": "yes",
    "name": "João Câmara",
    "public_transport": "station",
    "railway": "station"
  }
},
{
  "type": "node",
  "id": 2286374799,
  "lat": -8.0223644,
  "lon": -34.9062864,
  "tags": {
    "amenity": "bus_station",
    "bus": "yes",
    "name": "Alto José do Pinho",
    "public_transport": "station"
  }
},
{
  "type": "node",
  "id": 2291585705,
  "lat": -6.6868042,
  "lon": -35.4194310,
  "tags": {
    "disused": "yes",
    "name": "Duas Estradas",
    "railway": "station"
  }
},
{
  "type": "node",
  "id": 2291585706,
  "lat": -6.8581085,
  "lon": -35.4868472,
  "tags": {
    "disused": "yes",
    "name": "Guarabira",
    "railway": "station"
  }
},
{
  "type": "node",
  "id": 2291585707,
  "lat": -6.4851060,
  "lon": -35.2892284,
  "tags": {
    "disused:railway": "station",
    "public_transport": "station",
    "railway": "station"
  }
},
{
  "type": "node",
  "id": 2291585708,
  "lat": -6.4758657,
  "lon": -35.4367363,
  "tags": {
    "disused:railway": "station",
    "name": "Nova Cruz",
    "public_transport": "station",
    "railway": "station"
  }
},
{
  "type": "node",
  "id": 2291586356,
  "lat": -6.8124443,
  "lon": -35.4645448,
  "tags": {
    "disused": "yes",
    "name": "Itamataí",
    "public_transport": "station",
    "railway": "station",
    "train": "yes"
  }
},
{
  "type": "node",
  "id": 2291586515,
  "lat": -6.7480918,
  "lon": -35.4405994,
  "tags": {
    "disused:railway": "station",
    "name": "Sertãozinho",
    "public_transport": "station",
    "railway": "station"
  }
},
{
  "type": "node",
  "id": 2291637040,
  "lat": -6.8934644,
  "lon": -35.4809273,
  "tags": {
    "disused": "yes",
    "name": "Antonio Guedes",
    "railway": "station"
  }
},
{
  "type": "node",
  "id": 2291637041,
  "lat": -6.9561321,
  "lon": -35.4606346,
  "tags": {
    "FIXME": "posição só mais ou menos...",
    "disused": "yes",
    "name": "Catolé",
    "railway": "station"
  }
},
{
  "type": "node",
  "id": 2311429959,
  "lat": -6.2620152,
  "lon": -35.2136992,
  "tags": {
    "disused:railway": "station",
    "name": "Goianinha",
    "public_transport": "station",
    "railway": "station"
  }
},
{
  "type": "node",
  "id": 2447728167,
  "lat": -7.1303623,
  "lon": -34.9129046,
  "tags": {
    "name": "Alto do Mateus",
    "public_transport": "station",
    "railway": "station",
    "station": "train",
    "train": "yes"
  }
},
{
  "type": "node",
  "id": 2460432389,
  "lat": -7.3056752,
  "lon": -35.5672989,
  "tags": {
    "name": "Gameleira",
    "railway": "station",
    "wikidata": "Q106975420",
    "wikipedia": "pt:Estação Ferroviária de Gameleira"
  }
},
{
  "type": "node",
  "id": 2460432408,
  "lat": -7.3263306,
  "lon": -35.4936307,
  "tags": {
    "name": "Mogeiro",
    "railway": "station",
    "wikidata": "Q106975425",
    "wikipedia": "pt:Estação Ferroviária de Mogeiro"
  }
},
{
  "type": "node",
  "id": 2497744692,
  "lat": -8.1222673,
  "lon": -34.9118225,
  "tags": {
    "name": "Tancredo Neves",
    "public_transport": "station",
    "railway": "station",
    "station": "subway",
    "subway": "yes"
  }
},
{
  "type": "node",
  "id": 2530845076,
  "lat": -7.1176651,
  "lon": -34.8900531,
  "tags": {
    "amenity": "bus_station",
    "bench": "yes",
    "bin": "yes",
    "bus": "yes",
    "departures_board": "realtime",
    "highway": "bus_stop",
    "lit": "yes",
    "name": "Terminal do Varadouro | Plataforma C - 02",
    "public_transport": "platform",
    "ref": "Terminal do Varadouro | Plataforma C - 02",
    "shelter": "yes",
    "tactile_paving": "yes",
    "wheelchair": "yes"
  }
},
{
  "type": "node",
  "id": 2531341342,
  "lat": -7.1887995,
  "lon": -34.8390882,
  "tags": {
    "amenity": "bus_station",
    "bus": "yes",
    "name": "Terminal de Ônibus de Mangabeira IV",
    "public_transport": "station"
  }
},
{
  "type": "node",
  "id": 2539001970,
  "lat": -7.2380435,
  "lon": -35.8697632,
  "tags": {
    "amenity": "bus_station",
    "name": "Terminal Rodoviário de Campina Grande"
  }
},
{
  "type": "node",
  "id": 2543663959,
  "lat": -7.3349601,
  "lon": -35.3422683,
  "tags": {
    "name": "Itabaiana",
    "old_name": "Triângulo",
    "public_transport": "station",
    "railway": "station",
    "train": "yes",
    "wikidata": "Q10275773",
    "wikipedia": "pt:Estação Ferroviária de Itabaiana"
  }
},
{
  "type": "node",
  "id": 2632508827,
  "lat": -8.0527940,
  "lon": -34.9556324,
  "tags": {
    "amenity": "bus_station",
    "bus": "yes",
    "name": "Caxangá/Boa Viagem",
    "public_transport": "station"
  }
},
{
  "type": "node",
  "id": 2633213465,
  "lat": -8.0685068,
  "lon": -34.8843115,
  "tags": {
    "amenity": "bus_station",
    "bench": "yes",
    "bus": "yes",
    "name": "TI Recife",
    "number": "180001",
    "public_transport": "station",
    "ref": "BR-2611606-180001",
    "shelter": "yes",
    "source": "Dados Abertos Governo de Pernambuco",
    "source:date": "2013-03-14"
  }
},
{
  "type": "node",
  "id": 2635340590,
  "lat": -7.2160927,
  "lon": -34.8316541,
  "tags": {
    "amenity": "bus_station",
    "bus": "yes",
    "name": "Terminal de Ônibus de Muçumagro",
    "public_transport": "station",
    "source": "survey"
  }
},
{
  "type": "node",
  "id": 2635341171,
  "lat": -7.1245901,
  "lon": -34.8367546,
  "tags": {
    "amenity": "bus_station",
    "bus": "yes",
    "name": "Terminal Miramar - Linha 402",
    "public_transport": "station",
    "source": "SEMOB"
  }
},
{
  "type": "node",
  "id": 2635341843,
  "lat": -7.1664887,
  "lon": -34.8720017,
  "tags": {
    "amenity": "bus_station",
    "bus": "yes",
    "name": "Terminal Cristo Redentor - 204, 208, 3200",
    "public_transport": "station",
    "source": "SEMOB"
  }
},
{
  "type": "node",
  "id": 2635342335,
  "lat": -7.1827931,
  "lon": -34.8815464,
  "tags": {
    "amenity": "bus_station",
    "bus": "yes",
    "internet_access": "no",
    "operator": "Unitrans",
    "public_transport": "station",
    "source": "SEMOB"
  }
},
{
  "type": "node",
  "id": 2697162288,
  "lat": -6.7014623,
  "lon": -35.5372162,
  "tags": {
    "amenity": "bus_station",
    "name": "Estação Rodoviária"
  }
},
{
  "type": "node",
  "id": 2705161331,
  "lat": -9.1639092,
  "lon": -35.5444962,
  "tags": {
    "amenity": "bus_station",
    "name": "Terminal Rodoviário de Matriz de Camaragibe"
  }
},
{
  "type": "node",
  "id": 2946407134,
  "lat": -9.6218272,
  "lon": -35.7317694,
  "tags": {
    "alt_name": "Terminal Rodoviário da Rotary",
    "amenity": "bus_station",
    "bus": "yes",
    "highway": "bus_stop",
    "name": "Terminal Avenida Rotary",
    "name:en": "Rotary Bus Terminal",
    "network": "SMTT",
    "public_transport": "station"
  }
},
{
  "type": "node",
  "id": 3654699757,
  "lat": -7.1607674,
  "lon": -34.8211270,
  "tags": {
    "amenity": "bus_station",
    "bus": "yes",
    "name": "Terminal Quadramares - Linha 203",
    "public_transport": "station"
  }
},
{
  "type": "node",
  "id": 3855771967,
  "lat": -8.2949232,
  "lon": -35.9877791,
  "tags": {
    "amenity": "bus_station",
    "name": "Terminal Rodoviário"
  }
},
{
  "type": "node",
  "id": 3944959710,
  "lat": -7.9212428,
  "lon": -34.8952338,
  "tags": {
    "amenity": "bus_station",
    "name": "Terminal Integrado de Abreu e Lima"
  }
},
{
  "type": "node",
  "id": 3950854317,
  "lat": -7.0810837,
  "lon": -34.8460186,
  "tags": {
    "addr:city": "João Pessoa",
    "addr:postcode": "58036-440",
    "amenity": "bus_station",
    "bus": "yes",
    "name": "Terminal de Ônibus do Val Paraíso",
    "public_transport": "station"
  }
},
{
  "type": "node",
  "id": 4080850520,
  "lat": -8.6806026,
  "lon": -35.5850936,
  "tags": {
    "name": "Palmares",
    "public_transport": "station",
    "railway": "station"
  }
},
{
  "type": "node",
  "id": 4196982489,
  "lat": -6.4833295,
  "lon": -35.4323728,
  "tags": {
    "amenity": "bus_station",
    "bus": "yes",
    "park": "leisure",
    "public_transport": "station"
  }
},
{
  "type": "node",
  "id": 4453270089,
  "lat": -8.1271894,
  "lon": -35.0168926,
  "tags": {
    "amenity": "bus_station",
    "name": "check point jibóia",
    "name:pt": "check point jibóia"
  }
},
{
  "type": "node",
  "id": 4682433568,
  "lat": -7.6579571,
  "lon": -35.3231218,
  "tags": {
    "amenity": "bus_station",
    "name": "Rodoviária de Vicência"
  }
},
{
  "type": "node",
  "id": 4747989340,
  "lat": -8.0900188,
  "lon": -34.9562895,
  "tags": {
    "amenity": "bus_station",
    "bus": "yes",
    "name": "Terminal de Tejipió",
    "public_transport": "station"
  }
},
{
  "type": "node",
  "id": 4917009831,
  "lat": -7.5143170,
  "lon": -35.3132610,
  "tags": {
    "name": "Timbaúba",
    "railway": "station",
    "ref": "PE-3188",
    "source": "Bing",
    "start_date": "1888-01-08"
  }
},
{
  "type": "node",
  "id": 4917009835,
  "lat": -7.6143800,
  "lon": -35.2343090,
  "tags": {
    "name": "Aliança",
    "railway": "station",
    "ref": "PE-3184",
    "source": "Bing",
    "start_date": "1883-01-01"
  }
},
{
  "type": "node",
  "id": 4917009838,
  "lat": -7.7513107,
  "lon": -35.2291299,
  "tags": {
    "name": "Nazaré da Mata",
    "public_transport": "station",
    "railway": "station",
    "ref": "PE-3183",
    "source": "Bing",
    "start_date": "1882-09-15",
    "train": "yes"
  }
},
{
  "type": "node",
  "id": 4927217228,
  "lat": -5.8960564,
  "lon": -35.6342935,
  "tags": {
    "addr:street": "Rua Getúlio Vargas",
    "amenity": "bus_station",
    "name": "Ponto de ônibus",
    "name:pt": "Ponto de ônibus"
  }
},
{
  "type": "node",
  "id": 4934446631,
  "lat": -8.8019311,
  "lon": -35.8792596,
  "tags": {
    "name": "Igarapeba",
    "railway": "station"
  }
},
{
  "type": "node",
  "id": 4934446632,
  "lat": -8.7842696,
  "lon": -35.8106125,
  "tags": {
    "name": "Maraial",
    "railway": "station"
  }
},
{
  "type": "node",
  "id": 4934448551,
  "lat": -8.8152182,
  "lon": -35.9345389,
  "tags": {
    "name": "São Benedito do Sul",
    "railway": "station"
  }
},
{
  "type": "node",
  "id": 4934459289,
  "lat": -8.7452551,
  "lon": -35.8106889,
  "tags": {
    "name": "Frei Caneca",
    "railway": "station"
  }
},
{
  "type": "node",
  "id": 4934459290,
  "lat": -8.7302116,
  "lon": -35.7960628,
  "tags": {
    "name": "Jaqueira",
    "railway": "station"
  }
},
{
  "type": "node",
  "id": 4934470838,
  "lat": -8.6710999,
  "lon": -35.7200584,
  "tags": {
    "addr:city": "Catende",
    "addr:postcode": "55400000",
    "addr:street": "Rua Gaspar Vieira",
    "addr:suburb": "centro",
    "name": "Catende",
    "network": "Usina Catende",
    "operator": "desc",
    "public_transport": "station",
    "railway": "station",
    "train": "yes"
  }
},
{
  "type": "node",
  "id": 4937496857,
  "lat": -8.6674063,
  "lon": -35.6714640,
  "tags": {
    "name": "Boa Sorte",
    "railway": "station"
  }
},
{
  "type": "node",
  "id": 4937898160,
  "lat": -8.6259350,
  "lon": -35.5245971,
  "tags": {
    "name": "Joaquim Nabuco",
    "railway": "station"
  }
},
{
  "type": "node",
  "id": 4937898358,
  "lat": -8.5836751,
  "lon": -35.3879278,
  "tags": {
    "name": "Gameleira",
    "railway": "station"
  }
},
{
  "type": "node",
  "id": 4937898424,
  "lat": -8.5946575,
  "lon": -35.4479315,
  "tags": {
    "name": "Cuiambuca",
    "public_transport": "stop_position",
    "railway": "station",
    "train": "yes"
  }
},
{
  "type": "node",
  "id": 4939639805,
  "lat": -8.4442773,
  "lon": -35.3476363,
  "tags": {
    "name": "Arapibu",
    "railway": "station"
  }
},
{
  "type": "node",
  "id": 4943016630,
  "lat": -8.8027276,
  "lon": -35.8298332,
  "tags": {
    "name": "Florestal",
    "railway": "station"
  }
},
{
  "type": "node",
  "id": 4943016631,
  "lat": -8.3840432,
  "lon": -35.3217048,
  "tags": {
    "name": "Frexeiras",
    "railway": "station"
  }
},
{
  "type": "node",
  "id": 4943016632,
  "lat": -8.6590404,
  "lon": -35.6365666,
  "tags": {
    "abandoned:railway": "station",
    "disused": "station",
    "name": "Pirangi",
    "railway": "station"
  }
},
{
  "type": "node",
  "id": 4943017325,
  "lat": -8.5102920,
  "lon": -35.3740328,
  "tags": {
    "name": "Ribeirão",
    "railway": "station"
  }
},
{
  "type": "node",
  "id": 4945582974,
  "lat": -8.2046366,
  "lon": -35.5726663,
  "tags": {
    "name": "Gravatá",
    "railway": "station"
  }
},
{
  "type": "node",
  "id": 4945693162,
  "lat": -8.1394055,
  "lon": -35.3984249,
  "tags": {
    "name": "Pombos",
    "note": "Atualmente a estação encontra-se em processo de restauração para, posteriormente, utilização do \"Expresso Turístico\" que ligará a mesma à estação Gravatá, passando pela estação Russinhas.",
    "railway": "station"
  }
},
{
  "type": "node",
  "id": 4945693374,
  "lat": -8.1546733,
  "lon": -35.4564014,
  "tags": {
    "description": "Nome anterior: Serra",
    "name": "Russinha",
    "railway": "station"
  }
},
{
  "type": "node",
  "id": 4978784263,
  "lat": -8.7988218,
  "lon": -35.9082637,
  "tags": {
    "name": "Peri-Peri",
    "railway": "station"
  }
},
{
  "type": "node",
  "id": 4986974431,
  "lat": -7.1248907,
  "lon": -34.9802981,
  "tags": {
    "light_rail": "yes",
    "name": "Santa Rita",
    "network": "VLT João Pessoa",
    "operator": "CBTU",
    "public_transport": "station",
    "railway": "station",
    "station": "light_rail",
    "wikidata": "Q18475783",
    "wikipedia": "pt:Estação Santa Rita (CBTU)"
  }
},
{
  "type": "node",
  "id": 4987882471,
  "lat": -9.4784662,
  "lon": -35.8595271,
  "tags": {
    "light_rail": "yes",
    "name": "Lourenço de Albuquerque",
    "operator": "CBTU",
    "public_transport": "station",
    "railway": "station",
    "station": "light_rail",
    "wikidata": "Q20058906",
    "wikipedia": "pt:Estação Lourenço de Albuquerque"
  }
},
{
  "type": "node",
  "id": 5169863219,
  "lat": -7.2538896,
  "lon": -34.9836749,
  "tags": {
    "addr:housename": "Cicerolândia X Santa Rita",
    "amenity": "bus_station",
    "name": "Ponto 9 - Cicerolândia"
  }
},
{
  "type": "node",
  "id": 5279927396,
  "lat": -8.1111323,
  "lon": -35.0152570,
  "tags": {
    "alt_name": "Estação Jaboatão",
    "name": "Jaboatão",
    "platforms": "2",
    "public_transport": "station",
    "railway": "station",
    "station": "subway",
    "subway": "yes"
  }
},
{
  "type": "node",
  "id": 5279927400,
  "lat": -8.1080182,
  "lon": -35.0051615,
  "tags": {
    "name": "Engenho Velho",
    "railway": "station",
    "station": "subway"
  }
},
{
  "type": "node",
  "id": 5279927402,
  "lat": -8.1069468,
  "lon": -34.9930597,
  "tags": {
    "name": "Floriano",
    "railway": "station",
    "station": "subway"
  }
},
{
  "type": "node",
  "id": 5279927404,
  "lat": -8.0939756,
  "lon": -34.9727775,
  "tags": {
    "name": "Cavaleiro",
    "public_transport": "station",
    "railway": "station",
    "station": "subway",
    "subway": "yes"
  }
},
{
  "type": "node",
  "id": 5279927406,
  "lat": -8.0246294,
  "lon": -34.9953255,
  "tags": {
    "alt_name": "Estação Camaragibe;Metrô Camaragibe",
    "name": "Camaragibe",
    "public_transport": "station",
    "railway": "station",
    "ref": "GIB",
    "station": "subway",
    "subway": "yes",
    "wikidata": "Q10275619",
    "wikipedia": "pt:Estação Camaragibe"
  }
},
{
  "type": "node",
  "id": 5279927410,
  "lat": -8.0364239,
  "lon": -34.9885516,
  "tags": {
    "addr:city": "Camaragibe",
    "name": "Cosme e Damião",
    "public_transport": "station",
    "railway": "station",
    "station": "subway",
    "subway": "yes",
    "wikidata": "Q19838633",
    "wikipedia": "pt:Estação Cosme e Damião"
  }
},
{
  "type": "node",
  "id": 5279927412,
  "lat": -8.0641557,
  "lon": -34.9809709,
  "tags": {
    "name": "Rodoviária",
    "public_transport": "station",
    "railway": "station",
    "ref": "ROD",
    "station": "subway",
    "subway": "yes",
    "wikidata": "Q10276100",
    "wikipedia": "pt:Estação Rodoviária (Metrorec)"
  }
},
{
  "type": "node",
  "id": 5279927418,
  "lat": -8.0759644,
  "lon": -34.9787989,
  "tags": {
    "name": "Curado",
    "public_transport": "station",
    "railway": "station",
    "ref": "CDO",
    "station": "subway",
    "subway": "yes",
    "wikidata": "Q10275678",
    "wikipedia": "pt:Estação Curado"
  }
},
{
  "type": "node",
  "id": 5279927420,
  "lat": -8.0848021,
  "lon": -34.9750051,
  "tags": {
    "addr:city": "Jaboatão dos Guararapes",
    "name": "Alto do Céu",
    "public_transport": "station",
    "railway": "station",
    "station": "subway",
    "subway": "yes",
    "wikidata": "Q10275562",
    "wikipedia": "pt:Estação Alto do Céu"
  }
},
{
  "type": "node",
  "id": 5279929221,
  "lat": -8.0914369,
  "lon": -34.9647161,
  "tags": {
    "name": "Coqueiral",
    "public_transport": "station",
    "railway": "station",
    "ref": "COQ",
    "station": "subway",
    "subway": "yes",
    "wikidata": "Q10275667",
    "wikipedia": "pt:Estação Coqueiral"
  }
},
{
  "type": "node",
  "id": 5279929225,
  "lat": -8.0903554,
  "lon": -34.9566413,
  "tags": {
    "name": "Tejipió",
    "platforms": "2",
    "public_transport": "station",
    "railway": "station",
    "station": "subway",
    "subway": "yes"
  }
},
{
  "type": "node",
  "id": 5279929229,
  "lat": -8.0888790,
  "lon": -34.9457996,
  "tags": {
    "name": "Barro",
    "platforms": "2",
    "public_transport": "station",
    "railway": "station",
    "station": "subway",
    "subway": "yes"
  }
},
{
  "type": "node",
  "id": 5279929231,
  "lat": -8.0859893,
  "lon": -34.9362451,
  "tags": {
    "name": "Werneck",
    "platforms": "2",
    "railway": "station",
    "station": "subway"
  }
},
{
  "type": "node",
  "id": 5279929232,
  "lat": -8.0777400,
  "lon": -34.9133376,
  "tags": {
    "name": "Ipiranga",
    "public_transport": "station",
    "railway": "station",
    "station": "subway",
    "subway": "yes"
  }
},
{
  "type": "node",
  "id": 5279929233,
  "lat": -8.0841647,
  "lon": -34.9301332,
  "tags": {
    "name": "Santa Luzia",
    "platforms": "2",
    "public_transport": "station",
    "railway": "station",
    "ref": "LUZ",
    "station": "subway",
    "subway": "yes"
  }
},
{
  "type": "node",
  "id": 5279929236,
  "lat": -8.0793417,
  "lon": -34.9211783,
  "tags": {
    "name": "Mangueira",
    "platforms": "2",
    "railway": "station",
    "station": "subway"
  }
},
{
  "type": "node",
  "id": 5279929237,
  "lat": -8.0691737,
  "lon": -34.8853656,
  "tags": {
    "alt_name": "Estação Recife",
    "name": "Recife",
    "public_transport": "station",
    "railway": "station",
    "station": "subway",
    "subway": "yes"
  }
},
{
  "type": "node",
  "id": 5279929241,
  "lat": -8.0772839,
  "lon": -34.9062953,
  "tags": {
    "name": "Afogados",
    "platforms": "2",
    "public_transport": "station",
    "railway": "station",
    "station": "subway",
    "subway": "yes"
  }
},
{
  "type": "node",
  "id": 5279929242,
  "lat": -8.0732099,
  "lon": -34.8953949,
  "tags": {
    "covered": "yes",
    "name": "Joana Bezerra",
    "public_transport": "station",
    "railway": "station",
    "ref": "JOA",
    "station": "subway",
    "subway": "yes",
    "wheelchair": "yes"
  }
},
{
  "type": "node",
  "id": 5280081366,
  "lat": -8.1544625,
  "lon": -34.9201896,
  "tags": {
    "name": "Monte dos Guararapes",
    "public_transport": "station",
    "railway": "station",
    "station": "subway",
    "subway": "yes"
  }
},
{
  "type": "node",
  "id": 5280081368,
  "lat": -8.1683987,
  "lon": -34.9340785,
  "tags": {
    "name": "Cajueiro Seco",
    "public_transport": "station",
    "railway": "station",
    "station": "subway",
    "subway": "yes",
    "wheelchair": "yes"
  }
},
{
  "type": "node",
  "id": 5280081370,
  "lat": -8.1611032,
  "lon": -34.9267699,
  "tags": {
    "name": "Prazeres",
    "operator": "CBTU Recife",
    "public_transport": "station",
    "railway": "station",
    "ref": "PRZ",
    "station": "subway",
    "subway": "yes",
    "wheelchair": "yes"
  }
},
{
  "type": "node",
  "id": 5280081371,
  "lat": -8.1470626,
  "lon": -34.9176151,
  "tags": {
    "name": "Porta Larga",
    "public_transport": "station",
    "railway": "station",
    "station": "subway",
    "subway": "yes"
  }
},
{
  "type": "node",
  "id": 5280081373,
  "lat": -8.1162006,
  "lon": -34.9105544,
  "tags": {
    "name": "Shopping",
    "public_transport": "station",
    "railway": "station",
    "station": "subway",
    "subway": "yes"
  }
},
{
  "type": "node",
  "id": 5280081375,
  "lat": -8.1341737,
  "lon": -34.9146661,
  "tags": {
    "name": "Aeroporto",
    "public_transport": "station",
    "railway": "station",
    "ref": "AER",
    "station": "subway",
    "subway": "yes"
  }
},
{
  "type": "node",
  "id": 5280081384,
  "lat": -8.0902049,
  "lon": -34.9075129,
  "tags": {
    "name": "Imbiribeira",
    "public_transport": "station",
    "railway": "station",
    "station": "subway",
    "subway": "yes"
  }
},
{
  "type": "node",
  "id": 5393457546,
  "lat": -9.5707093,
  "lon": -35.7547993,
  "tags": {
    "amenity": "bus_station",
    "bus": "yes",
    "name": "Terminal do Cleto Marques",
    "public_transport": "station"
  }
},
{
  "type": "node",
  "id": 5506532619,
  "lat": -8.0082189,
  "lon": -34.9383395,
  "tags": {
    "amenity": "bus_station",
    "bus": "yes",
    "name": "Terminal Integrado da Macaxeira",
    "plot_number": "110000",
    "public_transport": "station",
    "ref": "BR-2611606-110000",
    "source": "Dados Abertos Governo de Pernambuco",
    "source:date": "2013-03-14"
  }
},
{
  "type": "node",
  "id": 5512877739,
  "lat": -7.9463107,
  "lon": -34.8779230,
  "tags": {
    "addr:city": "Paulista",
    "addr:postcode": "53401-445",
    "addr:street": "Terminal Integrado Pelópidas Silveira",
    "addr:suburb": "Nobre",
    "amenity": "bus_station",
    "bus": "yes",
    "name": "Terminal Integrado Pelópidas Silveira",
    "nohousenumber": "yes",
    "operator": "Grande Recife",
    "phone": "+55 81 3182 5500",
    "public_transport": "station"
  }
},
{
  "type": "node",
  "id": 5607517037,
  "lat": -8.1248146,
  "lon": -34.9574840,
  "tags": {
    "addr:city": "Recife",
    "addr:street": "Avenida São Paulo",
    "addr:suburb": "Três Carneiros",
    "amenity": "bus_station",
    "bus": "yes",
    "name": "Terminal de Onibus Tres Carneiros Alto",
    "public_transport": "station"
  }
},
{
  "type": "node",
  "id": 5618560921,
  "lat": -6.2670888,
  "lon": -35.2073943,
  "tags": {
    "amenity": "bus_station",
    "bus": "yes",
    "name:en": "Minibus to Pipa",
    "public_transport": "station"
  }
},
{
  "type": "node",
  "id": 5757006674,
  "lat": -8.1197805,
  "lon": -34.9504069,
  "tags": {
    "amenity": "bus_station",
    "bus": "yes",
    "name": "Terminal de Lagoa Encantada",
    "public_transport": "station"
  }
},
{
  "type": "node",
  "id": 5775998893,
  "lat": -7.7984930,
  "lon": -35.2483287,
  "tags": {
    "disused:railway": "station",
    "name": "Tracunhaém",
    "public_transport": "station",
    "railway": "station",
    "train": "yes"
  }
},
{
  "type": "node",
  "id": 5807315992,
  "lat": -9.4956595,
  "lon": -35.8442222,
  "tags": {
    "light_rail": "yes",
    "name": "Gustavo Paiva",
    "public_transport": "station",
    "railway": "station",
    "station": "light_rail"
  }
},
{
  "type": "node",
  "id": 5807315996,
  "lat": -9.4872950,
  "lon": -35.8540449,
  "tags": {
    "light_rail": "yes",
    "name": "Rio Largo",
    "public_transport": "station",
    "railway": "station",
    "station": "light_rail"
  }
},
{
  "type": "node",
  "id": 5807456324,
  "lat": -9.5868135,
  "lon": -35.7982374,
  "tags": {
    "light_rail": "yes",
    "name": "ABC",
    "public_transport": "station",
    "railway": "station",
    "station": "light_rail"
  }
},
{
  "type": "node",
  "id": 5807456335,
  "lat": -9.5898883,
  "lon": -35.7866765,
  "tags": {
    "light_rail": "yes",
    "name": "Fernão Velho",
    "public_transport": "station",
    "railway": "station",
    "station": "light_rail"
  }
},
{
  "type": "node",
  "id": 5807457154,
  "lat": -9.5956199,
  "lon": -35.7789526,
  "tags": {
    "light_rail": "yes",
    "name": "Goiabeira",
    "public_transport": "station",
    "railway": "station",
    "station": "light_rail"
  }
},
{
  "type": "node",
  "id": 5807457160,
  "lat": -9.6212819,
  "lon": -35.7609870,
  "tags": {
    "light_rail": "yes",
    "name": "Sururu de Capote",
    "public_transport": "station",
    "railway": "station",
    "station": "light_rail"
  }
},
{
  "type": "node",
  "id": 5807457166,
  "lat": -9.6251394,
  "lon": -35.7525875,
  "tags": {
    "light_rail": "yes",
    "name": "Bebedouro",
    "public_transport": "station",
    "railway": "station",
    "station": "light_rail",
    "wikidata": "Q20052754",
    "wikipedia": "pt:Estação Bebedouro"
  }
},
{
  "type": "node",
  "id": 5807457178,
  "lat": -9.6372058,
  "lon": -35.7470259,
  "tags": {
    "light_rail": "yes",
    "name": "Mutange (Desativada)",
    "public_transport": "station",
    "railway": "station",
    "station": "light_rail"
  }
},
{
  "type": "node",
  "id": 5807457179,
  "lat": -9.6495946,
  "lon": -35.7432411,
  "tags": {
    "addr:city": "Maceió",
    "addr:postcode": "57017200",
    "addr:street": "Avenida Francisco de Menezes",
    "addr:suburb": "Bom Parto",
    "description": "Estação de VLT do Bom Parto",
    "internet_access": "yes",
    "light_rail": "yes",
    "name": "Bom Parto",
    "network": "Ferroviária",
    "operator": "CBTU",
    "public_transport": "station",
    "railway": "station",
    "station": "light_rail"
  }
},
{
  "type": "node",
  "id": 5809605747,
  "lat": -9.5313381,
  "lon": -35.8505913,
  "tags": {
    "light_rail": "yes",
    "name": "Utinga",
    "public_transport": "station",
    "railway": "station",
    "station": "light_rail"
  }
},
{
  "type": "node",
  "id": 5846794264,
  "lat": -8.0386833,
  "lon": -34.9428329,
  "tags": {
    "addr:city": "Recife",
    "addr:street": "Avenida Caxangá",
    "addr:suburb": "Várzea",
    "amenity": "bus_station",
    "bus": "yes",
    "name": "T.I. CDU",
    "public_transport": "station"
  }
},
{
  "type": "node",
  "id": 5874696704,
  "lat": -8.0874988,
  "lon": -34.9720194,
  "tags": {
    "addr:city": "Recife",
    "addr:street": "Rua Ananias Catanho",
    "addr:suburb": "Totó",
    "amenity": "bus_station",
    "bus": "yes",
    "name": "Terminal do Totó B. Viagem e Totó Jd. Planalto",
    "public_transport": "station",
    "ref": "070022"
  }
},
{
  "type": "node",
  "id": 5885317270,
  "lat": -9.6626766,
  "lon": -35.7433381,
  "tags": {
    "light_rail": "yes",
    "name": "Mercado",
    "network": "CBTU",
    "public_transport": "station",
    "railway": "station",
    "station": "light_rail",
    "wikidata": "Q20058908",
    "wikipedia": "pt:Estação Mercado do Artesanato"
  }
},
{
  "type": "node",
  "id": 5982127865,
  "lat": -5.8370377,
  "lon": -35.2422614,
  "tags": {
    "amenity": "bus_station",
    "bus": "yes",
    "internet_access": "no",
    "name": "Terminal Cidade Nova",
    "public_transport": "station"
  }
},
{
  "type": "node",
  "id": 6080516480,
  "lat": -7.1199720,
  "lon": -34.9555254,
  "tags": {
    "name": "Várzea Nova",
    "public_transport": "station",
    "railway": "station",
    "station": "train",
    "train": "yes"
  }
},
{
  "type": "node",
  "id": 6080516483,
  "lat": -7.1274850,
  "lon": -34.9280363,
  "tags": {
    "name": "Bayeux",
    "public_transport": "station",
    "railway": "station",
    "station": "train",
    "train": "yes"
  }
},
{
  "type": "node",
  "id": 6080723226,
  "lat": -5.8227763,
  "lon": -35.2426088,
  "tags": {
    "light_rail": "yes",
    "name": "Cidade Esperança",
    "network": "VLT Natal - Linha Sul",
    "operator": "CBTU",
    "public_transport": "station",
    "railway": "station",
    "station": "light_rail"
  }
},
{
  "type": "node",
  "id": 6080723244,
  "lat": -5.8547327,
  "lon": -35.2475641,
  "tags": {
    "light_rail": "yes",
    "name": "Cidade Satélite",
    "public_transport": "station",
    "railway": "station",
    "station": "light_rail"
  }
},
{
  "type": "node",
  "id": 6080726309,
  "lat": -5.7074644,
  "lon": -35.2884598,
  "tags": {
    "light_rail": "yes",
    "name": "Estrela do Mar",
    "public_transport": "station",
    "railway": "station",
    "station": "light_rail"
  }
},
{
  "type": "node",
  "id": 6080726318,
  "lat": -5.7283995,
  "lon": -35.2768168,
  "tags": {
    "light_rail": "yes",
    "name": "Nordelândia",
    "public_transport": "station",
    "railway": "station",
    "station": "light_rail"
  }
},
{
  "type": "node",
  "id": 6080726319,
  "lat": -5.7380057,
  "lon": -35.2700093,
  "tags": {
    "light_rail": "yes",
    "name": "Nova Natal",
    "public_transport": "station",
    "railway": "station",
    "station": "light_rail"
  }
},
{
  "type": "node",
  "id": 6122457532,
  "lat": -7.1670359,
  "lon": -34.9560728,
  "tags": {
    "amenity": "bus_station",
    "bus": "yes",
    "departures_board": "no",
    "highway": "bus_stop",
    "internet_access": "no",
    "name": "TERMINAL - HEITEL SANTIAGO;Parada (final Heltel)",
    "operator": "TR TRANSPORTES;Tr Transporte de Passageiros, Viação Sonho Doutrdo",
    "public_transport": "station",
    "ref": "00"
  }
},
{
  "type": "node",
  "id": 6190342773,
  "lat": -5.7741689,
  "lon": -35.1955400,
  "tags": {
    "amenity": "bus_station",
    "bus": "yes",
    "highway": "bus_stop",
    "public_transport": "platform"
  }
},
{
  "type": "node",
  "id": 6325990982,
  "lat": -8.1383680,
  "lon": -34.9680580,
  "tags": {
    "addr:city": "Jaboatão dos Guararapes",
    "addr:suburb": "Marcos Freire",
    "light_rail": "yes",
    "name": "Marcos Freire",
    "network": "Metrô do Recife",
    "operator": "CBTU",
    "public_transport": "station",
    "railway": "station",
    "station": "light_rail",
    "wheelchair": "yes"
  }
},
{
  "type": "node",
  "id": 6336671690,
  "lat": -9.4845285,
  "lon": -35.8583974,
  "tags": {
    "addr:city": "Rio Largo",
    "addr:street": "Rua Júlio Verne",
    "amenity": "bus_station",
    "bus": "yes",
    "name": "Terminal de Rio Largo",
    "network": "Arsal",
    "operator": "Veleiro Viação",
    "public_transport": "station"
  }
},
{
  "type": "node",
  "id": 6392484813,
  "lat": -9.6719304,
  "lon": -35.7199964,
  "tags": {
    "light_rail": "yes",
    "name": "Jaraguá",
    "network": "VLT de Maceió - Linha Verde",
    "operator": "CBTU Maceió",
    "public_transport": "station",
    "railway": "station",
    "station": "light_rail"
  }
},
{
  "type": "node",
  "id": 6410224727,
  "lat": -8.6395300,
  "lon": -35.2687166,
  "tags": {
    "disused": "yes",
    "name": "Cocaú",
    "public_transport": "station",
    "railway": "station",
    "ruins": "building",
    "train": "yes",
    "website": "http://www.estacoesferroviarias.com.br/pernambuco/cocau.htm"
  }
},
{
  "type": "node",
  "id": 6410335831,
  "lat": -8.8113465,
  "lon": -35.2006288,
  "tags": {
    "demolished": "building",
    "disused": "yes",
    "name": "Barreiros",
    "public_transport": "station",
    "railway": "station",
    "train": "yes",
    "website": "http://www.estacoesferroviarias.com.br/pernambuco/barreiros.htm"
  }
},
{
  "type": "node",
  "id": 6426859886,
  "lat": -6.2335870,
  "lon": -35.0461031,
  "tags": {
    "amenity": "bus_station",
    "name": "Bus para Madeiro & Goianinha"
  }
},
{
  "type": "node",
  "id": 6455822738,
  "lat": -8.1309625,
  "lon": -34.9650392,
  "tags": {
    "amenity": "bus_station",
    "bus": "yes",
    "name": "Terminal de Ônibus UR-11",
    "public_transport": "station"
  }
},
{
  "type": "node",
  "id": 6469178354,
  "lat": -8.2831705,
  "lon": -35.9694107,
  "tags": {
    "amenity": "bus_station",
    "bus": "yes",
    "public_transport": "station"
  }
},
{
  "type": "node",
  "id": 6495150328,
  "lat": -6.9901682,
  "lon": -34.8326629,
  "tags": {
    "light_rail": "yes",
    "name": "Jardim Manguinhos",
    "network": "VLT João Pessoa",
    "operator": "CBTU",
    "public_transport": "station",
    "railway": "station",
    "source": "Known Place",
    "station": "light_rail"
  }
},
{
  "type": "node",
  "id": 6495150344,
  "lat": -7.0752010,
  "lon": -34.8552816,
  "tags": {
    "name": "Renascer",
    "platforms": "1",
    "public_transport": "station",
    "railway": "station",
    "station": "train",
    "train": "yes"
  }
},
{
  "type": "node",
  "id": 6510132523,
  "lat": -6.4394511,
  "lon": -35.2193880,
  "tags": {
    "name": "Pedro Velho",
    "public_transport": "station",
    "railway": "station",
    "train": "yes"
  }
},
{
  "type": "node",
  "id": 6551805774,
  "lat": -6.7817327,
  "lon": -35.4979409,
  "tags": {
    "disused": "station",
    "name": "Pirpirituba",
    "public_transport": "station",
    "railway": "station",
    "train": "yes"
  }
},
{
  "type": "node",
  "id": 6551813977,
  "lat": -6.8062847,
  "lon": -35.5994373,
  "tags": {
    "description": "(antiga BOA VISTA e CAMUCÁ",
    "disused": "yes",
    "name": "Borborema",
    "public_transport": "station",
    "railway": "station",
    "train": "yes"
  }
},
{
  "type": "node",
  "id": 6551814166,
  "lat": -6.7857913,
  "lon": -35.5967522,
  "tags": {
    "name": "Manitu",
    "public_transport": "station",
    "railway": "station",
    "train": "yes"
  }
},
{
  "type": "node",
  "id": 6554813279,
  "lat": -8.2798341,
  "lon": -35.0239224,
  "tags": {
    "light_rail": "yes",
    "name": "Santo Inácio",
    "operator": "CBTU Recife",
    "public_transport": "station",
    "railway": "station",
    "ref": "Estação Santo Inácio",
    "station": "light_rail"
  }
},
{
  "type": "node",
  "id": 6554813280,
  "lat": -8.2217732,
  "lon": -34.9653693,
  "tags": {
    "light_rail": "yes",
    "name": "Pontezinha",
    "public_transport": "station",
    "railway": "station",
    "station": "light_rail"
  }
},
{
  "type": "node",
  "id": 6554813281,
  "lat": -8.1947016,
  "lon": -34.9565864,
  "tags": {
    "light_rail": "yes",
    "name": "Ângelo de Souza",
    "public_transport": "station",
    "railway": "station",
    "station": "light_rail"
  }
},
{
  "type": "node",
  "id": 6554813282,
  "lat": -8.2454479,
  "lon": -34.9772494,
  "tags": {
    "light_rail": "yes",
    "name": "Ponte dos Carvalhos",
    "old_name": "Ilha",
    "public_transport": "station",
    "railway": "station",
    "station": "light_rail"
  }
},
{
  "type": "node",
  "id": 6557201686,
  "lat": -8.1685228,
  "lon": -34.9339760,
  "tags": {
    "addr:city": "Jaboatão dos Guararapes",
    "addr:street": "Avenida Doutor Gonzaga Maranhão",
    "addr:suburb": "Cajueiro Seco",
    "air_conditioning": "no",
    "internet_access": "no",
    "level": "2",
    "light_rail": "yes",
    "name": "Cajueiro Seco",
    "network": "Metrô do Recife",
    "operator": "CBTU Recife",
    "public_transport": "station",
    "railway": "station",
    "station": "light_rail",
    "wheelchair": "yes"
  }
},
{
  "type": "node",
  "id": 6578553340,
  "lat": -8.3661465,
  "lon": -35.2289055,
  "tags": {
    "disused:railway": "station",
    "name": "Escada",
    "public_transport": "station",
    "railway": "station",
    "train": "yes"
  }
},
{
  "type": "node",
  "id": 6579246599,
  "lat": -7.4238094,
  "lon": -35.3481581,
  "tags": {
    "description": "Hoje no local encontram-se as ruínas da estação",
    "disused:railway": "station",
    "name": "Rosa e Silva",
    "public_transport": "station",
    "railway": "station",
    "train": "yes"
  }
},
{
  "type": "node",
  "id": 6585559370,
  "lat": -5.9748927,
  "lon": -35.2810534,
  "tags": {
    "amenity": "bus_station",
    "bus": "yes",
    "network": "V",
    "public_transport": "station"
  }
},
{
  "type": "node",
  "id": 6680674500,
  "lat": -5.8467109,
  "lon": -35.2451972,
  "tags": {
    "light_rail": "yes",
    "name": "Pitimbu",
    "network": "VLT Natal - Linha Sul",
    "operator": "CBTU",
    "public_transport": "station",
    "railway": "station",
    "station": "light_rail"
  }
},
{
  "type": "node",
  "id": 6698231201,
  "lat": -5.7060560,
  "lon": -35.3045032,
  "tags": {
    "light_rail": "yes",
    "name": "Extremoz",
    "public_transport": "station",
    "railway": "station",
    "station": "light_rail"
  }
},
{
  "type": "node",
  "id": 6761485860,
  "lat": -5.6620674,
  "lon": -35.3342820,
  "tags": {
    "light_rail": "yes",
    "name": "Raposa",
    "note": "This station exists, see https://www.youtube.com/watch?v=ID7o4eh_pxk .",
    "public_transport": "station",
    "railway": "station",
    "station": "light_rail"
  }
},
{
  "type": "node",
  "id": 6761501461,
  "lat": -5.6367998,
  "lon": -35.3861984,
  "tags": {
    "light_rail": "yes",
    "name": "Lagoa Grande",
    "public_transport": "station",
    "railway": "station",
    "station": "light_rail",
    "wikidata": "Q20053920",
    "wikipedia": "pt:Estação Lagoa Grande"
  }
},
{
  "type": "node",
  "id": 6761532962,
  "lat": -5.6322688,
  "lon": -35.4213484,
  "tags": {
    "light_rail": "yes",
    "name": "Ceará-Mirim",
    "public_transport": "station",
    "railway": "station",
    "station": "light_rail",
    "wikidata": "Q1759622",
    "wikipedia": "pt:Ceará-Mirim"
  }
},
{
  "type": "node",
  "id": 6977862963,
  "lat": -5.7523495,
  "lon": -35.2516712,
  "tags": {
    "light_rail": "yes",
    "name": "Soledade",
    "network": "CBTU Natal",
    "public_transport": "station",
    "railway": "station",
    "station": "light_rail",
    "train": "yes"
  }
},
{
  "type": "node",
  "id": 7041127175,
  "lat": -8.1333700,
  "lon": -34.9762506,
  "tags": {
    "alt_name": "Terminal de Micro-Ônibus do Conjunto Marcos Freire",
    "amenity": "bus_station",
    "bus": "yes",
    "name": "Terminal de Micro-Ônibus de Marcos Freire",
    "public_transport": "station",
    "wheelchair": "limited"
  }
},
{
  "type": "node",
  "id": 7098698119,
  "lat": -7.1441968,
  "lon": -35.9577839,
  "tags": {
    "name": "Puxinanã",
    "railway": "station",
    "ruins": "yes",
    "wikidata": "Q106986120",
    "wikipedia": "pt:Estação Ferroviária de Puxinanã"
  }
},
{
  "type": "node",
  "id": 7115176452,
  "lat": -8.1222061,
  "lon": -34.9539642,
  "tags": {
    "amenity": "bus_station",
    "bus": "yes",
    "public_transport": "station"
  }
},
{
  "type": "node",
  "id": 7119146213,
  "lat": -9.5793951,
  "lon": -35.8103916,
  "tags": {
    "light_rail": "yes",
    "name": "Rio Novo",
    "public_transport": "station",
    "railway": "station",
    "station": "light_rail"
  }
},
{
  "type": "node",
  "id": 7120528007,
  "lat": -9.5735139,
  "lon": -35.8246857,
  "tags": {
    "light_rail": "yes",
    "name": "Satuba",
    "public_transport": "station",
    "railway": "station",
    "station": "light_rail"
  }
},
{
  "type": "node",
  "id": 7246393937,
  "lat": -8.1340211,
  "lon": -34.9520619,
  "tags": {
    "amenity": "bus_station",
    "bus": "yes",
    "name": "Terminal Ur-05 (Barro)",
    "public_transport": "station"
  }
},
{
  "type": "node",
  "id": 7277909531,
  "lat": -7.1805030,
  "lon": -34.8657610,
  "tags": {
    "amenity": "bus_station",
    "bus": "yes",
    "name": "Terminal 5100 Circular",
    "public_transport": "station"
  }
},
{
  "type": "node",
  "id": 7277909532,
  "lat": -7.1797564,
  "lon": -34.8711888,
  "tags": {
    "amenity": "bus_station",
    "bus": "yes",
    "name": "Terminal 1510 - 5110",
    "public_transport": "station"
  }
},
{
  "type": "node",
  "id": 7285799276,
  "lat": -8.1828780,
  "lon": -34.9509031,
  "tags": {
    "access": "private",
    "amenity": "bus_station",
    "bus": "yes",
    "name": "Ônibus Fretado",
    "operator": "TOTALITY",
    "public_transport": "station",
    "wheelchair": "yes"
  }
},
{
  "type": "node",
  "id": 7330640979,
  "lat": -7.1763767,
  "lon": -34.8667538,
  "tags": {
    "amenity": "bus_station",
    "bus": "yes",
    "name": "Terminal 502-202-106",
    "public_transport": "station"
  }
},
{
  "type": "node",
  "id": 7550109977,
  "lat": -5.7767266,
  "lon": -35.2540586,
  "tags": {
    "amenity": "bus_station",
    "bus": "yes",
    "name": "Terminal de Ônibus",
    "public_transport": "station"
  }
},
{
  "type": "node",
  "id": 7685399617,
  "lat": -8.0083926,
  "lon": -34.9074699,
  "tags": {
    "amenity": "bus_station",
    "bus": "yes",
    "name": "Terminal Linha do Tiro",
    "public_transport": "station"
  }
},
{
  "type": "node",
  "id": 7787467634,
  "lat": -9.0463119,
  "lon": -35.4030203,
  "tags": {
    "addr:city": "Porto Calvo",
    "addr:state": "AL",
    "amenity": "bus_station",
    "name": "Rodoviária",
    "public_transport": "station"
  }
},
{
  "type": "node",
  "id": 7787467640,
  "lat": -9.5907567,
  "lon": -35.9527261,
  "tags": {
    "addr:city": "Pilar",
    "addr:state": "AL",
    "amenity": "bus_station",
    "name": "Terminal Rodoviário",
    "public_transport": "station"
  }
},
{
  "type": "node",
  "id": 7787467654,
  "lat": -8.0002493,
  "lon": -35.2889780,
  "tags": {
    "addr:city": "Glória do Goitá",
    "addr:state": "PE",
    "amenity": "bus_station",
    "name": "Terminal Rodoviário",
    "public_transport": "station"
  }
},
{
  "type": "node",
  "id": 7823999638,
  "lat": -8.0016270,
  "lon": -34.8562890,
  "tags": {
    "addr:city": "Recife",
    "addr:state": "PE",
    "amenity": "bus_station",
    "description": "Estação de BRT",
    "name": "Quartel",
    "public_transport": "platform"
  }
},
{
  "type": "node",
  "id": 8023768236,
  "lat": -7.7423557,
  "lon": -35.2263602,
  "tags": {
    "amenity": "bus_station",
    "bus": "yes",
    "name": "Terminal Rodoviário de Nazaré da Mata",
    "official_name": "Terminal Rodoviário Rodolfo Ferreira Lima",
    "public_transport": "station"
  }
},
{
  "type": "node",
  "id": 8184315628,
  "lat": -8.1158030,
  "lon": -34.9390076,
  "tags": {
    "amenity": "bus_station",
    "bus": "yes",
    "public_transport": "station"
  }
},
{
  "type": "node",
  "id": 8371414162,
  "lat": -7.9950584,
  "lon": -34.9828451,
  "tags": {
    "amenity": "bus_station",
    "bus": "yes",
    "name": "Terminal Loteamento São Jorge",
    "public_transport": "station"
  }
},
{
  "type": "node",
  "id": 8495390274,
  "lat": -5.9773423,
  "lon": -35.2826284,
  "tags": {
    "amenity": "bus_station",
    "bus": "yes",
    "network": "V",
    "public_transport": "station"
  }
},
{
  "type": "node",
  "id": 8718726123,
  "lat": -7.3177192,
  "lon": -35.4007360,
  "tags": {
    "name": "Lauro Müller",
    "railway": "station",
    "ruins": "yes",
    "wikidata": "Q106975418",
    "wikipedia": "pt:Estação Ferroviária Lauro Müller"
  }
},
{
  "type": "node",
  "id": 8865974413,
  "lat": -7.3010118,
  "lon": -35.6197733,
  "tags": {
    "name": "Ingá",
    "railway": "station",
    "ruins": "yes",
    "wikidata": "Q106975421",
    "wikipedia": "pt:Estação Ferroviária de Ingá"
  }
},
{
  "type": "node",
  "id": 9180048656,
  "lat": -8.1388009,
  "lon": -35.0107354,
  "tags": {
    "amenity": "bus_station",
    "bus": "yes",
    "name": "Terminal da CoHab Suassuna",
    "public_transport": "station"
  }
},
{
  "type": "node",
  "id": 9429536083,
  "lat": -8.0630438,
  "lon": -34.8797767,
  "tags": {
    "addr:city": "Recife",
    "addr:street": "Avenida Guararapes",
    "addr:suburb": "Santo Antônio",
    "air_conditioning": "yes",
    "amenity": "bus_station",
    "bus": "yes",
    "highway": "footway",
    "level": "0",
    "name": "Guararapes",
    "name:en": "Guararapes Station",
    "network": "BRT Leste-Oeste",
    "operator": "Mobi-PE;GRCT;Urbana PE",
    "public_transport": "station",
    "wheelchair": "yes"
  }
},
{
  "type": "node",
  "id": 9633676824,
  "lat": -8.0431377,
  "lon": -34.9437857,
  "tags": {
    "amenity": "bus_station",
    "bus": "yes",
    "description": "Terminal de desembarque de ônibus de viagens Intermunicipais e interestaduais.",
    "name": "Parada da Caxangá",
    "public_transport": "station",
    "source": "local knowledge"
  }
},
{
  "type": "node",
  "id": 10542646322,
  "lat": -6.0703725,
  "lon": -35.2346302,
  "tags": {
    "light_rail": "yes",
    "name": "São José de Mipibu",
    "public_transport": "station",
    "railway": "station",
    "station": "light_rail"
  }
},
{
  "type": "node",
  "id": 10542646323,
  "lat": -5.9431419,
  "lon": -35.2418567,
  "tags": {
    "light_rail": "yes",
    "name": "Cajupiranga",
    "public_transport": "station",
    "railway": "station",
    "station": "light_rail"
  }
},
{
  "type": "node",
  "id": 10542646324,
  "lat": -6.0252104,
  "lon": -35.2309053,
  "tags": {
    "light_rail": "yes",
    "name": "Bonfim",
    "public_transport": "station",
    "railway": "station",
    "station": "light_rail"
  }
},
{
  "type": "node",
  "id": 11403197365,
  "lat": -6.1443776,
  "lon": -35.1441839,
  "tags": {
    "amenity": "bus_station",
    "bus": "yes",
    "name": "Rodoviária Carnaúba",
    "public_transport": "station"
  }
},
{
  "type": "node",
  "id": 11547096357,
  "lat": -7.0196349,
  "lon": -34.8416493,
  "tags": {
    "name": "Poço",
    "network": "VLT João Pessoa",
    "operator": "CBTU",
    "public_transport": "station",
    "railway": "station",
    "station": "train",
    "train": "yes"
  }
},
{
  "type": "node",
  "id": 11718195493,
  "lat": -7.1272711,
  "lon": -34.9015930,
  "tags": {
    "name": "Ilha do Bispo",
    "public_transport": "station",
    "railway": "station",
    "station": "train",
    "train": "yes"
  }
},
{
  "type": "node",
  "id": 11761700225,
  "lat": -7.1075122,
  "lon": -34.8748076,
  "tags": {
    "amenity": "bus_station",
    "bus": "yes",
    "name": "Terminal de Ônibus do Roger",
    "public_transport": "station"
  }
},
{
  "type": "node",
  "id": 11909965026,
  "lat": -5.7463434,
  "lon": -35.3180018,
  "tags": {
    "amenity": "bus_station",
    "bus": "yes",
    "name": "Terminal Cidade das Rosas",
    "public_transport": "station"
  }
},
{
  "type": "node",
  "id": 12005157963,
  "lat": -8.1422057,
  "lon": -34.9397072,
  "tags": {
    "addr:city": "Jaboatão dos Guararapes",
    "addr:postcode": "54320-470",
    "addr:street": "Rua Augusto Guedes dos Santos",
    "addr:suburb": "Jardim Jordão",
    "amenity": "bus_station",
    "bus": "yes",
    "name": "Terminal de Ônibus Jardim Jordão",
    "public_transport": "station"
  }
},
{
  "type": "node",
  "id": 12374249817,
  "lat": -7.0539937,
  "lon": -35.3180729,
  "tags": {
    "amenity": "bus_station",
    "bus": "yes",
    "check_date": "2024-11-25",
    "name": "Terminal Rodoviário de Marí",
    "public_transport": "station"
  }
},
{
  "type": "node",
  "id": 12532129473,
  "lat": -8.0686054,
  "lon": -34.8844225,
  "tags": {
    "amenity": "bus_station",
    "name": "Bus 107 circular (cabuga/ prefeitura)"
  }
},
{
  "type": "node",
  "id": 12532140197,
  "lat": -8.0686464,
  "lon": -34.8844051,
  "tags": {
    "amenity": "bus_station",
    "name": "Bus 117 circular (prefeitura/ cabuga)"
  }
},
{
  "type": "node",
  "id": 12532218556,
  "lat": -8.0684294,
  "lon": -34.8844787,
  "tags": {
    "amenity": "bus_station",
    "name": "Bus 104 circular (Imip)"
  }
},
{
  "type": "node",
  "id": 12532249126,
  "lat": -8.0685381,
  "lon": -34.8844438,
  "tags": {
    "amenity": "bus_station",
    "name": "Bus 116 circular principe"
  }
},
{
  "type": "node",
  "id": 12532253629,
  "lat": -8.0684955,
  "lon": -34.8844566,
  "tags": {
    "amenity": "bus_station",
    "name": "Bus 101- circular (cde-boa vista/Rua do Sol)"
  }
},
{
  "type": "node",
  "id": 13276502331,
  "lat": -7.0037949,
  "lon": -34.8336196,
  "tags": {
    "light_rail": "yes",
    "name": "Jardim Camboinha",
    "network": "VLT João Pessoa",
    "operator": "CBTU",
    "public_transport": "station",
    "railway": "station",
    "station": "light_rail"
  }
},
{
  "type": "node",
  "id": 13276541417,
  "lat": -6.9742170,
  "lon": -34.8359860,
  "tags": {
    "light_rail": "yes",
    "name": "Cabedelo",
    "network": "VLT João Pessoa",
    "operator": "CBTU",
    "public_transport": "station",
    "railway": "station",
    "station": "light_rail"
  }
},
{
  "type": "node",
  "id": 13276675019,
  "lat": -7.1272919,
  "lon": -34.9016162,
  "tags": {
    "light_rail": "yes",
    "name": "Ilha do Bispo",
    "network": "VLT João Pessoa",
    "operator": "VLT João Pessoa",
    "public_transport": "station",
    "railway": "station",
    "station": "light_rail"
  }
},
{
  "type": "node",
  "id": 13277590992,
  "lat": -5.7712694,
  "lon": -35.2511347,
  "tags": {
    "light_rail": "yes",
    "name": "Igapó",
    "network": "VLT de Natal - Linha Norte",
    "operator": "CBTU",
    "public_transport": "station",
    "railway": "station",
    "station": "light_rail"
  }
},
{
  "type": "node",
  "id": 13277590993,
  "lat": -5.7565515,
  "lon": -35.2418200,
  "tags": {
    "light_rail": "yes",
    "name": "Santa Catarina",
    "network": "VLT de Natal - Linha Norte",
    "operator": "CBTU",
    "public_transport": "station",
    "railway": "station",
    "station": "light_rail"
  }
},
{
  "type": "node",
  "id": 13279394566,
  "lat": -6.0824152,
  "lon": -35.2280748,
  "tags": {
    "light_rail": "yes",
    "name": "Nísia Floresta",
    "network": "VLT de Natal - Linha Branca",
    "opening_date": "2022-12-19",
    "operator": "CBTU",
    "public_transport": "station",
    "railway": "station",
    "station": "light_rail"
  }
},
{
  "type": "node",
  "id": 13284040052,
  "lat": -7.2167752,
  "lon": -35.8825633,
  "tags": {
    "amenity": "bus_station",
    "bus": "yes",
    "name": "Rodoviária Velha",
    "public_transport": "station"
  }
},
{
  "type": "node",
  "id": 13286945960,
  "lat": -5.7224533,
  "lon": -35.2797494,
  "tags": {
    "light_rail": "yes",
    "name": "Bela Vista",
    "network": "VLT Natal",
    "operator": "CBTU",
    "public_transport": "station",
    "railway": "station",
    "station": "light_rail"
  }
},
{
  "type": "node",
  "id": 13286956112,
  "lat": -5.7934281,
  "lon": -35.2240078,
  "tags": {
    "light_rail": "yes",
    "name": "Alecrim I",
    "network": "VLT Natal - Linha Norte",
    "public_transport": "station",
    "railway": "station",
    "station": "light_rail"
  }
},
{
  "type": "node",
  "id": 13286956113,
  "lat": -5.7943234,
  "lon": -35.2233440,
  "tags": {
    "light_rail": "yes",
    "name": "Alecrim II",
    "network": "VLT Natal - Linha Branca",
    "public_transport": "station",
    "railway": "station",
    "station": "light_rail"
  }
},
{
  "type": "node",
  "id": 13286960241,
  "lat": -5.8036166,
  "lon": -35.2269272,
  "tags": {
    "light_rail": "yes",
    "name": "Padre João Maria",
    "network": "VLT Natal - Linha Sul",
    "operator": "CBTU",
    "public_transport": "station",
    "railway": "station",
    "station": "light_rail"
  }
},
{
  "type": "node",
  "id": 13286998128,
  "lat": -5.8331935,
  "lon": -35.2451690,
  "tags": {
    "light_rail": "yes",
    "name": "Prómorar",
    "network": "VLT Natal - Linha SUl",
    "operator": "CBTU",
    "public_transport": "station",
    "railway": "station",
    "station": "light_rail"
  }
},
{
  "type": "node",
  "id": 13287035191,
  "lat": -5.8827087,
  "lon": -35.2550911,
  "tags": {
    "light_rail": "yes",
    "name": "Jardim Aeroporto",
    "network": "VLT Natal - Linha Sul",
    "operator": "CBTU",
    "public_transport": "station",
    "railway": "station",
    "station": "light_rail"
  }
},
{
  "type": "way",
  "id": 93211310,
  "nodes": [
    1080540128,
    10963915279,
    10963915277,
    10963915278,
    1080540050,
    10963915276,
    10963915266,
    1080539689,
    10963915324,
    10963915318,
    1080539747,
    10963915265,
    10963915247,
    10963915246,
    10963884043,
    10963884042,
    10963915241,
    10963915240,
    10963884041,
    1080540128
  ],
  "tags": {
    "addr:city": "Natal",
    "addr:housenumber": "1597",
    "addr:street": "Avenida Capitão Mor-Gouveia",
    "addr:suburb": "Nossa Senhora de Nazaré",
    "alt_name": "Rodoviária Nova;Rodoviária de Natal",
    "amenity": "bus_station",
    "bus": "yes",
    "name": "Complexo Rodoviário Severino Tomaz da Silveira",
    "operator": "Governo do Estado do Rio Grande do Norte",
    "public_transport": "station",
    "website": "https://www.rodoviarianatal.com.br/",
    "wikidata": "Q10380655",
    "wikipedia": "pt:Terminal Rodoviário de Natal"
  }
},
{
  "type": "way",
  "id": 128321745,
  "nodes": [
    1418410442,
    1418410454,
    1418410444,
    1418410440,
    1418410443,
    1418410442
  ],
  "tags": {
    "amenity": "bus_station",
    "bus": "yes",
    "name": "Terminal Ouro Preto",
    "public_transport": "station"
  }
},
{
  "type": "way",
  "id": 128375001,
  "nodes": [
    1418921021,
    1418921016,
    1418921015,
    3741471351,
    1418921020,
    5902269014,
    1418921021
  ],
  "tags": {
    "building": "yes",
    "covered": "yes",
    "layer": "1",
    "name": "Antônio Falcão",
    "public_transport": "station",
    "railway": "station",
    "station": "subway",
    "subway": "yes",
    "wheelchair": "yes"
  }
},
{
  "type": "way",
  "id": 128475764,
  "nodes": [
    9168532531,
    9168532543,
    9168532544,
    9168532545,
    9168532546,
    9168532547,
    9168532548,
    9168532549,
    9168532550,
    1419734556,
    9168532571,
    9168532551,
    9168532593,
    9168532578,
    9168532580,
    9168532576,
    9168532574,
    5619902953,
    1419734557,
    341780687,
    1419734555,
    5619902954,
    5940769141,
    6553223613,
    1504714156,
    5854548700,
    5854548702,
    7202194661,
    9168532559,
    9168532558,
    1419734554,
    9168532534,
    9168532536,
    9168532537,
    9168532538,
    9168532539,
    9168532540,
    9168532541,
    9168532542,
    9168532535,
    5854548703,
    9168532533,
    9168532532,
    9168532531
  ],
  "tags": {
    "building": "yes",
    "building:levels": "3",
    "layer": "1",
    "name": "Afogados",
    "network": "Linha Centro 1 e 2",
    "operator": "CBTU Recife",
    "public_transport": "station",
    "railway": "station",
    "ref": "AFO",
    "station": "subway",
    "subway": "yes"
  }
},
{
  "type": "way",
  "id": 129480960,
  "nodes": [
    1428483991,
    6521338165,
    1428483997,
    5902269056,
    5902269057,
    5902269055,
    5902269059,
    1428483998,
    1428483992,
    5902269049,
    5902269051,
    1428483991
  ],
  "tags": {
    "building": "yes",
    "layer": "1",
    "name": "Shopping",
    "public_transport": "station",
    "railway": "station",
    "station": "subway",
    "subway": "yes"
  }
},
{
  "type": "way",
  "id": 129481073,
  "nodes": [
    1428485864,
    1428486617,
    5902269081,
    5902269083,
    6563825722,
    5398811449,
    6563825721,
    1428485869,
    1428485861,
    5902269085,
    5902269086,
    5902269084,
    1428486612,
    1428485863,
    1428485864
  ],
  "tags": {
    "building": "yes",
    "layer": "1",
    "name": "Tancredo Neves",
    "public_transport": "station",
    "railway": "station",
    "ref": "TAN",
    "station": "subway",
    "subway": "yes"
  }
},
{
  "type": "way",
  "id": 129483316,
  "nodes": [
    1428538009,
    1428538008,
    8936656696,
    5902269358,
    1428538004,
    1428538010,
    1551285290,
    1428538009
  ],
  "tags": {
    "building": "yes",
    "layer": "1",
    "name": "Porta Larga",
    "public_transport": "station",
    "railway": "station",
    "station": "subway",
    "subway": "yes"
  }
},
{
  "type": "way",
  "id": 141710681,
  "nodes": [
    1551256905,
    8465458638,
    1551256907,
    1551256899,
    5902269373,
    8957867734,
    5863817387,
    1551256904,
    1551256905
  ],
  "tags": {
    "building": "yes",
    "name": "Monte dos Guararapes",
    "public_transport": "station",
    "railway": "station",
    "station": "subway",
    "subway": "yes"
  }
},
{
  "type": "way",
  "id": 174988067,
  "nodes": [
    1856287315,
    1856287299,
    1856287353,
    3327797390,
    1856287352,
    1856287332,
    1856287345,
    1856287379,
    3327797369,
    1856287285,
    3327797375,
    1856287323,
    1856287321,
    1856287315
  ],
  "tags": {
    "amenity": "bus_station",
    "building": "transportation",
    "name": "Terminal Rodoviário Estadual Antônio Gentil de Amorim"
  }
},
{
  "type": "way",
  "id": 194973062,
  "nodes": [
    2054823171,
    2530845067,
    2530845070,
    2530845075,
    2054823199,
    2054823226,
    2538345990,
    2054823256,
    2054823213,
    6148795805,
    6148795806,
    6148795809,
    5957505487,
    6148795807,
    6148795808,
    6148795810,
    2054823300,
    2054823147,
    2054823239,
    6175216246,
    6175216245,
    2054823171
  ],
  "tags": {
    "amenity": "bus_station",
    "bus": "yes",
    "name": "Terminal de Integração do Varadouro",
    "public_transport": "station"
  }
},
{
  "type": "way",
  "id": 220040669,
  "nodes": [
    2291607847,
    2291607849,
    2291607853,
    2291607851,
    2291607847
  ],
  "tags": {
    "building": "yes",
    "name": "Itamataí",
    "public_transport": "station",
    "railway": "station",
    "train": "yes"
  }
},
{
  "type": "way",
  "id": 225777205,
  "nodes": [
    2345317022,
    2345317024,
    2345317027,
    2345317026,
    2345317022
  ],
  "tags": {
    "addr:city": "Natal",
    "addr:postcode": "59104-140",
    "addr:street": "Avenida Duque de Caxias",
    "addr:suburb": "Ribeira",
    "amenity": "bus_station",
    "building": "yes",
    "building:levels": "1",
    "bus": "yes",
    "name": "Terminal Rocas",
    "operator": "Prefeitura do Natal",
    "public_transport": "station"
  }
},
{
  "type": "way",
  "id": 243985615,
  "nodes": [
    6593551595,
    6593551596,
    2513405899,
    2513405900,
    5344902994,
    6593551597,
    6593551598,
    6593551599,
    6593551600,
    6593551601,
    6593551602,
    6593551603,
    6593551604,
    6593551605,
    6593551606,
    6593551607,
    6593551608,
    6593551609,
    6593551594,
    6593551593,
    6593551595
  ],
  "tags": {
    "amenity": "bus_station",
    "bus": "yes",
    "check_date": "2025-11-06",
    "name": "Terminal de Integração",
    "public_transport": "station"
  }
},
{
  "type": "way",
  "id": 246441635,
  "nodes": [
    2534871567,
    2534871566,
    2534871572,
    2534871573,
    2534871574,
    2534871567
  ],
  "tags": {
    "amenity": "bus_station",
    "bus": "yes",
    "name": "Terminal Cidade Verde",
    "public_transport": "station",
    "shelter": "yes"
  }
},
{
  "type": "way",
  "id": 247741092,
  "nodes": [
    610195451,
    610196073,
    2546032565,
    2546032556,
    610195451
  ],
  "tags": {
    "amenity": "bus_station",
    "bus": "yes",
    "name": "Terminal de Integração Colinas do Sul",
    "public_transport": "station"
  }
},
{
  "type": "way",
  "id": 250235392,
  "nodes": [
    2567160299,
    2567160300,
    2567160301,
    2567160302,
    2567160299
  ],
  "tags": {
    "amenity": "bus_station",
    "building": "yes",
    "name": "Terminal Rodoviário Municipal Anísio Rodrigues da Costa",
    "operator": "Prefeitura Municipal"
  }
},
{
  "type": "way",
  "id": 251401728,
  "nodes": [
    2576271023,
    2576271025,
    2576271018,
    2576271014,
    2576271023
  ],
  "tags": {
    "amenity": "bus_station",
    "bus": "yes",
    "name": "Terminal de Valentina Figueiredo",
    "public_transport": "station",
    "shelter": "yes"
  }
},
{
  "type": "way",
  "id": 256885287,
  "nodes": [
    2625095480,
    2625095496,
    2625095498,
    2625095484,
    2625095482,
    2625095480
  ],
  "tags": {
    "amenity": "bus_station",
    "bus": "yes",
    "name": "Terminal de Ônibus do Cidade Verde",
    "operator": "Transnacional",
    "public_transport": "station"
  }
},
{
  "type": "way",
  "id": 259240564,
  "nodes": [
    2645919890,
    2645919898,
    2645919896,
    2645919886,
    2645919890
  ],
  "tags": {
    "amenity": "bus_station",
    "bus": "yes",
    "name": "Terminal de Integração do Bessa",
    "public_transport": "station",
    "wheelchair": "limited"
  }
},
{
  "type": "way",
  "id": 261073891,
  "nodes": [
    2666916469,
    2666916473,
    2666916471,
    2666916466,
    2666916469
  ],
  "tags": {
    "amenity": "bus_station",
    "bus": "yes",
    "name": "Terminal Urbano de Santa Rita",
    "operator": "Prefeitura Municipal de Santa Rita",
    "public_transport": "station"
  }
},
{
  "type": "way",
  "id": 285156913,
  "nodes": [
    2888323517,
    2888323518,
    2888323528,
    2888323526,
    2888323529,
    2888323531,
    2888323532,
    2888323530,
    2888323525,
    2888323527,
    2888323524,
    2888323523,
    2888323517
  ],
  "tags": {
    "amenity": "bus_station",
    "bus": "yes",
    "name": "Terminal Integrado do Benedito Bentes",
    "public_transport": "station",
    "shelter": "yes",
    "wheelchair": "yes"
  }
},
{
  "type": "way",
  "id": 292114964,
  "nodes": [
    733329507,
    733329506,
    733329505,
    733329504,
    7149250201,
    7149250200,
    733329503,
    733329502,
    2956390982,
    733329500,
    7149250292,
    2956390989,
    2956390995,
    7149250299,
    7149250300,
    2956391005,
    7149250429,
    2956391021,
    2956391024,
    2956391026,
    2956724948,
    7149250335,
    7149250202,
    7149250372,
    2956724944,
    733327624,
    7149250428,
    733327625,
    7149250427,
    733327626,
    7149250384,
    2956391008,
    2956390998,
    2956390985,
    733329507
  ],
  "tags": {
    "amenity": "bus_station",
    "bus": "yes",
    "description": "Rodoviária de João Pessoa",
    "name": "Terminal Rodoviário Severino Camêlo",
    "name:pt": "Rodoviária de João Pessoa",
    "public_transport": "station",
    "source": "survey",
    "wheelchair": "yes"
  }
},
{
  "type": "way",
  "id": 302250784,
  "nodes": [
    3064995978,
    8807184144,
    6175216204,
    3064995979,
    3064995980,
    6148795801,
    3064995981,
    3064995978
  ],
  "tags": {
    "building": "train_station",
    "name": "João Pessoa",
    "public_transport": "station",
    "railway": "station",
    "station": "train",
    "train": "yes"
  }
},
{
  "type": "way",
  "id": 315020188,
  "nodes": [
    3211033885,
    3211033884,
    3211033890,
    3211033892,
    3211033885
  ],
  "tags": {
    "amenity": "bus_station",
    "name": "Rodoviária"
  }
},
{
  "type": "way",
  "id": 364004118,
  "nodes": [
    3681059581,
    3681059582,
    3681059583,
    3681059584,
    3681059581
  ],
  "tags": {
    "amenity": "bus_station",
    "building": "yes",
    "bus": "yes",
    "name": "Terminal Mercado da Produção",
    "public_transport": "station",
    "source": "Bing;IBGE"
  }
},
{
  "type": "way",
  "id": 371261853,
  "nodes": [
    3748424381,
    5979165646,
    5979165650,
    6123817958,
    5979165648,
    5979165647,
    5979165645,
    5979165644,
    5979165649,
    5979165643,
    3748424382,
    3748424387,
    3742033843,
    3748424383,
    5979165654,
    5979165653,
    5979165652,
    5979165651,
    6123818898,
    5979165656,
    5979165658,
    3748424386,
    3748424385,
    3748424381
  ],
  "tags": {
    "building": "yes",
    "building:levels": "3",
    "name": "Ipiranga",
    "public_transport": "station",
    "railway": "station",
    "ref": "IPI",
    "station": "subway",
    "subway": "yes"
  }
},
{
  "type": "way",
  "id": 371261858,
  "nodes": [
    3748424390,
    6123853031,
    5908720687,
    5908720688,
    6123853032,
    5908720686,
    5908720689,
    5908720690,
    5908720685,
    3748424391,
    3748424397,
    3748424396,
    3748424392,
    5908720691,
    5908720692,
    5908720693,
    5908720694,
    6123853084,
    6123853030,
    3748424393,
    3748424394,
    3748424395,
    3748424390
  ],
  "tags": {
    "building": "yes",
    "building:levels": "2",
    "name": "Mangueira",
    "public_transport": "station",
    "railway": "station",
    "ref": "MAN",
    "station": "subway",
    "subway": "yes"
  }
},
{
  "type": "way",
  "id": 371261870,
  "nodes": [
    3748424407,
    3771979523,
    3771979524,
    3748424408,
    5810789534,
    6123895388,
    6123895387,
    6123895389,
    6123895390,
    3748424409,
    5668020871,
    3771979525,
    3771979526,
    5770642114,
    3748424410,
    6123895392,
    6123895391,
    5810789536,
    5810789537,
    6123895393,
    6123895394,
    5810789539,
    3748424407
  ],
  "tags": {
    "building": "yes",
    "building:levels": "3",
    "public_transport": "station",
    "railway": "station",
    "station": "subway",
    "subway": "yes"
  }
},
{
  "type": "way",
  "id": 373786302,
  "nodes": [
    3771979538,
    3771979545,
    3771979544,
    3771979539,
    6583146209,
    5770641685,
    5770641717,
    5770641680,
    3771979540,
    3771979543,
    3771979542,
    3771979541,
    5770641686,
    5770641678,
    5770641679,
    3771979538
  ],
  "tags": {
    "building": "yes",
    "building:levels": "3",
    "name": "Tejipió",
    "public_transport": "station",
    "railway": "station",
    "ref": "TEJ",
    "station": "subway",
    "subway": "yes",
    "wikidata": "Q10276180"
  }
},
{
  "type": "way",
  "id": 375124394,
  "nodes": [
    3785128848,
    3785128849,
    3785128850,
    3785128851,
    3785128848
  ],
  "tags": {
    "amenity": "bus_station",
    "building": "yes",
    "bus": "yes",
    "name": "Terminal da Chã Da Jaqueira",
    "public_transport": "station",
    "source": "Bing;IBGE"
  }
},
{
  "type": "way",
  "id": 377683555,
  "nodes": [
    3810707958,
    3810707959,
    3810707960,
    3810707961,
    3810707962,
    3810707963,
    3810707964,
    3810707958
  ],
  "tags": {
    "amenity": "bus_station",
    "building": "yes",
    "name": "Rodoviária Municipal"
  }
},
{
  "type": "way",
  "id": 379141038,
  "nodes": [
    3824942363,
    3824942364,
    3824942365,
    3824942366,
    3824942363
  ],
  "tags": {
    "amenity": "bus_station",
    "bus": "yes",
    "public_transport": "station"
  }
},
{
  "type": "way",
  "id": 427843848,
  "nodes": [
    4274861242,
    4270167856,
    6008925932,
    4270167857,
    4270167858,
    4270167859,
    2633214178,
    4274861242
  ],
  "tags": {
    "amenity": "bus_station",
    "building": "yes",
    "name": "Terminal de Ônibus Jordão Alto"
  }
},
{
  "type": "way",
  "id": 427843859,
  "nodes": [
    4270167880,
    4270167875,
    4270167876,
    5958824108,
    4270167877,
    4270167880
  ],
  "tags": {
    "amenity": "bus_station",
    "building": "yes",
    "name": "Terminal de Ônibus Jordão Baixo"
  }
},
{
  "type": "way",
  "id": 428121165,
  "nodes": [
    3771979533,
    5940769111,
    3771979537,
    3771979536,
    5770641724,
    4272613152,
    6123930786,
    5668020831,
    3771979535,
    3771979534,
    6434473690,
    4272613154,
    6123930789,
    5770642084,
    5770642083,
    9364653294,
    5770642082,
    5770642085,
    5770642081,
    5770642080,
    6434473681,
    5500121182,
    5770642086,
    3771979533
  ],
  "tags": {
    "building": "yes",
    "building:levels": "3",
    "public_transport": "station",
    "railway": "station",
    "ref": "BAR",
    "station": "subway",
    "subway": "yes"
  }
},
{
  "type": "way",
  "id": 428122285,
  "nodes": [
    4272631664,
    4272631665,
    4272631660,
    4272631659,
    4272631664
  ],
  "tags": {
    "amenity": "bus_station",
    "bus": "yes",
    "name": "Terminal do Bongi",
    "public_transport": "station"
  }
},
{
  "type": "way",
  "id": 443474425,
  "nodes": [
    4410539115,
    4410539116,
    4410539117,
    4410539118,
    4410539115
  ],
  "tags": {
    "amenity": "bus_station",
    "building": "yes",
    "name": "Rodoviária"
  }
},
{
  "type": "way",
  "id": 475868768,
  "nodes": [
    4695552235,
    4695552236,
    4695552237,
    4695552238,
    4695552235
  ],
  "tags": {
    "amenity": "bus_station",
    "bus": "yes",
    "internet_access": "no",
    "operator": "Unitrans",
    "public_transport": "station"
  }
},
{
  "type": "way",
  "id": 484440103,
  "nodes": [
    4771928671,
    4771928672,
    7046990533,
    4771928673,
    4771928674,
    7046990530,
    4771928671
  ],
  "tags": {
    "addr:city": "Moreno",
    "addr:postcode": "54800-000",
    "addr:street": "Avenida Doutor Sofrônio Portela",
    "addr:suburb": "Centro",
    "building": "yes",
    "description": "Estação Ferroviária de Moreno",
    "name": "Moreno",
    "railway": "station"
  }
},
{
  "type": "way",
  "id": 500287818,
  "nodes": [
    4946387245,
    4946387243,
    4946387246,
    4946387248,
    4946387249,
    4946387250,
    4946387247,
    4946387245
  ],
  "tags": {
    "amenity": "bus_station",
    "bus": "yes",
    "name": "Terminal Rodoviário",
    "public_transport": "station"
  }
},
{
  "type": "way",
  "id": 502391202,
  "nodes": [
    4928778175,
    4946387274,
    4928778176,
    4928778177,
    4928778178,
    4946387275,
    4928778179,
    4928778180,
    4928778175
  ],
  "tags": {
    "addr:city": "Ceará Mirim",
    "addr:housenumber": "207",
    "addr:postcode": "59570000",
    "amenity": "bus_station",
    "building": "transportation",
    "bus": "yes",
    "public_transport": "station"
  }
},
{
  "type": "way",
  "id": 512060301,
  "nodes": [
    5007458945,
    5007458946,
    5007458947,
    5007458948,
    5007458945
  ],
  "tags": {
    "amenity": "bus_station",
    "building": "yes"
  }
},
{
  "type": "way",
  "id": 512676905,
  "nodes": [
    5012884933,
    5012884934,
    5012884935,
    6135463421,
    6135463393,
    5012884937,
    6135463394,
    5012884938,
    5012884939,
    5012884940,
    6135463414,
    5012884933
  ],
  "tags": {
    "building": "yes",
    "light_rail": "yes",
    "name": "Cabo",
    "operator": "CBTU",
    "public_transport": "station",
    "railway": "station",
    "start_date": "10/02/1858",
    "station": "light_rail"
  }
},
{
  "type": "way",
  "id": 535349369,
  "nodes": [
    6392484760,
    6392484769,
    6392484759,
    5189371021,
    6392484770,
    6392484756,
    6392484757,
    6392484758,
    6392484760
  ],
  "tags": {
    "addr:city": "Maceió",
    "addr:street": "Avenida Walter Ananias",
    "addr:suburb": "Jaraguá",
    "building": "yes",
    "light_rail": "yes",
    "operator": "cbtu maceió",
    "public_transport": "station",
    "railway": "station",
    "station": "light_rail"
  }
},
{
  "type": "way",
  "id": 537144324,
  "nodes": [
    5202084610,
    5202084611,
    5202084612,
    5202084613,
    5202084610
  ],
  "tags": {
    "amenity": "bus_station",
    "building": "yes"
  }
},
{
  "type": "way",
  "id": 540826081,
  "nodes": [
    5231266377,
    5231266376,
    5231266373,
    5231266372,
    5231266377
  ],
  "tags": {
    "amenity": "bus_station",
    "building": "yes",
    "bus": "yes",
    "name": "Terminal Integrado de Igarassu",
    "public_transport": "station"
  }
},
{
  "type": "way",
  "id": 543993231,
  "nodes": [
    5258566846,
    5258566847,
    5258566848,
    5258566849,
    5258566846
  ],
  "tags": {
    "name": "Timbaúba",
    "public_transport": "station",
    "railway": "station",
    "train": "yes"
  }
},
{
  "type": "way",
  "id": 548627562,
  "nodes": [
    5300025956,
    5300025957,
    5300025958,
    5300025960,
    5300025959,
    5300025961,
    5300025956
  ],
  "tags": {
    "amenity": "bus_station"
  }
},
{
  "type": "way",
  "id": 554006444,
  "nodes": [
    1827712429,
    5346964890,
    5346964891,
    5346964892,
    1827712429
  ],
  "tags": {
    "amenity": "bus_station",
    "building": "yes",
    "name": "Rodoviária de Nísia Floresta"
  }
},
{
  "type": "way",
  "id": 557808217,
  "nodes": [
    5379396627,
    5379396628,
    5379396629,
    5379396630,
    5379396627
  ],
  "tags": {
    "amenity": "bus_station",
    "bus": "yes",
    "name": "Conceição Transportes",
    "public_transport": "station"
  }
},
{
  "type": "way",
  "id": 568798212,
  "nodes": [
    5471829141,
    5471829142,
    5471829143,
    5471829144,
    5471829141
  ],
  "tags": {
    "amenity": "bus_station",
    "building": "yes",
    "bus": "yes",
    "name": "Agência São José",
    "public_transport": "station"
  }
},
{
  "type": "way",
  "id": 568802591,
  "nodes": [
    5471865088,
    5471865089,
    5471865090,
    5471865091,
    5471865088
  ],
  "tags": {
    "amenity": "bus_station",
    "building": "yes",
    "bus": "yes",
    "name": "Agência Bela Vista",
    "public_transport": "station"
  }
},
{
  "type": "way",
  "id": 573277830,
  "nodes": [
    5506388735,
    5693484088,
    5693484087,
    5506388736,
    5506388737,
    5693484100,
    8691260955,
    5693484101,
    5506388738,
    5506388735
  ],
  "tags": {
    "addr:city": "Camaragibe",
    "addr:postcode": "54762-003",
    "addr:street": "Avenida Doutor Belmino Correia",
    "addr:suburb": "Nazaré",
    "amenity": "bus_station",
    "building": "yes",
    "bus": "yes",
    "internet_access": "yes",
    "name": "Areinha",
    "name:en": "Areinha Station",
    "public_transport": "station"
  }
},
{
  "type": "way",
  "id": 573277833,
  "nodes": [
    5506388751,
    5506388752,
    5506388753,
    8691260950,
    5506388754,
    5506388751
  ],
  "tags": {
    "amenity": "bus_station",
    "building": "yes",
    "bus": "yes",
    "highway": "bus_stop",
    "internet_access": "yes",
    "name": "Padre Cícero",
    "name:pt": "Padre Cícero Station",
    "public_transport": "station"
  }
},
{
  "type": "way",
  "id": 573277834,
  "nodes": [
    5506388755,
    5506388756,
    5506388757,
    6578564661,
    5506388758,
    5506388755
  ],
  "tags": {
    "amenity": "bus_station",
    "building": "yes",
    "bus": "yes",
    "highway": "bus_stop",
    "internet_access": "yes",
    "name": "Capibaribe",
    "name:en": "Capibaribe Station",
    "public_transport": "station"
  }
},
{
  "type": "way",
  "id": 573277835,
  "nodes": [
    5506388759,
    9105404177,
    5506388760,
    5506388761,
    5506388762,
    5506388759
  ],
  "tags": {
    "amenity": "bus_station",
    "building": "yes",
    "bus": "yes",
    "highway": "bus_stop",
    "internet_access": "yes",
    "name": "Engenho Poeta",
    "name:en": "Engenho Poeta Station",
    "public_transport": "station"
  }
},
{
  "type": "way",
  "id": 573277836,
  "nodes": [
    5506388763,
    5506388764,
    5506388765,
    6509969331,
    5506388766,
    5506388763
  ],
  "tags": {
    "amenity": "bus_station",
    "building": "yes",
    "bus": "yes",
    "highway": "bus_stop",
    "internet_access": "yes",
    "name": "Riacho do Cavouco",
    "name:en": "Riacho do Cavouco Station",
    "public_transport": "station"
  }
},
{
  "type": "way",
  "id": 573277837,
  "nodes": [
    7036318252,
    5916501123,
    7143096779,
    5916501122,
    5506388768,
    5506388769,
    7036318255,
    7036318254,
    7036318253,
    7036318252
  ],
  "tags": {
    "addr:city": "Recife",
    "addr:suburb": "Iputinga",
    "amenity": "bus_station",
    "building": "yes",
    "bus": "yes",
    "highway": "bus_stop",
    "internet_access": "yes",
    "name": "BR-101",
    "name:en": "BR-101 Station",
    "public_transport": "station",
    "shelter": "yes"
  }
},
{
  "type": "way",
  "id": 573277839,
  "nodes": [
    5506388771,
    5506388772,
    5506388773,
    5506388774,
    5506388771
  ],
  "tags": {
    "amenity": "bus_station",
    "bus": "yes",
    "construction": "yes",
    "description": "Estação Bom Pastor. Obra cancelada",
    "public_transport": "station"
  }
},
{
  "type": "way",
  "id": 573277841,
  "nodes": [
    5506388775,
    5834985858,
    5794380941,
    5506388777,
    8220188925,
    5916501165,
    5506388778,
    5506388775
  ],
  "tags": {
    "amenity": "bus_station",
    "building": "yes",
    "bus": "yes",
    "internet_access": "yes",
    "name": "Caiara",
    "name:en": "Caiara Station",
    "public_transport": "station"
  }
},
{
  "type": "way",
  "id": 573277849,
  "nodes": [
    5506388794,
    7097034786,
    5900474983,
    6894079500,
    6894079499,
    5900476690,
    5506388795,
    5506388796,
    7097034797,
    7097034789,
    5506388797,
    5506388794
  ],
  "tags": {
    "amenity": "bus_station",
    "building": "yes",
    "bus": "yes",
    "internet_access": "yes",
    "name": "Benfica",
    "name:en": "Benfica Station",
    "operator": "Mobi-PE;GRCT;Urbana PE",
    "public_transport": "station",
    "surface": "metal"
  }
},
{
  "type": "way",
  "id": 574918088,
  "nodes": [
    5517685512,
    5517685516,
    5517685514,
    2484177089,
    5517685512
  ],
  "tags": {
    "addr:city": "Jaboatão dos Guararapes",
    "addr:suburb": "Lot Integração Muribeca",
    "amenity": "bus_station",
    "building": "yes",
    "bus": "yes",
    "name": "Terminal Integração Muribeca",
    "public_transport": "station"
  }
},
{
  "type": "way",
  "id": 577909608,
  "nodes": [
    5539092889,
    5539092890,
    5539092891,
    5539092892,
    5539092893,
    5539092889
  ],
  "tags": {
    "amenity": "bus_station",
    "building": "yes",
    "bus": "yes",
    "name": "Ilha de Itamaracá / TI - Igarassu",
    "public_transport": "station"
  }
},
{
  "type": "way",
  "id": 579464238,
  "nodes": [
    5549520506,
    5549520507,
    6203084411,
    6203084419,
    5549520508,
    5549520509,
    6203084410,
    7167812945,
    6203084403,
    5549520506
  ],
  "tags": {
    "amenity": "bus_station",
    "building": "yes",
    "bus": "yes",
    "highway": "footway",
    "name": "Treze de Maio",
    "name:en": "Treze de Maio Station",
    "network": "BRT Norte-Sul",
    "operator": "Conorte;GRCT;Urbana PE",
    "public_transport": "station"
  }
},
{
  "type": "way",
  "id": 580258637,
  "nodes": [
    5555280359,
    5555280360,
    7167812931,
    6533220957,
    7167812938,
    5555280361,
    5555280362,
    5555280359
  ],
  "tags": {
    "amenity": "bus_station",
    "building": "yes",
    "bus": "yes",
    "name": "Santa Casa de Misericórdia",
    "name:en": "Santa Casa de Misericórdia Station",
    "operator": "Grande Recife Consórcio de Transporte",
    "public_transport": "station",
    "public_transport_1": "platform",
    "website": "http://www.granderecife.pe.gov.br"
  }
},
{
  "type": "way",
  "id": 582585045,
  "nodes": [
    5571376792,
    5571376793,
    5571376794,
    5648652604,
    6533220931,
    5648652601,
    5571376795,
    5571376792
  ],
  "tags": {
    "amenity": "bus_station",
    "building": "yes",
    "bus": "yes",
    "highway": "footway",
    "name": "IEP",
    "name:en": "IEP Station",
    "public_transport": "station"
  }
},
{
  "type": "way",
  "id": 582585048,
  "nodes": [
    5571376796,
    5571376797,
    6533220929,
    5571376798,
    5571376799,
    5571376796
  ],
  "tags": {
    "amenity": "bus_station",
    "building": "yes",
    "bus": "yes",
    "highway": "footway",
    "name": "Araripina",
    "public_transport": "station"
  }
},
{
  "type": "way",
  "id": 583823658,
  "nodes": [
    5581523091,
    5581523092,
    5581523093,
    5581523094,
    5581523091
  ],
  "tags": {
    "addr:city": "Caruaru",
    "addr:housenumber": "01",
    "addr:postcode": "55034-040",
    "addr:street": "Avenida Mestre Vitalino",
    "addr:suburb": "Agamenon Magalhães",
    "air_conditioning": "no",
    "amenity": "bus_station",
    "bus": "yes",
    "internet_access": "wlan",
    "name": "Terminal Rodoviário De Caruaru",
    "phone": "(81) 3721-1930",
    "public_transport": "station",
    "wheelchair": "yes"
  }
},
{
  "type": "way",
  "id": 585791256,
  "nodes": [
    5597491736,
    12841035825,
    12841035824,
    5597491737,
    5597491738,
    5597491739,
    5597491736
  ],
  "tags": {
    "addr:city": "Vitória de Santo Antão",
    "addr:street": "Praça Leão Coroado",
    "addr:suburb": "Centro",
    "building": "yes",
    "disused:railway": "station",
    "name": "Antiga Estação ferroviária",
    "public_transport": "station",
    "railway": "station",
    "train": "yes"
  }
},
{
  "type": "way",
  "id": 586135874,
  "nodes": [
    5600966670,
    6946261983,
    5600966671,
    5600966672,
    6946261982,
    5600966673,
    5600966670
  ],
  "tags": {
    "addr:city": "Recife",
    "addr:street": "Avenida Dantas Barreto",
    "addr:suburb": "Santo Antônio",
    "amenity": "bus_station",
    "building": "yes",
    "bus": "yes",
    "highway": "footway",
    "name": "Nossa Senhora do Carmo",
    "name:en": "Nossa Senhora do Carmo Station",
    "network": "BRT Norte-Sul",
    "operator": "Conorte;GRCT;Urbana PE",
    "public_transport": "station"
  }
},
{
  "type": "way",
  "id": 586980109,
  "nodes": [
    5607517049,
    5607517050,
    5607517051,
    5607517052,
    5607517049
  ],
  "tags": {
    "amenity": "bus_station",
    "building": "yes",
    "bus": "yes",
    "name": "Terminal de Onibus Três Carneiros",
    "public_transport": "station"
  }
},
{
  "type": "way",
  "id": 587876032,
  "nodes": [
    5615165234,
    5615165235,
    5615165236,
    5615165237,
    5615165234
  ],
  "tags": {
    "amenity": "bus_station",
    "building": "yes",
    "bus": "yes",
    "name": "Cruz de Rebouças",
    "public_transport": "station"
  }
},
{
  "type": "way",
  "id": 587939285,
  "nodes": [
    5615909875,
    5615909876,
    5615909877,
    5615909878,
    5615909875
  ],
  "tags": {
    "addr:city": "Vitoria de Santo Antão",
    "addr:street": "Avenida Henrique de Holanda",
    "addr:suburb": "cajá",
    "amenity": "bus_station",
    "building": "yes",
    "bus": "yes",
    "name": "Parada de Ônibus Intermunicipal",
    "public_transport": "station"
  }
},
{
  "type": "way",
  "id": 589849657,
  "nodes": [
    5632454700,
    5632454701,
    5632454702,
    5632454703,
    5632454704,
    5632454700
  ],
  "tags": {
    "amenity": "bus_station",
    "building": "yes",
    "bus": "yes",
    "name": "Terminal Ônibus Monte Verde",
    "public_transport": "station"
  }
},
{
  "type": "way",
  "id": 591643645,
  "nodes": [
    5648108476,
    5648108477,
    5648108478,
    7246393937,
    5648108479,
    5648108476
  ],
  "tags": {
    "amenity": "bus_station",
    "building": "yes",
    "bus": "yes",
    "public_transport": "station"
  }
},
{
  "type": "way",
  "id": 591693036,
  "nodes": [
    5648652585,
    5648652586,
    5648652750,
    5648652754,
    5648652587,
    5648652588,
    5648652755,
    5648652768,
    5648652585
  ],
  "tags": {
    "addr:city": "Recife",
    "addr:street": "Avenida Cruz Cabugá",
    "addr:suburb": "Santo Amaro",
    "amenity": "bus_station",
    "building": "yes",
    "bus": "yes",
    "highway": "footway",
    "name": "Tacaruna",
    "postal_code": "50040-000",
    "public_transport": "station"
  }
},
{
  "type": "way",
  "id": 591693053,
  "nodes": [
    5648652769,
    5648652770,
    5648652771,
    6533220932,
    5648652772,
    5648652769
  ],
  "tags": {
    "addr:city": "Recife",
    "addr:street": "Rua do Riachuelo",
    "addr:suburb": "Boa Vista",
    "amenity": "bus_station",
    "building": "yes",
    "bus": "yes",
    "highway": "footway",
    "name": "Riachuelo",
    "name:en": "Riachuelo Station",
    "network": "BRT Norte-Sul",
    "operator": "Conorte;GRCT;Urbana PE",
    "postal_code": "50050-400",
    "public_transport": "station"
  }
},
{
  "type": "way",
  "id": 593537120,
  "nodes": [
    5662175632,
    5662175633,
    5662175634,
    5662175635,
    5662175632
  ],
  "tags": {
    "amenity": "bus_station",
    "building": "yes",
    "bus": "yes",
    "highway": "footway",
    "name": "Matias de Albuquerque",
    "public_transport": "station"
  }
},
{
  "type": "way",
  "id": 593537121,
  "nodes": [
    8543989304,
    8543989303,
    8543989302,
    8543989301,
    8543989304
  ],
  "tags": {
    "amenity": "bus_station",
    "building": "yes",
    "bus": "yes",
    "lit": "yes",
    "name": "Sítio Histórico",
    "public_transport": "station",
    "shelter": "yes"
  }
},
{
  "type": "way",
  "id": 595268256,
  "nodes": [
    5673935470,
    5916501502,
    5916501501,
    5673935471,
    5673935472,
    5916501509,
    5673935473,
    5673935470
  ],
  "tags": {
    "addr:city": "Recife",
    "addr:street": "Avenida Caxangá",
    "addr:suburb": "Cordeiro",
    "amenity": "bus_station",
    "building": "yes",
    "bus": "yes",
    "highway": "bus_stop",
    "internet_access": "yes",
    "name": "Forte do Arraial",
    "name:en": "Forte do Arraial Station",
    "public_transport": "station"
  }
},
{
  "type": "way",
  "id": 595268257,
  "nodes": [
    5673935474,
    5916501514,
    5673935475,
    5673935476,
    5927998846,
    7097013461,
    5927998843,
    5673935477,
    5673935474
  ],
  "tags": {
    "amenity": "bus_station",
    "building": "yes",
    "bus": "yes",
    "highway": "bus_stop",
    "internet_access": "yes",
    "name": "Getúlio Vargas",
    "name:en": "Getúlio Vargas Station",
    "public_transport": "station"
  }
},
{
  "type": "way",
  "id": 595268258,
  "nodes": [
    5673935478,
    5916501536,
    5916501535,
    5673935479,
    5673935480,
    5916501543,
    5673935481,
    5673935478
  ],
  "tags": {
    "amenity": "bus_station",
    "building": "yes",
    "bus": "yes",
    "highway": "bus_stop",
    "internet_access": "yes",
    "name": "Zumbi",
    "name:en": "Zumbi Station",
    "public_transport": "station"
  }
},
{
  "type": "way",
  "id": 595268259,
  "nodes": [
    5673935482,
    5673935483,
    5673935484,
    5900476700,
    7567421216,
    5900476697,
    5673935485,
    5673935482
  ],
  "tags": {
    "amenity": "bus_station",
    "building": "yes",
    "bus": "yes",
    "highway": "bus_stop",
    "internet_access": "yes",
    "layer": "1",
    "name": "Abolição",
    "name:en": "Abolição Station",
    "operator": "Mobi-Pe;GRCT;Urbana PE",
    "public_transport": "station",
    "surface": "metal"
  }
},
{
  "type": "way",
  "id": 595271817,
  "nodes": [
    5673955838,
    5673955862,
    5673955854,
    5673955839,
    5673955840,
    5673955842,
    5673955853,
    5673955846,
    5673955841,
    5673955838
  ],
  "tags": {
    "amenity": "bus_station",
    "building": "yes",
    "bus": "yes",
    "highway": "footway",
    "name": "Praça da República",
    "name:en": "Praça da República Station",
    "public_transport": "station"
  }
},
{
  "type": "way",
  "id": 598629394,
  "nodes": [
    5697343652,
    5697343653,
    5697343654,
    5697343655,
    5697343656,
    5697343657,
    5697343658,
    5697343659,
    5697343660,
    5697343652
  ],
  "tags": {
    "building": "yes",
    "description": "Conjunto Ferroviário tombado pelo IPHAN",
    "name": "Paudalho",
    "public_transport": "station",
    "railway": "station",
    "train": "yes"
  }
},
{
  "type": "way",
  "id": 598629396,
  "nodes": [
    5697343666,
    5697343667,
    5697343668,
    5697343669,
    5697343666
  ],
  "tags": {
    "building": "yes",
    "name": "Carpina",
    "public_transport": "station",
    "railway": "station",
    "train": "yes"
  }
},
{
  "type": "way",
  "id": 598690937,
  "nodes": [
    5698208126,
    5698208127,
    5698208128,
    5698208129,
    5698208126
  ],
  "tags": {
    "building": "yes",
    "description": "Atualmente desativada, já desfigurado, virou um bar;",
    "name": "Lagoa do Carro",
    "public_transport": "station",
    "railway": "station",
    "train": "yes",
    "website": "http://www.estacoesferroviarias.com.br/efcp_pe/lagoa.htm"
  }
},
{
  "type": "way",
  "id": 605344385,
  "nodes": [
    5741772531,
    5741772530,
    5741772529,
    5741772585,
    5741772532,
    5741772531
  ],
  "tags": {
    "amenity": "bus_station",
    "building": "yes",
    "bus": "yes",
    "public_transport": "station"
  }
},
{
  "type": "way",
  "id": 606110783,
  "nodes": [
    5747480434,
    5747480435,
    5747480436,
    5747480437,
    5747480434
  ],
  "tags": {
    "alt_name": "Terminal dos Toyoteiros de Tiúma;Terminal Chapéu De Palha;Terminal Governador Miguel Arraes",
    "amenity": "bus_station",
    "building": "yes",
    "bus": "yes",
    "name": "Terminal de Tiúma",
    "public_transport": "station"
  }
},
{
  "type": "way",
  "id": 607435771,
  "nodes": [
    9016329815,
    9016523218,
    9016329816,
    9016523219,
    9016523220,
    9016523217,
    2317414889,
    2317414888,
    2317414887,
    9016329815
  ],
  "tags": {
    "amenity": "bus_station",
    "bus": "yes",
    "leisure": "park",
    "name": "Terminal Barrra de Jangada",
    "public_transport": "station"
  }
},
{
  "type": "way",
  "id": 609330654,
  "nodes": [
    5771736670,
    5771736678,
    5771736671,
    5771736672,
    5771736673,
    5771736674,
    5771736675,
    5771736676,
    5771736670
  ],
  "tags": {
    "amenity": "bus_station",
    "bus": "yes",
    "name": "Terminal de Sítio dos Pintos",
    "public_transport": "station",
    "ref": "100134"
  }
},
{
  "type": "way",
  "id": 609836838,
  "nodes": [
    5775977894,
    5775977895,
    5775977896,
    5775977897,
    5775977898,
    5775977899,
    5775977900,
    5775977901,
    5775977894
  ],
  "tags": {
    "amenity": "bus_station",
    "building": "yes",
    "bus": "yes",
    "name": "Terminal Rodoviário de Carpina",
    "public_transport": "station"
  }
},
{
  "type": "way",
  "id": 612439857,
  "nodes": [
    5797418486,
    5797418501,
    5797418487,
    5797418488,
    5797418485,
    5797418494,
    5797418489,
    5797418496,
    5797418499,
    5797418490,
    6511715459,
    6511715460,
    5797418491,
    6621484674,
    5797418492,
    5797418509,
    5797418502,
    5797418493,
    5797418500,
    5797418486
  ],
  "tags": {
    "amenity": "bus_station",
    "bus": "yes",
    "name": "T.I TIP",
    "official_name": "Terminal Integrado do Terminal Integrado de Passageiros",
    "public_transport": "station"
  }
},
{
  "type": "way",
  "id": 613872534,
  "nodes": [
    5807457194,
    5807457195,
    5807457196,
    5807457197,
    5807457198,
    5807457199,
    5807457200,
    5807457201,
    3883628845,
    5807457202,
    5807457203,
    5807457204,
    5807457205,
    5807457206,
    5807457207,
    6014047547,
    6014047546,
    5807457208,
    5807457209,
    5807457194
  ],
  "tags": {
    "building": "yes",
    "light_rail": "yes",
    "name": "Maceió",
    "public_transport": "station",
    "railway": "station",
    "station": "light_rail"
  }
},