{
  "version": 0.6,
  "generator": "Overpass API 0.7.62.8 e802775f",
  "osm3s": {
    "timestamp_osm_base": "2025-12-02T13:12:16Z",
    "copyright": "The data included in this document is from www.openstreetmap.org. The data is made available under ODbL."
  },
  "elements": [

{
  "type": "node",
  "id": 102582337,
  "lat": -19.8042021,
  "lon": -43.8791597,
  "tags": {
    "name": "Estação Capitão Eduardo",
    "public_transport": "station",
    "railway": "station",
    "train": "yes"
  }
},
{
  "type": "node",
  "id": 165688241,
  "lat": -22.9638248,
  "lon": -43.1813721,
  "tags": {
    "addr:city": "Rio de Janeiro",
    "addr:suburb": "Copacabana",
    "bench": "yes",
    "name": "Cardeal Arcoverde / Copacabana",
    "old_name": "Cardeal Arcoverde",
    "operator": "MetrôRio",
    "public_transport": "station",
    "railway": "station",
    "railway:ref": "CAV",
    "source": "survey;Wikipedia",
    "start_date": "1998-07-02",
    "station": "subway",
    "subway": "yes",
    "timetable": "real_time",
    "wikidata": "Q9184527",
    "wikimedia_commons": "Category:Estação Cardeal Arcoverde",
    "wikipedia": "pt:Estação Cardeal Arcoverde / Copacabana"
  }
},
{
  "type": "node",
  "id": 180337351,
  "lat": -22.9206456,
  "lon": -43.1767129,
  "tags": {
    "addr:city": "Rio de Janeiro",
    "addr:suburb": "Glória",
    "bench": "yes",
    "name": "Glória",
    "operator": "MetrôRio",
    "public_transport": "station",
    "railway": "station",
    "railway:ref": "GLR",
    "source": "survey;Wikipedia",
    "start_date": "1979",
    "station": "subway",
    "subway": "yes",
    "timetable": "real_time",
    "wikidata": "Q9268822",
    "wikimedia_commons": "Category:Estação Glória",
    "wikipedia": "pt:Estação Glória"
  }
},
{
  "type": "node",
  "id": 246126554,
  "lat": -22.9135438,
  "lon": -43.2065639,
  "tags": {
    "addr:city": "Rio de Janeiro",
    "addr:suburb": "Cidade Nova",
    "bench": "yes",
    "name": "Estácio",
    "note": "Placa quase no fim da plataforma central no pavimento inferior (linha 2), olhando para a direção da Pavuna. Bicicletário com 10 vagas. Placa de início de pilotagem automática na extremidade final da Via 2 Linha 1 (norte) da plataforma central.",
    "operator": "Metrô Rio",
    "platforms": "6",
    "public_transport": "station",
    "railway": "station",
    "railway:ref": "ESA",
    "start_date": "1981-11-19",
    "station": "subway",
    "subway": "yes",
    "timetable": "real_time",
    "wheelchair": "limited",
    "wikidata": "Q10275746",
    "wikimedia_commons": "Category:Estação Estácio",
    "wikipedia": "pt:Estação Estácio"
  }
},
{
  "type": "node",
  "id": 256761695,
  "lat": -19.7542215,
  "lon": -43.8794812,
  "tags": {
    "name": "Estação Carreira Comprida",
    "public_transport": "station",
    "railway": "station",
    "train": "yes"
  }
},
{
  "type": "node",
  "id": 279422118,
  "lat": -19.8239369,
  "lon": -40.3608881,
  "tags": {
    "name": "Aricanga",
    "public_transport": "stop_position",
    "railway": "station",
    "ref": "VAR",
    "train": "yes"
  }
},
{
  "type": "node",
  "id": 282383821,
  "lat": -20.7708259,
  "lon": -41.6742947,
  "tags": {
    "amenity": "bus_station",
    "bus": "yes",
    "name": "Rodoviária de Guaçuí",
    "public_transport": "station"
  }
},
{
  "type": "node",
  "id": 320609807,
  "lat": -22.9262941,
  "lon": -43.1196508,
  "tags": {
    "amenity": "bus_station",
    "name": "Jurujuba"
  }
},
{
  "type": "node",
  "id": 324654718,
  "lat": -19.9265744,
  "lon": -43.9384943,
  "tags": {
    "amenity": "bus_station",
    "bus": "yes",
    "name": "Conexão Aeroporto",
    "public_transport": "station"
  }
},
{
  "type": "node",
  "id": 331873876,
  "lat": -22.7871665,
  "lon": -43.3095520,
  "tags": {
    "addr:country": "BR",
    "name": "Duque de Caxias",
    "old_name": "Merity;Meriti;Caxias",
    "operator": "SuperVia",
    "public_transport": "station",
    "railway": "station",
    "railway:ref": "DCX",
    "start_date": "1886-04-23",
    "train": "yes"
  }
},
{
  "type": "node",
  "id": 331874228,
  "lat": -22.7516685,
  "lon": -43.3042170,
  "tags": {
    "addr:country": "BR",
    "name": "Gramacho",
    "old_name": "Sarapuí",
    "operator": "SuperVia",
    "public_transport": "station",
    "railway": "station",
    "railway:ref": "GRM",
    "start_date": "1888-11-01",
    "train": "yes",
    "wikidata": "Q10275833",
    "wikimedia_commons": "Category:Estação Gramacho",
    "wikipedia": "pt:Estação Gramacho"
  }
},
{
  "type": "node",
  "id": 331875799,
  "lat": -22.7040013,
  "lon": -43.2808277,
  "tags": {
    "addr:country": "BR",
    "name": "Campos Elíseos",
    "old_name": "Atura",
    "operator": "SuperVia",
    "public_transport": "station",
    "railway": "station",
    "railway:ref": "CEL",
    "start_date": "1913-03-01",
    "train": "yes"
  }
},
{
  "type": "node",
  "id": 331875825,
  "lat": -22.6902440,
  "lon": -43.2624394,
  "tags": {
    "addr:country": "BR",
    "name": "Jardim Primavera",
    "operator": "SuperVia",
    "public_transport": "station",
    "railway": "station",
    "railway:ref": "JPR",
    "train": "yes"
  }
},
{
  "type": "node",
  "id": 332517552,
  "lat": -22.9259549,
  "lon": -43.1765501,
  "tags": {
    "atm": "yes",
    "bench": "yes",
    "name": "Catete",
    "operator": "MetrôRio",
    "public_transport": "stop_position",
    "railway": "station",
    "railway:ref": "CTT",
    "source": "survey;Wikipedia",
    "start_date": "1981",
    "station": "subway",
    "subway": "yes",
    "timetable": "real_time",
    "wheelchair": "yes",
    "wikidata": "Q10275637",
    "wikimedia_commons": "Category:Estação Catete",
    "wikipedia": "pt:Estação Catete"
  }
},
{
  "type": "node",
  "id": 369114286,
  "lat": -20.3885974,
  "lon": -43.4266719,
  "tags": {
    "amenity": "bus_station"
  }
},
{
  "type": "node",
  "id": 374229653,
  "lat": -22.8448642,
  "lon": -43.2767138,
  "tags": {
    "funicular": "yes",
    "public_transport": "stop_position",
    "railway": "station",
    "station": "funicular",
    "wheelchair": "yes"
  }
},
{
  "type": "node",
  "id": 374229657,
  "lat": -22.8444455,
  "lon": -43.2753299,
  "tags": {
    "funicular": "yes",
    "public_transport": "stop_position",
    "railway": "station",
    "station": "funicular",
    "wheelchair": "yes"
  }
},
{
  "type": "node",
  "id": 410707865,
  "lat": -21.1147910,
  "lon": -44.1674914,
  "tags": {
    "name": "Tiradentes",
    "public_transport": "station",
    "railway": "station",
    "source": "GPS",
    "usage": "tourism"
  }
},
{
  "type": "node",
  "id": 438679064,
  "lat": -23.5583977,
  "lon": -46.5227261,
  "tags": {
    "amenity": "bus_station",
    "bus": "yes",
    "name": "Terminal Vila Carrao",
    "public_transport": "station",
    "trolleybus": "yes"
  }
},
{
  "type": "node",
  "id": 506848463,
  "lat": -22.9503653,
  "lon": -43.1842007,
  "tags": {
    "addr:city": "Rio de Janeiro",
    "addr:suburb": "Botafogo",
    "bench": "yes",
    "name": "Botafogo",
    "operator": "MetrôRio",
    "public_transport": "station",
    "railway": "station",
    "railway:ref": "BTF",
    "source": "survey;Wikipedia",
    "start_date": "1981",
    "station": "subway",
    "subway": "yes",
    "timetable": "real_time",
    "wheelchair": "yes",
    "wikidata": "Q9178158",
    "wikimedia_commons": "Category:Estação Botafogo",
    "wikipedia": "pt:Estação Botafogo"
  }
},
{
  "type": "node",
  "id": 534480804,
  "lat": -19.1425456,
  "lon": -40.6216897,
  "tags": {
    "addr:city": "São Domingos do Norte",
    "addr:postcode": "29745-000",
    "addr:street": "Rua João XXIII",
    "addr:suburb": "Centro",
    "amenity": "bus_station",
    "bus": "yes",
    "public_transport": "station"
  }
},
{
  "type": "node",
  "id": 598724372,
  "lat": -30.0428500,
  "lon": -51.1229701,
  "tags": {
    "amenity": "bus_station",
    "name": "Linha: 490 - Morro Santana"
  }
},
{
  "type": "node",
  "id": 602886959,
  "lat": -20.3323210,
  "lon": -40.3564899,
  "tags": {
    "name": "Estação Ferroviária Pedro Nolasco",
    "network": "EFVM",
    "operator": "Vale",
    "public_transport": "stop_position",
    "railway": "station",
    "ref": "VPN",
    "train": "yes",
    "wikidata": "Q43110281",
    "wikipedia": "pt:Estação Pedro Nolasco"
  }
},
{
  "type": "node",
  "id": 605663613,
  "lat": -23.5464956,
  "lon": -46.6911243,
  "tags": {
    "name": "Vila Madalena",
    "public_transport": "station",
    "railway": "station",
    "ref": "VMD",
    "station": "subway",
    "subway": "yes",
    "wikidata": "Q5244825",
    "wikimedia_commons": "Category:Vila Madalena (São Paulo Metro)",
    "wikipedia": "pt:Estação Vila Madalena"
  }
},
{
  "type": "node",
  "id": 637009519,
  "lat": -29.1736892,
  "lon": -51.5175753,
  "tags": {
    "addr:street": "Rua Duque de Caxias",
    "gauge": "1000",
    "name": "Bento Gonçalves",
    "operator": "Giordani Turismo",
    "operator:type": "private",
    "owner": "União Federal",
    "ownership": "national",
    "phone": "+55 54 3453-2790",
    "railway": "station",
    "ref": "NBE",
    "source:name": "survey",
    "start_date": "1910-08-10",
    "train": "yes"
  }
},
{
  "type": "node",
  "id": 637942941,
  "lat": -22.9053315,
  "lon": -43.1749640,
  "tags": {
    "advertising": "no",
    "amenity": "bus_station",
    "bench": "yes",
    "bin": "yes",
    "bus": "yes",
    "gtfs:stop_id": "1005O00076P0",
    "operator": "CODERTE",
    "public_transport": "station",
    "shelter": "no",
    "wheelchair": "yes"
  }
},
{
  "type": "node",
  "id": 656057672,
  "lat": -23.6595888,
  "lon": -46.7674601,
  "tags": {
    "amenity": "bus_station",
    "bus": "yes",
    "name": "Terminal Metropolitano de Capão Redondo",
    "opening_hours": "Mo-Su 10:00-22:00",
    "public_transport": "station"
  }
},
{
  "type": "node",
  "id": 687072757,
  "lat": -22.9023387,
  "lon": -43.2447413,
  "tags": {
    "IPP:FONTE": "http://www.supervia.com.br/",
    "IPP:RAMAL": "Deodoro, Santa Cruz e Japeri",
    "addr:city": "Rio de Janeiro",
    "addr:country": "BR",
    "addr:postcode": "20950-090",
    "addr:street": "Rua Vinte e Quatro de Maio",
    "name": "São Francisco Xavier",
    "note": "Local sem número",
    "opening_hours": "Mo-Fr 04:20-23:30; Sa 06:00-21:05; Su 06:00-21:50; PH 06:10-19:15",
    "operator": "SuperVia",
    "public_transport": "station",
    "railway": "station",
    "railway:ref": "SFX",
    "start_date": "1861",
    "train": "yes",
    "wikidata": "Q10276164",
    "wikimedia_commons": "Category:Estação São Francisco Xavier",
    "wikipedia": "pt:Estação São Francisco Xavier (SuperVia)"
  }
},
{
  "type": "node",
  "id": 701138150,
  "lat": -23.7782420,
  "lon": -46.3048838,
  "tags": {
    "amenity": "bus_station",
    "bench": "yes",
    "bus": "yes",
    "name": "Parada Final Paranapiacaba - Embarque",
    "operator": "EMTU",
    "public_transport": "station",
    "shelter": "yes"
  }
},
{
  "type": "node",
  "id": 710950049,
  "lat": -22.9207720,
  "lon": -43.2235819,
  "tags": {
    "addr:city": "Rio de Janeiro",
    "bench": "yes",
    "name": "São Francisco Xavier / Tijuca",
    "old_name": "Engenho Velho;São Francisco Xavier",
    "opening_hours": "Mo-Sa 05:00-24:00; Su 06:00-23:00",
    "operator": "MetrôRio",
    "public_transport": "station",
    "railway": "station",
    "railway:ref": "SFX",
    "start_date": "1982",
    "station": "subway",
    "subway": "yes",
    "timetable": "yes",
    "wikidata": "Q9352805",
    "wikimedia_commons": "Category:Estação São Francisco Xavier (Metrô Rio)",
    "wikipedia": "pt:Estação São Francisco Xavier / Tijuca"
  }
},
{
  "type": "node",
  "id": 710950083,
  "lat": -22.9184484,
  "lon": -43.2177451,
  "tags": {
    "addr:city": "Rio de Janeiro",
    "bench": "yes",
    "name": "Afonso Pena / Tijuca",
    "old_name": "Afonso Pena",
    "operator": "MetrôRio",
    "public_transport": "station",
    "railway": "station",
    "railway:ref": "AFP",
    "source": "confirmed - Metro Station Alfonso Pena",
    "start_date": "1982",
    "station": "subway",
    "subway": "yes",
    "timetable": "real_time",
    "wheelchair": "yes",
    "wikidata": "Q9141730",
    "wikimedia_commons": "Category:Estação Afonso Pena",
    "wikipedia": "pt:Estação Afonso Pena / Tijuca"
  }
},
{
  "type": "node",
  "id": 712848988,
  "lat": -22.8318735,
  "lon": -43.3429193,
  "tags": {
    "addr:city": "Rio de Janeiro",
    "bench": "yes",
    "name": "Coelho Neto",
    "operator": "MetrôRio",
    "public_transport": "station",
    "railway": "station",
    "railway:ref": "CNT",
    "source": "survey;Wikipedia",
    "start_date": "1998",
    "station": "subway",
    "subway": "yes",
    "timetable": "real_time",
    "wikidata": "Q9195276",
    "wikimedia_commons": "Category:Estação Coelho Neto",
    "wikipedia": "pt:Estação Coelho Neto"
  }
},
{
  "type": "node",
  "id": 712848989,
  "lat": -22.8249975,
  "lon": -43.3493019,
  "tags": {
    "addr:city": "Rio de Janeiro",
    "addr:suburb": "Acari",
    "bench": "yes",
    "name": "Acari / Fazenda Botafogo",
    "operator": "MetrôRio",
    "public_transport": "station",
    "railway": "station",
    "railway:ref": "AFB",
    "source": "survey;Wikipedia",
    "start_date": "1998",
    "station": "subway",
    "subway": "yes",
    "timetable": "real_time",
    "wikidata": "Q9138744",
    "wikimedia_commons": "Category:Estação Acari/Fazenda Botafogo",
    "wikipedia": "pt:Estação Acari/Fazenda Botafogo"
  }
},
{
  "type": "node",
  "id": 712848991,
  "lat": -22.8162957,
  "lon": -43.3584824,
  "tags": {
    "name": "Engenheiro Rubens Paiva",
    "network": "Linha 2 - Verde",
    "public_transport": "station",
    "railway": "station",
    "railway:ref": "ERP",
    "source": "survey;Wikipedia",
    "start_date": "1998",
    "station": "subway",
    "subway": "yes",
    "wikidata": "Q10275737",
    "wikimedia_commons": "Category:Estação Engenheiro Rubens Paiva",
    "wikipedia": "pt:Estação Engenheiro Rubens Paiva"
  }
},
{
  "type": "node",
  "id": 712848995,
  "lat": -22.8626005,
  "lon": -43.3067943,
  "tags": {
    "addr:city": "Rio de Janeiro",
    "addr:suburb": "Tomás Coelho",
    "bench": "yes",
    "name": "Thomáz Coelho",
    "operator": "MetrôRio",
    "public_transport": "station",
    "railway": "station",
    "railway:ref": "TCL",
    "source": "survey;Wikipedia",
    "start_date": "1996",
    "station": "subway",
    "subway": "yes",
    "timetable": "real_time",
    "wikidata": "Q10276187",
    "wikimedia_commons": "Category:Estação Thomaz Coelho",
    "wikipedia": "pt:Estação Thomaz Coelho"
  }
},
{
  "type": "node",
  "id": 712848997,
  "lat": -22.8540406,
  "lon": -43.3131537,
  "tags": {
    "addr:city": "Rio de Janeiro",
    "addr:suburb": "Vicente De Carvalho",
    "bench": "yes",
    "name": "Vicente de Carvalho",
    "operator": "MetrôRio",
    "public_transport": "station",
    "railway": "station",
    "railway:ref": "VCV",
    "source": "survey;Wikipedia",
    "start_date": "1996",
    "station": "subway",
    "subway": "yes",
    "timetable": "real_time",
    "wheelchair": "yes",
    "wikidata": "Q9368592",
    "wikimedia_commons": "Category:Estação Vicente de Carvalho",
    "wikipedia": "pt:Estação Vicente de Carvalho"
  }
},
{
  "type": "node",
  "id": 712848999,
  "lat": -22.8480227,
  "lon": -43.3232651,
  "tags": {
    "addr:city": "Rio de Janeiro",
    "addr:suburb": "Irajá",
    "bench": "yes",
    "name": "Irajá",
    "operator": "MetrôRio",
    "public_transport": "station",
    "railway": "station",
    "railway:ref": "IRJ",
    "source": "survey;Wikipedia",
    "start_date": "1998",
    "station": "subway",
    "subway": "yes",
    "timetable": "real_time",
    "wheelchair": "no",
    "wikidata": "Q10275877",
    "wikimedia_commons": "Category:Estação Irajá",
    "wikipedia": "pt:Estação Irajá"
  }
},
{
  "type": "node",
  "id": 712849000,
  "lat": -22.8426601,
  "lon": -43.3345459,
  "tags": {
    "addr:city": "Rio de Janeiro",
    "bench": "yes",
    "name": "Colégio",
    "operator": "MetrôRio",
    "public_transport": "station",
    "railway": "station",
    "railway:ref": "CLG",
    "source": "survey;Wikipedia",
    "start_date": "1998",
    "station": "subway",
    "subway": "yes",
    "timetable": "real_time",
    "wheelchair": "no",
    "wikidata": "Q9195534",
    "wikimedia_commons": "Category:Estação Colégio",
    "wikipedia": "pt:Estação Colégio"
  }
},
{
  "type": "node",
  "id": 712849002,
  "lat": -22.8814941,
  "lon": -43.2601882,
  "tags": {
    "addr:city": "Rio de Janeiro",
    "addr:suburb": "Maria da Graça",
    "bench": "yes",
    "name": "Maria da Graça",
    "note": "Placa no mezanino em frente ao bloqueio, na área paga.",
    "operator": "MetrôRio",
    "public_transport": "station",
    "railway": "station",
    "railway:ref": "MGR",
    "source": "survey;Wikipedia",
    "start_date": "1983-03-12",
    "station": "subway",
    "subway": "yes",
    "timetable": "real_time",
    "wheelchair": "yes",
    "wikidata": "Q11769259",
    "wikimedia_commons": "Category:Estação Maria da Graça",
    "wikipedia": "pt:Estação Maria da Graça (Metrô Rio)"
  }
},
{
  "type": "node",
  "id": 712849005,
  "lat": -22.8792762,
  "lon": -43.2719274,
  "tags": {
    "addr:city": "Rio de Janeiro",
    "addr:suburb": "Del Castilho",
    "bench": "yes",
    "name": "Del Castilho",
    "note": "Inauguração em Março de 1983; reabertura em 24 de dezembro de 1987. Placas na área livre em frente a bilheteria.",
    "operator": "MetrôRio",
    "public_transport": "station",
    "railway": "station",
    "railway:ref": "DCT",
    "source": "survey;Wikipedia",
    "start_date": "1987-12-24",
    "station": "subway",
    "subway": "yes",
    "timetable": "real_time",
    "wheelchair": "yes",
    "wikidata": "Q10276013",
    "wikimedia_commons": "Category:Estação Nova América/Del Castilho",
    "wikipedia": "pt:Estação Del Castilho (Metrô Rio)"
  }
},
{
  "type": "node",
  "id": 712849006,
  "lat": -22.8745685,
  "lon": -43.2834559,
  "tags": {
    "addr:city": "Rio de Janeiro",
    "bench": "yes",
    "name": "Inhaúma",
    "operator": "MetrôRio",
    "public_transport": "station",
    "railway": "station",
    "railway:ref": "INH",
    "source": "survey;Wikipedia",
    "start_date": "1983",
    "station": "subway",
    "subway": "yes",
    "timetable": "real_time",
    "wikidata": "Q10275870",
    "wikimedia_commons": "Category:Estação Inhaúma",
    "wikipedia": "pt:Estação Inhaúma"
  }
},
{
  "type": "node",
  "id": 712849008,
  "lat": -22.8679238,
  "lon": -43.2973765,
  "tags": {
    "addr:city": "Rio de Janeiro",
    "addr:suburb": "Engenho da Rainha",
    "bench": "yes",
    "name": "Engenho da Rainha",
    "operator": "MetrôRio",
    "public_transport": "station",
    "railway": "station",
    "railway:ref": "ERN",
    "source": "survey;Wikipedia",
    "start_date": "1991",
    "station": "subway",
    "subway": "yes",
    "timetable": "real_time",
    "wheelchair": "yes",
    "wikidata": "Q682256",
    "wikimedia_commons": "Category:Estação Engenho da Rainha",
    "wikipedia": "pt:Estação Engenho da Rainha"
  }
},
{
  "type": "node",
  "id": 712849010,
  "lat": -22.9097160,
  "lon": -43.2338900,
  "tags": {
    "addr:city": "Rio de Janeiro",
    "addr:suburb": "Maracanã",
    "bench": "yes",
    "name": "Maracanã",
    "operator": "MetrôRio",
    "public_transport": "station",
    "railway": "station",
    "railway:ref": "MRC",
    "source": "survey;Wikipedia",
    "start_date": "1981-11-19",
    "station": "subway",
    "subway": "yes",
    "timetable": "real_time",
    "wheelchair": "yes",
    "wikidata": "Q10275958",
    "wikimedia_commons": "Category:Estação Maracanã",
    "wikipedia": "pt:Estação Maracanã (Metrô Rio)"
  }
},
{
  "type": "node",
  "id": 712849012,
  "lat": -22.8967174,
  "lon": -43.2440972,
  "tags": {
    "addr:country": "BR",
    "name": "Triagem",
    "old_name": "Parada Silva e Souza",
    "operator": "SuperVia",
    "public_transport": "station",
    "railway": "station",
    "railway:ref": "TRI",
    "start_date": "1910-09-30",
    "train": "yes",
    "wikidata": "Q10276194",
    "wikimedia_commons": "Category:Estação Triagem",
    "wikipedia": "pt:Estação Triagem (SuperVia)"
  }
},
{
  "type": "node",
  "id": 712849014,
  "lat": -22.8968546,
  "lon": -43.2444785,
  "tags": {
    "addr:city": "Rio de Janeiro",
    "bench": "yes",
    "name": "Triagem",
    "note": "Bicicletário para 10 bicicletas; inaugurada em 1982 e reinaugurada em 30 de junho de 1988. Placa no mezanino logo a frente dos bloqueios, na área paga.",
    "operator": "Metrô Rio",
    "public_transport": "station",
    "railway": "station",
    "railway:ref": "TRG",
    "source": "survey;Wikipedia",
    "start_date": "1988-06-30",
    "station": "subway",
    "subway": "yes",
    "timetable": "real_time",
    "wikidata": "Q9361520",
    "wikimedia_commons": "Category:Estação Triagem (Metrô Rio)",
    "wikipedia": "pt:Estação Triagem (Metrô Rio)"
  }
},
{
  "type": "node",
  "id": 712849018,
  "lat": -22.9095441,
  "lon": -43.2228235,
  "tags": {
    "IPP:CARACTERIS": "Estação de transferência entre Ramais e de integração com o Metrô",
    "IPP:CODESTFERR": "52",
    "IPP:FONTE": "http://www.supervia.com.br/",
    "IPP:RAMAL": "Deodoro, Santa Cruz, Japeri, Belford Roxo, Gramach",
    "addr:city": "Rio de Janeiro",
    "addr:country": "BR",
    "addr:postcode": "20941-160",
    "addr:street": "Avenida Bartolomeu de Gusmão",
    "name": "São Cristóvão",
    "note": "Local sem número",
    "opening_hours": "Mo-Fr 05:00-23:35; Sa 05:00-21:10; Su 05:50-22:00; PH 05:50-20:00",
    "operator": "SuperVia",
    "public_transport": "station",
    "railway": "station",
    "railway:ref": "SCO",
    "source": "IPP",
    "start_date": "1858",
    "train": "yes",
    "wikidata": "Q9352803",
    "wikimedia_commons": "Category:Estação São Cristóvão",
    "wikipedia": "pt:Estação São Cristóvão (Rio de Janeiro)"
  }
},
{
  "type": "node",
  "id": 712849019,
  "lat": -22.9096934,
  "lon": -43.2209945,
  "tags": {
    "addr:city": "Rio de Janeiro",
    "addr:suburb": "São Cristóvão",
    "bench": "yes",
    "name": "São Cristóvão",
    "note": "Integração com Supervia; Placa no mezanino da saída principal, com acessos Supervia e Radial Oeste, antes do bloqueio (área paga)",
    "operator": "MetrôRio",
    "public_transport": "station",
    "railway": "station",
    "railway:ref": "SCR",
    "source": "survey;Wikipedia",
    "start_date": "1981-11-19",
    "station": "subway",
    "subway": "yes",
    "timetable": "real_time",
    "wikidata": "Q10276163",
    "wikimedia_commons": "Category:Estação São Cristóvão (Metrô Rio)",
    "wikipedia": "pt:Estação São Cristóvão (Rio de Janeiro)"
  }
},
{
  "type": "node",
  "id": 712849021,
  "lat": -22.9092963,
  "lon": -43.2332875,
  "tags": {
    "IPP:CODESTFERR": "28",
    "IPP:FONTE": "http://www.supervia.com.br/",
    "IPP:RAMAL": "Deodoro",
    "addr:city": "Rio de Janeiro",
    "addr:country": "BR",
    "addr:postcode": "20271-130",
    "addr:street": "Avenida Presidente Castelo Branco",
    "name": "Maracanã",
    "old_name": "Derby Club",
    "opening_hours": "Mo-Fr 04:25-23:35; Sa 05:55-21:05; Su 05:55-21:55; PH 05:50-19:30",
    "operator": "SuperVia",
    "public_transport": "station",
    "railway": "station",
    "railway:ref": "MNA",
    "source": "IPP",
    "start_date": "1885",
    "train": "yes",
    "wheelchair": "yes"
  }
},
{
  "type": "node",
  "id": 712849023,
  "lat": -22.9098928,
  "lon": -43.2129559,
  "tags": {
    "addr:city": "Rio de Janeiro",
    "addr:country": "BR",
    "addr:postcode": "20270-150",
    "addr:street": "Praça da Bandeira",
    "name": "Praça da Bandeira",
    "note": "Local sem número",
    "old_name": "Lauro Müller",
    "opening_hours": "Mo-Fr 04:15-23:35; Sa 05:50-21:10; Su 05:50-22:00; PH 05:50-19:30",
    "operator": "SuperVia",
    "public_transport": "station",
    "railway": "station",
    "railway:ref": "PBA",
    "source": "IPP",
    "start_date": "1907",
    "train": "yes",
    "wheelchair": "yes"
  }
},
{
  "type": "node",
  "id": 712849026,
  "lat": -22.9035467,
  "lon": -43.1914186,
  "tags": {
    "addr:city": "Rio de Janeiro",
    "addr:country": "BR",
    "addr:postcode": "20221-250",
    "addr:street": "Praça Cristiano Ottoni",
    "name": "Central do Brasil",
    "network": "SuperVia",
    "network:wikidata": "Q1125591",
    "note": "Local sem número",
    "opening_hours": "Mo-Fr 04:25-23:35; Sa 06:00-21:00; Su 06:00-21:50; PH 06:15-19:20",
    "operator": "SuperVia",
    "public_transport": "station",
    "railway": "station",
    "railway:ref": "CBL",
    "ref": "CBL",
    "train": "yes",
    "website": "https://www.supervia.com.br/",
    "wikidata": "Q1274003",
    "wikimedia_commons": "Category:Estação Central do Brasil",
    "wikipedia": "pt:Estação Central do Brasil"
  }
},
{
  "type": "node",
  "id": 712849029,
  "lat": -22.9099170,
  "lon": -43.2002830,
  "tags": {
    "addr:city": "Rio de Janeiro",
    "bench": "yes",
    "name": "Praça Onze",
    "old_name": "Cidade Nova",
    "opening_hours": "Mo-Sa 05:00-00:00; Su 07:00-23:00; PH 07:00-23:00",
    "operator": "Metrô Rio",
    "public_transport": "station",
    "railway": "station",
    "railway:ref": "POZ",
    "start_date": "19790305",
    "station": "subway",
    "subway": "yes",
    "timetable": "real_time",
    "wikidata": "Q10276064",
    "wikimedia_commons": "Category:Estação Praça Onze",
    "wikipedia": "pt:Estação Praça Onze"
  }
},
{
  "type": "node",
  "id": 712849053,
  "lat": -22.9075668,
  "lon": -43.1780446,
  "tags": {
    "addr:city": "Rio de Janeiro",
    "addr:suburb": "Centro",
    "bench": "yes",
    "name": "Carioca / Centro",
    "old_name": "Carioca",
    "operator": "MetrôRio",
    "public_transport": "station",
    "railway": "station",
    "railway:ref": "CRC",
    "source": "survey;Wikipedia",
    "start_date": "1981",
    "station": "subway",
    "subway": "yes",
    "timetable": "real_time",
    "wikidata": "Q9184548",
    "wikimedia_commons": "Category:Estação Carioca",
    "wikipedia": "pt:Estação Carioca / Centro"
  }
},
{
  "type": "node",
  "id": 712849086,
  "lat": -22.9311289,
  "lon": -43.1776913,
  "tags": {
    "addr:city": "Rio de Janeiro",
    "addr:suburb": "Catete",
    "bench": "yes",
    "name": "Largo do Machado",
    "operator": "MetrôRio",
    "public_transport": "station",
    "railway": "station",
    "railway:ref": "LMC",
    "source": "survey;Wikipedia",
    "start_date": "1981",
    "station": "subway",
    "subway": "yes",
    "timetable": "real_time",
    "wikidata": "Q10275929",
    "wikimedia_commons": "Category:Estação Largo do Machado",
    "wikipedia": "pt:Estação Largo do Machado"
  }
},
{
  "type": "node",
  "id": 712849094,
  "lat": -22.9109063,
  "lon": -43.1756533,
  "tags": {
    "addr:city": "Rio de Janeiro",
    "addr:suburb": "Centro",
    "bench": "yes",
    "name": "Cinelândia / Centro",
    "old_name": "Cinelândia",
    "operator": "MetrôRio",
    "public_transport": "station",
    "railway": "station",
    "railway:ref": "CNL",
    "source": "survey;Wikipedia",
    "start_date": "1979",
    "station": "subway",
    "subway": "yes",
    "timetable": "real_time",
    "wikidata": "Q10275652",
    "wikimedia_commons": "Category:Estação Cinelândia",
    "wikipedia": "pt:Estação Cinelândia / Centro"
  }
},
{
  "type": "node",
  "id": 712849124,
  "lat": -22.9754882,
  "lon": -43.1944571,
  "tags": {
    "addr:city": "Rio de Janeiro",
    "addr:suburb": "Copacabana",
    "bench": "yes",
    "name": "Cantagalo / Copacabana",
    "old_name": "Cantagalo",
    "operator": "MetrôRio",
    "public_transport": "station",
    "railway": "station",
    "railway:ref": "CTG",
    "source": "Wikipedia;survey",
    "start_date": "2007",
    "station": "subway",
    "subway": "yes",
    "timetable": "real_time",
    "wheelchair": "yes",
    "wikidata": "Q2028711",
    "wikimedia_commons": "Category:Estação Cantagalo",
    "wikipedia": "pt:Estação Cantagalo / Copacabana"
  }
},
{
  "type": "node",
  "id": 712849129,
  "lat": -22.9673066,
  "lon": -43.1873375,
  "tags": {
    "addr:city": "Rio de Janeiro",
    "addr:suburb": "Copacabana",
    "bench": "yes",
    "name": "Siqueira Campos / Copacabana",
    "old_name": "Siqueira Campos",
    "operator": "MetrôRio",
    "public_transport": "station",
    "railway": "station",
    "railway:ref": "SCP",
    "source": "survey;Wikipedia",
    "start_date": "2002",
    "station": "subway",
    "subway": "yes",
    "timetable": "real_time",
    "wikidata": "Q9337240",
    "wikimedia_commons": "Category:Estação Siqueira Campos",
    "wikipedia": "pt:Estação Siqueira Campos / Copacabana"
  }
},
{
  "type": "node",
  "id": 745762402,
  "lat": -22.9517537,
  "lon": -43.2106944,
  "tags": {
    "name": "Cristo Redentor",
    "name:de": "Christus der Erlöser",
    "name:en": "Christ the Redeemer",
    "name:ja": "コルコバードのキリスト像",
    "name:lt": "Kristaus Atpirkėjo statula",
    "name:pl": "Pomnik Chrystusa Odkupiciela w Rio de Janeiro",
    "old_name": "Christo Redemptor",
    "public_transport": "station",
    "railway": "station",
    "train": "yes",
    "wheelchair": "limited",
    "wikidata": "Q120648408",
    "wikimedia_commons": "Category:Cristo Redentor train station"
  }
},
{
  "type": "node",
  "id": 745762489,
  "lat": -22.9471286,
  "lon": -43.2174679,
  "tags": {
    "light_rail": "yes",
    "name": "Paineiras",
    "public_transport": "station",
    "railway": "station",
    "station": "light_rail",
    "wikidata": "Q120648407",
    "wikimedia_commons": "Category:Paineiras train station"
  }
},
{
  "type": "node",
  "id": 745762499,
  "lat": -22.9465718,
  "lon": -43.2028132,
  "tags": {
    "name": "Morro do Inglês",
    "public_transport": "station",
    "railway": "station",
    "wikidata": "Q120648406",
    "wikimedia_commons": "Category:Morro do Inglês train station"
  }
},
{
  "type": "node",
  "id": 806195930,
  "lat": -22.9793328,
  "lon": -43.2315703,
  "tags": {
    "amenity": "bus_station",
    "bench": "yes",
    "id:clearchannel": "01291007",
    "name": "Terminal Rodoviário da PUC",
    "tactile_paving": "no"
  }
},
{
  "type": "node",
  "id": 823908896,
  "lat": -22.8753636,
  "lon": -43.4656958,
  "tags": {
    "IPP:CODESTFERR": "3",
    "IPP:FONTE": "http://www.supervia.com.br/",
    "IPP:RAMAL": "Santa Cruz",
    "addr:city": "Rio de Janeiro",
    "addr:country": "BR",
    "addr:postcode": "21840-441",
    "addr:street": "Rua Coronel Tamarindo",
    "name": "Bangu",
    "note": "Local sem número",
    "opening_hours": "Mo-Fr 04:10-23:30; Sa 05:00-21:15; Su 05:30-21:15; PH 05:30-21:15",
    "operator": "SuperVia",
    "public_transport": "station",
    "railway": "station",
    "railway:ref": "BGU",
    "source": "IPP",
    "start_date": "1890-05-01",
    "train": "yes",
    "wikidata": "Q10275590",
    "wikimedia_commons": "Category:Estação Bangu",
    "wikipedia": "pt:Estação Bangu"
  }
},
{
  "type": "node",
  "id": 823908904,
  "lat": -22.9188724,
  "lon": -43.6493079,
  "tags": {
    "IPP:CODESTFERR": "55",
    "IPP:FONTE": "http://www.supervia.com.br/",
    "IPP:RAMAL": "Santa Cruz",
    "addr:city": "Rio de Janeiro",
    "addr:country": "BR",
    "addr:postcode": "23570-290",
    "addr:street": "Estrada da Ucrânia",
    "name": "Tancredo Neves",
    "note": "Local sem número",
    "opening_hours": "Mo-Fr 03:40-00:00; Sa 04:35-21:45; Su 05:05-21:45; PH 05:05-21:45",
    "operator": "SuperVia",
    "public_transport": "station",
    "railway": "station",
    "railway:ref": "TNS",
    "source": "IPP",
    "start_date": "1987-07-10",
    "train": "yes",
    "wikidata": "Q10276177",
    "wikimedia_commons": "Category:Estação Tancredo Neves",
    "wikipedia": "pt:Estação Tancredo Neves"
  }
},
{
  "type": "node",
  "id": 823908910,
  "lat": -22.9062859,
  "lon": -43.5810156,
  "tags": {
    "IPP:CODESTFERR": "5",
    "IPP:FONTE": "http://www.supervia.com.br/",
    "IPP:RAMAL": "Santa Cruz",
    "addr:city": "Rio de Janeiro",
    "addr:country": "BR",
    "addr:postcode": "23070-000",
    "addr:street": "Rua Campo Grande",
    "name": "Benjamim do Monte",
    "network": "SuperVia",
    "network:wikidata": "Q1125591",
    "note": "Local sem número",
    "opening_hours": "Mo-Fr 03:50-23:50; Sa 04:45-21:35; Su 05:15-21:35; PH 05:15-21:35",
    "operator": "SuperVia",
    "public_transport": "station",
    "railway": "station",
    "railway:ref": "BME",
    "source": "IPP",
    "start_date": "1971-12-10",
    "train": "yes",
    "wheelchair": "no",
    "wikidata": "Q10275599",
    "wikimedia_commons": "Category:Estação Benjamim do Monte",
    "wikipedia": "pt:Estação Benjamim do Monte"
  }
},
{
  "type": "node",
  "id": 823908912,
  "lat": -22.8885203,
  "lon": -43.3212246,
  "tags": {
    "IPP:CODESTFERR": "43",
    "IPP:FONTE": "http://www.supervia.com.br/",
    "IPP:RAMAL": "Deodoro",
    "addr:city": "Rio de Janeiro",
    "addr:country": "BR",
    "addr:street": "Rua Nerval de Gouveia",
    "name": "Quintino",
    "note": "Local sem número",
    "old_name": "Quintino Bocaiúva; Cupertino",
    "opening_hours": "Mo-Fr 04:20-23:25; Sa 05:25-21:05; Su 05:55-21:40; PH 05:55-19:15",
    "operator": "SuperVia",
    "public_transport": "station",
    "railway": "station",
    "railway:ref": "QTO",
    "source": "IPP",
    "start_date": "1876-05-01",
    "train": "yes"
  }
},
{
  "type": "node",
  "id": 823908922,
  "lat": -22.8217976,
  "lon": -43.3702580,
  "tags": {
    "IPP:CODESTFERR": "15",
    "IPP:FONTE": "http://www.supervia.com.br/",
    "IPP:RAMAL": "Belford Roxo",
    "addr:country": "BR",
    "name": "Costa Barros",
    "operator": "SuperVia",
    "public_transport": "station",
    "railway": "station",
    "railway:ref": "COB",
    "source": "IPP",
    "start_date": "1898-03-28",
    "train": "yes"
  }
},
{
  "type": "node",
  "id": 823908929,
  "lat": -22.8766775,
  "lon": -43.3376192,
  "tags": {
    "IPP:CODESTFERR": "24",
    "IPP:FONTE": "http://www.supervia.com.br/",
    "IPP:RAMAL": "Deodoro, Santa Cruz e Japeri",
    "addr:city": "Rio de Janeiro",
    "addr:country": "BR",
    "addr:postcode": "21351-021",
    "addr:street": "Rua Carolina Machado",
    "name": "Madureira",
    "network": "SuperVia",
    "network:wikidata": "Q1125591",
    "note": "Local sem número",
    "opening_hours": "Mo-Fr 04:40-23:20; Sa 05:30-20:45; Su 06:00-21:30; PH 06:00-19:05",
    "operator": "SuperVia",
    "public_transport": "station",
    "railway": "station",
    "railway:ref": "MRA",
    "source": "IPP",
    "start_date": "1890-06-15",
    "train": "yes",
    "wheelchair": "yes",
    "wikidata": "Q10275943",
    "wikimedia_commons": "Category:Estação Madureira",
    "wikipedia": "pt:Estação Madureira"
  }
},
{
  "type": "node",
  "id": 823908935,
  "lat": -22.8747603,
  "lon": -43.4294083,
  "tags": {
    "IPP:CODESTFERR": "45",
    "IPP:FONTE": "http://www.supervia.com.br/",
    "IPP:RAMAL": "Santa Cruz",
    "addr:city": "Rio de Janeiro",
    "addr:country": "BR",
    "addr:postcode": "21710-270",
    "addr:street": "Praça Campo de Marte",
    "name": "Realengo",
    "note": "Local sem número",
    "opening_hours": "Mo-Fr 04:15-23:20; Sa 05:10-21:10; Su 05:40-21:10; PH 05:40-21:10",
    "operator": "SuperVia",
    "public_transport": "station",
    "railway": "station",
    "railway:ref": "REA",
    "source": "IPP",
    "start_date": "1878-12-02",
    "train": "yes"
  }
},
{
  "type": "node",
  "id": 823908945,
  "lat": -22.9155501,
  "lon": -43.6840898,
  "tags": {
    "IPP:CODESTFERR": "50",
    "IPP:FONTE": "http://www.supervia.com.br/",
    "IPP:RAMAL": "Santa Cruz",
    "addr:city": "Rio de Janeiro",
    "addr:country": "BR",
    "addr:postcode": "23570-290",
    "addr:street": "Rua Dom João VI",
    "addr:suburb": "Santa Cruz",
    "name": "Santa Cruz",
    "note": "Local sem número",
    "opening_hours": "Mo-Fr 03:40-00:00; Sa 04:35-21:45; Su 05:05-21:45; PH 05:05-21:45",
    "operator": "SuperVia",
    "public_transport": "station",
    "railway": "station",
    "railway:ref": "SCZ",
    "source": "IPP",
    "start_date": "1878-12-02",
    "train": "yes",
    "wheelchair": "no",
    "wikidata": "Q10276131",
    "wikimedia_commons": "Category:Estação Santa Cruz",
    "wikipedia": "pt:Estação Santa Cruz (Rio de Janeiro)"
  }
},
{
  "type": "node",
  "id": 823908947,
  "lat": -22.8690481,
  "lon": -43.3052837,
  "tags": {
    "IPP:CODESTFERR": "56",
    "IPP:FONTE": "http://www.supervia.com.br/",
    "IPP:RAMAL": "Belford Roxo",
    "addr:country": "BR",
    "name": "Tomás Coelho",
    "old_name": "Thomas Coelho",
    "operator": "SuperVia",
    "public_transport": "station",
    "railway": "station",
    "railway:ref": "TOM",
    "source": "IPP",
    "start_date": "1908-02-15",
    "train": "yes"
  }
},
{
  "type": "node",
  "id": 823908954,
  "lat": -22.8841636,
  "lon": -43.2550613,
  "tags": {
    "IPP:CARACTERIS": "Estação de transferência entre Ramais e de integração com o Metrô",
    "IPP:CODESTFERR": "57",
    "IPP:FONTE": "http://www.supervia.com.br/",
    "IPP:RAMAL": "Belford Roxo, Gramacho",
    "addr:country": "BR",
    "name": "Jacarezinho",
    "old_name": "Vieira Fazenda",
    "operator": "SuperVia",
    "public_transport": "station",
    "railway": "station",
    "railway:ref": "JAR",
    "source": "IPP",
    "start_date": "1908-02-15",
    "train": "yes"
  }
},
{
  "type": "node",
  "id": 823908958,
  "lat": -22.8955950,
  "lon": -43.2936902,
  "tags": {
    "IPP:CODESTFERR": "18",
    "IPP:FONTE": "http://www.supervia.com.br/",
    "IPP:RAMAL": "Deodoro, Santa Cruz e Japeri",
    "addr:country": "BR",
    "name": "Olímpica de Engenho de Dentro",
    "old_name": "Engenho de Dentro",
    "operator": "SuperVia",
    "public_transport": "station",
    "railway": "station",
    "railway:ref": "EDO",
    "source": "IPP",
    "start_date": "1873",
    "train": "yes",
    "wikidata": "Q10276017",
    "wikimedia_commons": "Category:Estação Olímpica de Engenho de Dentro",
    "wikipedia": "pt:Estação Olímpica de Engenho de Dentro"
  }
},
{
  "type": "node",
  "id": 823908964,
  "lat": -22.8802009,
  "lon": -43.2703898,
  "tags": {
    "IPP:CODESTFERR": "16",
    "IPP:FONTE": "http://www.supervia.com.br/",
    "IPP:RAMAL": "Belford Roxo",
    "addr:country": "BR",
    "name": "Del Castilho",
    "operator": "SuperVia",
    "public_transport": "station",
    "railway": "station",
    "railway:ref": "DEL",
    "source": "IPP",
    "start_date": "1898-03-28",
    "train": "yes"
  }
},
{
  "type": "node",
  "id": 823908966,
  "lat": -22.8607745,
  "lon": -43.3712874,
  "tags": {
    "IPP:CODESTFERR": "29",
    "IPP:FONTE": "http://www.supervia.com.br/",
    "IPP:RAMAL": "Deodoro",
    "addr:city": "Rio de Janeiro",
    "addr:country": "BR",
    "addr:postcode": "21331-260",
    "addr:street": "Rua João Vicente",
    "name": "Marechal Hermes",
    "note": "Local sem número",
    "opening_hours": "Mo-Fr 04:40-23:25; Sa 06:00-20:55; Su 06:00-21:25; PH 06:00-19:05",
    "operator": "SuperVia",
    "public_transport": "station",
    "railway": "station",
    "railway:ref": "MHS",
    "source": "IPP",
    "start_date": "1913-05-01",
    "train": "yes"
  }
},
{
  "type": "node",
  "id": 823908970,
  "lat": -22.8403840,
  "lon": -43.2786260,
  "tags": {
    "IPP:CODESTFERR": "38",
    "IPP:FONTE": "http://www.supervia.com.br/",
    "IPP:RAMAL": "Gramacho",
    "addr:country": "BR",
    "name": "Penha",
    "operator": "SuperVia",
    "public_transport": "station",
    "railway": "station",
    "railway:ref": "PEN",
    "source": "IPP",
    "start_date": "1886-10-23",
    "train": "yes"
  }
},
{
  "type": "node",
  "id": 823908982,
  "lat": -22.8752578,
  "lon": -43.4566788,
  "tags": {
    "IPP:CODESTFERR": "20",
    "IPP:FONTE": "http://www.supervia.com.br/",
    "IPP:RAMAL": "Santa Cruz",
    "addr:city": "Rio de Janeiro",
    "addr:country": "BR",
    "addr:postcode": "21840-440",
    "addr:street": "Rua Coronel Tamarindo",
    "name": "Guilherme da Silveira",
    "note": "Local sem número",
    "opening_hours": "Mo-Fr 04:10-23:25; Sa 05:00-21:15; Su 05:35-21:15; PH 05:35-21:15",
    "operator": "SuperVIa",
    "public_transport": "station",
    "railway": "station",
    "railway:ref": "GSA",
    "source": "IPP",
    "train": "yes",
    "wikidata": "Q10275843",
    "wikimedia_commons": "Category:Estação Guilherme da Silveira",
    "wikipedia": "pt:Estação Guilherme da Silveira"
  }
},
{
  "type": "node",
  "id": 823908991,
  "lat": -22.8625336,
  "lon": -43.4020334,
  "tags": {
    "IPP:CODESTFERR": "59",
    "IPP:FONTE": "http://www.supervia.com.br/",
    "IPP:RAMAL": "Santa Cruz",
    "addr:city": "Rio de Janeiro",
    "addr:country": "BR",
    "addr:postcode": "21615-310",
    "addr:street": "Rua São Pedro de Alcântara",
    "name": "Vila Militar",
    "note": "Local sem número",
    "opening_hours": "Mo-Fr 04:20-23:15; Sa 05:15-21:05; Su 05:45-21:05; PH 05:45-21:05",
    "operator": "SuperVia",
    "railway": "station",
    "railway:ref": "VMR",
    "source": "IPP",
    "start_date": "1910-08-18",
    "wikidata": "Q10276219",
    "wikimedia_commons": "Category:Estação Vila Militar",
    "wikipedia": "pt:Estação Vila Militar"
  }
},
{
  "type": "node",
  "id": 823908996,
  "lat": -22.8732169,
  "lon": -43.3368660,
  "tags": {
    "IPP:CODESTFERR": "31",
    "IPP:FONTE": "http://www.supervia.com.br/",
    "IPP:RAMAL": "Belford Roxo",
    "addr:country": "BR",
    "name": "Mercadão de Madureira",
    "network": "SuperVia",
    "network:wikidata": "Q1125591",
    "old_name": "Inharajá; Magno",
    "operator": "SuperVia",
    "public_transport": "station",
    "railway": "station",
    "railway:ref": "MGO",
    "source": "IPP",
    "start_date": "1908-02-15",
    "train": "yes",
    "wikidata": "Q10275980",
    "wikimedia_commons": "Category:Estação Mercadão de Madureira",
    "wikipedia": "pt:Estação Mercadão de Madureira"
  }
},
{
  "type": "node",
  "id": 823908998,
  "lat": -22.8757923,
  "lon": -43.4861142,
  "tags": {
    "IPP:CODESTFERR": "54",
    "IPP:FONTE": "http://www.supervia.com.br/",
    "IPP:RAMAL": "Santa Cruz",
    "addr:city": "Rio de Janeiro",
    "addr:country": "BR",
    "addr:postcode": "21840-700",
    "addr:street": "Rua Coronel Tamarindo",
    "name": "Senador Camará",
    "note": "Local sem número",
    "opening_hours": "Mo-Fr 04:00-23:40; Sa 05:00-21:20; Su 05:30-21:20; PH 05:30-21:20",
    "operator": "SuperVia",
    "public_transport": "station",
    "railway": "station",
    "railway:ref": "SEN",
    "source": "IPP",
    "start_date": "1923-06-01",
    "train": "yes",
    "wikidata": "Q10276143",
    "wikimedia_commons": "Category:Estação Senador Camará",
    "wikipedia": "pt:Estação Senador Camará"
  }
},
{
  "type": "node",
  "id": 823909007,
  "lat": -22.8056064,
  "lon": -43.3670241,
  "tags": {
    "IPP:CARACTERIS": "Estação de integração com o Metrô",
    "IPP:CODESTFERR": "37",
    "IPP:FONTE": "http://www.supervia.com.br/",
    "IPP:RAMAL": "Belford Roxo",
    "addr:country": "BR",
    "alt_name": "Pavuna/S. J. Meriti",
    "name": "Pavuna/São João de Meriti",
    "operator": "SuperVia",
    "public_transport": "station",
    "railway": "station",
    "railway:ref": "PVA",
    "source": "IPP",
    "start_date": "1910-07-07",
    "train": "yes",
    "wikidata": "Q10276044",
    "wikimedia_commons": "Category:Estação Pavuna/São João de Meriti",
    "wikipedia": "pt:Estação Pavuna/São João de Meriti"
  }
},
{
  "type": "node",
  "id": 823909015,
  "lat": -22.8052642,
  "lon": -43.3054785,
  "tags": {
    "IPP:CODESTFERR": "58",
    "IPP:FONTE": "http://www.supervia.com.br/",
    "IPP:RAMAL": "Gramacho",
    "addr:country": "BR",
    "name": "Vigário Geral",
    "operator": "SuperVia",
    "public_transport": "station",
    "railway": "station",
    "railway:ref": "VGL",
    "source": "IPP",
    "start_date": "1886-23-10",
    "train": "yes"
  }
},
{
  "type": "node",
  "id": 823909024,
  "lat": -22.8691928,
  "lon": -43.3501396,
  "tags": {
    "IPP:CODESTFERR": "33",
    "IPP:FONTE": "http://www.supervia.com.br/",
    "IPP:RAMAL": "Deodoro",
    "addr:city": "Rio de Janeiro",
    "addr:country": "BR",
    "addr:postcode": "21340-021",
    "addr:street": "Rua João Vicente",
    "name": "Oswaldo Cruz",
    "note": "Local sem número",
    "old_name": "Rio das Pedras",
    "opening_hours": "Mo-Fr 04:25-23:30; Sa 05:10-21:10; Su 06:00-21:30; PH 06:00-19:05",
    "operator": "SuperVia",
    "public_transport": "station",
    "railway": "station",
    "railway:ref": "OCZ",
    "source": "IPP",
    "start_date": "1898-04-17",
    "train": "yes"
  }
},
{
  "type": "node",
  "id": 823909027,
  "lat": -22.8550913,
  "lon": -43.2600925,
  "tags": {
    "IPP:CODESTFERR": "44",
    "IPP:FONTE": "http://www.supervia.com.br/",
    "IPP:RAMAL": "Gramacho",
    "addr:country": "BR",
    "name": "Ramos",
    "operator": "SuperVia",
    "public_transport": "station",
    "railway": "station",
    "railway:ref": "RMS",
    "source": "IPP",
    "start_date": "1886-10-23",
    "train": "yes"
  }
},
{
  "type": "node",
  "id": 823909046,
  "lat": -22.8750904,
  "lon": -43.4476634,
  "tags": {
    "IPP:CODESTFERR": "35",
    "IPP:FONTE": "http://www.supervia.com.br/",
    "IPP:RAMAL": "Santa Cruz",
    "addr:city": "Rio de Janeiro",
    "addr:country": "BR",
    "addr:postcode": "21870-000",
    "addr:street": "Rua Coronel Tamarindo",
    "name": "Mocidade/Padre Miguel",
    "network": "SuperVia",
    "network:wikidata": "Q1125591",
    "note": "Local sem número",
    "old_name": "Padre Miguel",
    "opening_hours": "Mo-Fr 04:15-23:25; Sa 05:10-21:10; Su 05:35-21:10; PH 05:35-21:10",
    "operator": "SuperVia",
    "public_transport": "station",
    "railway": "station",
    "railway:ref": "PML",
    "source": "IPP",
    "start_date": "1940-04-06",
    "train": "yes",
    "wikidata": "Q10275988",
    "wikimedia_commons": "Category:Estação Mocidade Padre Miguel",
    "wikipedia": "pt:Estação Mocidade/Padre Miguel"
  }
},
{
  "type": "node",
  "id": 823909050,
  "lat": -22.9022661,
  "lon": -43.5600036,
  "tags": {
    "IPP:CODESTFERR": "9",
    "IPP:FONTE": "http://www.supervia.com.br/",
    "IPP:RAMAL": "Santa Cruz",
    "addr:city": "Rio de Janeiro",
    "addr:country": "BR",
    "addr:postcode": "23085-360",
    "addr:street": "Rua Campo Grande",
    "name": "Campo Grande",
    "not:network:wikidata": "Q1125591",
    "note": "Local sem número",
    "opening_hours": "Mo-Fr 03:50-23:50; Sa 04:50-20:00; Su 05:15-21:30; PH 05:15-21:30",
    "operator": "SuperVia",
    "public_transport": "station",
    "railway": "station",
    "railway:ref": "CGE",
    "source": "IPP",
    "start_date": "1878-12-02",
    "wheelchair": "no",
    "wikidata": "Q10275623",
    "wikimedia_commons": "Category:Estação Campo Grande",
    "wikipedia": "pt:Estação Campo Grande (Rio de Janeiro)"
  }
},
{
  "type": "node",
  "id": 823909054,
  "lat": -22.8496197,
  "lon": -43.3572618,
  "tags": {
    "IPP:CODESTFERR": "21",
    "IPP:FONTE": "http://www.supervia.com.br/",
    "IPP:RAMAL": "Belford Roxo",
    "addr:country": "BR",
    "name": "Honório Gurgel",
    "old_name": "Munguengue",
    "operator": "SuperVia",
    "public_transport": "station",
    "railway": "station",
    "railway:ref": "HON",
    "source": "IPP",
    "start_date": "1905-03-17",
    "train": "yes"
  }
},
{
  "type": "node",
  "id": 823909055,
  "lat": -22.8903992,
  "lon": -43.3096599,
  "tags": {
    "IPP:CODESTFERR": "40",
    "IPP:FONTE": "http://www.supervia.com.br/",
    "IPP:RAMAL": "Deodoro",
    "addr:city": "Rio de Janeiro",
    "addr:country": "BR",
    "addr:postcode": "20740-280",
    "addr:street": "Rua Manoel Vitorino",
    "name": "Piedade",
    "not:network:wikidata": "Q1125591",
    "note": "Local sem número",
    "old_name": "Gambá",
    "opening_hours": "Mo-Fr 04:20-23:20; Sa 05:30-21:05; Su 05:55-21:40; PH 05:55-19:15",
    "operator": "SuperVia",
    "public_transport": "station",
    "railway": "station",
    "railway:ref": "PIE",
    "source": "IPP",
    "start_date": "1873-04-11",
    "train": "yes",
    "wheelchair": "yes"
  }
},
{
  "type": "node",
  "id": 823909057,
  "lat": -22.8332113,
  "lon": -43.3665604,
  "tags": {
    "IPP:CODESTFERR": "4",
    "IPP:FONTE": "http://www.supervia.com.br/",
    "IPP:RAMAL": "Belford Roxo",
    "addr:country": "BR",
    "name": "Barros Filho",
    "operator": "SuperVia",
    "public_transport": "station",
    "railway": "station",
    "railway:ref": "BFO",
    "source": "IPP",
    "start_date": "1908",
    "train": "yes"
  }
},
{
  "type": "node",
  "id": 823909065,
  "lat": -22.8827346,
  "lon": -43.3280660,
  "tags": {
    "IPP:CODESTFERR": "10",
    "IPP:FONTE": "http://www.supervia.com.br/",
    "IPP:RAMAL": "Deodoro, Santa Cruz e Japeri",
    "addr:city": "Rio de Janeiro",
    "addr:country": "BR",
    "addr:postcode": "21380-000",
    "addr:street": "Avenida Suburbana",
    "name": "Cascadura",
    "note": "Local sem número",
    "opening_hours": "Mo-Fr 04:30-23:20; Sa 05:25-21:10; Su 06:00-21:30; PH 05:55-19:10",
    "operator": "SuperVia",
    "public_transport": "station",
    "railway": "station",
    "railway:ref": "CDA",
    "source": "IPP",
    "start_date": "1858-03-29",
    "train": "yes",
    "wheelchair": "yes",
    "wikidata": "Q10275635",
    "wikimedia_commons": "Category:Estação Cascadura",
    "wikipedia": "pt:Estação Cascadura"
  }
},
{
  "type": "node",
  "id": 823909071,
  "lat": -22.8680841,
  "lon": -43.4135750,
  "tags": {
    "IPP:CODESTFERR": "25",
    "IPP:FONTE": "http://www.supervia.com.br/",
    "IPP:RAMAL": "Santa Cruz",
    "addr:city": "Rio de Janeiro",
    "addr:country": "BR",
    "addr:postcode": "21615-311",
    "addr:street": "Rua São Pedro de Alcântara",
    "name": "Magalhães Bastos",
    "note": "Local sem número",
    "opening_hours": "Mo-Fr 04:20-23:20; Sa 05:15-21:05; Su 05:40-21:05; PH 05:40-21:05",
    "operator": "SuperVia",
    "public_transport": "station",
    "railway": "station",
    "railway:ref": "MGA",
    "source": "IPP",
    "start_date": "1914",
    "train": "yes"
  }
},
{
  "type": "node",
  "id": 823909073,
  "lat": -22.8745414,
  "lon": -43.3157493,
  "tags": {
    "IPP:CODESTFERR": "11",
    "IPP:FONTE": "http://www.supervia.com.br/",
    "IPP:RAMAL": "Belford Roxo",
    "addr:country": "BR",
    "name": "Cavalcanti",
    "network": "SuperVia",
    "network:wikidata": "Q1125591",
    "old_name": "Cavalcanti",
    "operator": "SuperVia",
    "public_transport": "station",
    "railway": "station",
    "railway:ref": "CAV",
    "source": "IPP",
    "start_date": "1908-02-15",
    "train": "yes",
    "wikidata": "Q10275636",
    "wikimedia_commons": "Category:Estação Cavalcanti",
    "wikipedia": "pt:Estação Cavalcanti"
  }
},
{
  "type": "node",
  "id": 823909074,
  "lat": -22.9127658,
  "lon": -43.6144485,
  "tags": {
    "IPP:CODESTFERR": "14",
    "IPP:FONTE": "http://www.supervia.com.br/",
    "IPP:RAMAL": "Santa Cruz",
    "addr:city": "Rio de Janeiro",
    "addr:country": "BR",
    "addr:postcode": "23060-660",
    "addr:street": "Rua Guarujá",
    "name": "Cosmos",
    "note": "Local sem número",
    "opening_hours": "Mo-Fr 03:45-23:50; Sa 04:40-21:40; Su 05:10-21:40; PH 05:10-21:40",
    "operator": "SuperVia",
    "public_transport": "station",
    "railway": "station",
    "railway:ref": "COS",
    "source": "IPP",
    "start_date": "1928-07-01",
    "train": "yes",
    "wikidata": "Q10275672",
    "wikimedia_commons": "Category:Estação Cosmos",
    "wikipedia": "pt:Estação Cosmos"
  }
},
{
  "type": "node",
  "id": 823909075,
  "lat": -22.9017297,
  "lon": -43.2780340,
  "tags": {
    "IPP:CODESTFERR": "30",
    "IPP:FONTE": "http://www.supervia.com.br/",
    "IPP:RAMAL": "Deodoro",
    "addr:city": "Rio de Janeiro",
    "addr:country": "BR",
    "addr:postcode": "20770-001",
    "addr:street": "Rua Arquias Cordeiro",
    "name": "Méier",
    "note": "Local sem número",
    "opening_hours": "Mo-Fr 04:30-23:20; Sa 06:00-20:55; Su 06:40-21:45; PH 06:20-18:50",
    "operator": "SuperVia",
    "public_transport": "station",
    "railway": "station",
    "railway:ref": "MER",
    "source": "IPP",
    "start_date": "1889",
    "train": "yes",
    "wikidata": "Q10276000",
    "wikimedia_commons": "Category:Estação Méier",
    "wikipedia": "pt:Estação Méier"
  }
},
{
  "type": "node",
  "id": 823909078,
  "lat": -22.8403788,
  "lon": -43.3984286,
  "tags": {
    "IPP:CODESTFERR": "47",
    "IPP:FONTE": "http://www.supervia.com.br/",
    "IPP:RAMAL": "Japeri",
    "addr:city": "Rio de Janeiro",
    "addr:country": "BR",
    "addr:postcode": "21640-010",
    "addr:street": "Avenida Nazaré",
    "name": "Ricardo de Albuquerque",
    "note": "Local sem número",
    "opening_hours": "Mo-Fr 04:00-23:40; Sa 05:00-21:00; Su 06:00-21:25; PH 06:20-19:00",
    "operator": "SuperVia",
    "public_transport": "station",
    "railway": "station",
    "railway:ref": "RIC",
    "source": "IPP",
    "start_date": "1913-07-01",
    "train": "yes",
    "wikidata": "Q10276095",
    "wikimedia_commons": "Category:Estação Ricardo de Albuquerque",
    "wikipedia": "pt:Estação Ricardo de Albuquerque"
  }
},
{
  "type": "node",
  "id": 823909080,
  "lat": -22.8809790,
  "lon": -43.2915738,
  "tags": {
    "IPP:CODESTFERR": "41",
    "IPP:FONTE": "http://www.supervia.com.br/",
    "IPP:RAMAL": "Belford Roxo",
    "addr:country": "BR",
    "name": "Pilares",
    "old_name": "Cintra Vidal",
    "operator": "SuperVia",
    "public_transport": "station",
    "railway": "station",
    "railway:ref": "PLA",
    "source": "IPP",
    "start_date": "1898-03-25",
    "train": "yes"
  }
},
{
  "type": "node",
  "id": 823909083,
  "lat": -22.9019779,
  "lon": -43.2620752,
  "tags": {
    "IPP:CODESTFERR": "49",
    "IPP:FONTE": "http://www.supervia.com.br/",
    "IPP:RAMAL": "Deodoro",
    "addr:country": "BR",
    "addr:postcode": "20725-000",
    "addr:street": "Rua Vinte e Quatro de Maio",
    "name": "Sampaio",
    "note": "Local sem número",
    "opening_hours": "Mo-Fr 04:25-23:35; Sa 06:00-21:00; Su 06:00-21:50; PH 06:15-19:20",
    "operator": "SuperVia",
    "public_transport": "station",
    "railway": "station",
    "railway:ref": "SPO",
    "source": "IPP",
    "start_date": "1885",
    "train": "yes",
    "wikidata": "Q10276123",
    "wikimedia_commons": "Category:Estação Sampaio",
    "wikipedia": "pt:Estação Sampaio"
  }
},
{
  "type": "node",
  "id": 823909087,
  "lat": -22.8240151,
  "lon": -43.2959248,
  "tags": {
    "IPP:CODESTFERR": "13",
    "IPP:FONTE": "http://www.supervia.com.br/",
    "IPP:RAMAL": "Gramacho",
    "addr:country": "BR",
    "name": "Cordovil",
    "operator": "SuperVia",
    "public_transport": "station",
    "railway": "station",
    "railway:ref": "COR",
    "source": "IPP",
    "start_date": "1886-10-23",
    "train": "yes"
  }
},
{
  "type": "node",
  "id": 823909091,
  "lat": -22.9014724,
  "lon": -43.2555117,
  "tags": {
    "IPP:CODESTFERR": "46",
    "IPP:FONTE": "http://www.supervia.com.br/",
    "IPP:RAMAL": "Deodoro",
    "addr:city": "Rio de Janeiro",
    "addr:country": "BR",
    "addr:postcode": "20960-002",
    "addr:street": "Rua Ana Neri",
    "name": "Riachuelo",
    "network": "SuperVia",
    "network:wikidata": "Q1125591",
    "note": "Local sem número",
    "old_name": "Riachuelo do Rio",
    "opening_hours": "Mo-Fr 04:25-23:35; Sa 06:00-21:00; Su 06:00-21:50; PH 06:15-19:20",
    "operator": "SuperVia",
    "public_transport": "station",
    "railway": "station",
    "railway:ref": "RCO",
    "source": "IPP",
    "start_date": "1869",
    "train": "yes",
    "wikidata": "Q10276092",
    "wikimedia_commons": "Category:Estação Riachuelo",
    "wikipedia": "pt:Estação Riachuelo"
  }
},
{
  "type": "node",
  "id": 823909092,
  "lat": -22.8546618,
  "lon": -43.3517885,
  "tags": {
    "IPP:CODESTFERR": "48",
    "IPP:FONTE": "http://www.supervia.com.br/",
    "IPP:RAMAL": "Belford Roxo",
    "addr:country": "BR",
    "name": "Rocha Miranda",
    "old_name": "Sapé",
    "operator": "SuperVia",
    "public_transport": "station",
    "railway": "station",
    "railway:ref": "RMA",
    "source": "IPP",
    "start_date": "1911",
    "train": "yes",
    "wheelchair": "no"
  }
},
{
  "type": "node",
  "id": 823909093,
  "lat": -22.9162516,
  "lon": -43.6324651,
  "tags": {
    "IPP:CODESTFERR": "34",
    "IPP:FONTE": "http://www.supervia.com.br/",
    "IPP:RAMAL": "Santa Cruz",
    "addr:city": "Rio de Janeiro",
    "addr:country": "BR",
    "addr:postcode": "23580-240",
    "addr:street": "Estrada Urucânia",
    "name": "Paciência",
    "note": "Local sem número",
    "opening_hours": "Mo-Fr 03:45-23:55; Sa 04:35-21:40; Su 05:05-21:40; PH 05:05-21:40",
    "operator": "SuperVia",
    "public_transport": "station",
    "railway": "station",
    "railway:ref": "PAC",
    "source": "IPP",
    "start_date": "1897-06-01",
    "train": "yes",
    "wheelchair": "no",
    "wikidata": "Q10276025",
    "wikimedia_commons": "Category:Estação Paciência",
    "wikipedia": "pt:Estação Paciência"
  }
},
{
  "type": "node",
  "id": 823909094,
  "lat": -22.8166618,
  "lon": -43.3007438,
  "tags": {
    "IPP:CODESTFERR": "36",
    "IPP:FONTE": "http://www.supervia.com.br/",
    "IPP:RAMAL": "Gramacho",
    "addr:country": "BR",
    "name": "Parada de Lucas",
    "operator": "SuperVia",
    "public_transport": "station",
    "railway": "station",
    "railway:ref": "LUC",
    "source": "IPP",
    "train": "yes",
    "wikidata": "Q10276038",
    "wikimedia_commons": "Category:Estação Parada de Lucas",
    "wikipedia": "pt:Estação Parada de Lucas"
  }
},
{
  "type": "node",
  "id": 823909099,
  "lat": -22.8550694,
  "lon": -43.3835251,
  "tags": {
    "IPP:CARACTERIS": "Estação de transferência entre Ramais (Santa Cruz e Paracambi)",
    "IPP:CODESTFERR": "17",
    "IPP:FONTE": "http://www.supervia.com.br/",
    "IPP:RAMAL": "Deodoro, Santa Cruz e Japeri",
    "addr:city": "Rio de Janeiro",
    "addr:country": "BR",
    "addr:postcode": "21615-220",
    "addr:street": "Avenida Duque de Caxias",
    "name": "Deodoro",
    "note": "Local sem número",
    "old_name": "Sapopemba",
    "operator": "SuperVia",
    "public_transport": "station",
    "railway": "station",
    "railway:ref": "DDO",
    "source": "IPP",
    "start_date": "1859-03-08",
    "train": "yes",
    "wikidata": "Q10275687",
    "wikimedia_commons": "Category:Estação Deodoro",
    "wikipedia": "pt:Estação Deodoro"
  }
},
{
  "type": "node",
  "id": 823909101,
  "lat": -22.8366343,
  "lon": -43.2850429,
  "tags": {
    "IPP:CODESTFERR": "39",
    "IPP:FONTE": "http://www.supervia.com.br/",
    "IPP:RAMAL": "Gramacho",
    "addr:country": "BR",
    "name": "Penha Circular",
    "operator": "SuperVia",
    "public_transport": "station",
    "railway": "station",
    "railway:ref": "PCR",
    "source": "IPP",
    "train": "yes"
  }
},
{
  "type": "node",
  "id": 823909107,
  "lat": -22.8796485,
  "lon": -43.5113977,
  "tags": {
    "IPP:CODESTFERR": "51",
    "IPP:FONTE": "http://www.supervia.com.br/",
    "IPP:RAMAL": "Santa Cruz",
    "addr:city": "Rio de Janeiro",
    "addr:country": "BR",
    "addr:postcode": "23094-010",
    "addr:street": "Rua Anes Dias",
    "name": "Santíssimo",
    "note": "Local sem número",
    "opening_hours": "Mo-Fr 04:00-23:40; Sa 04:55-21:20; Su 05:20-21:20; PH 05:20-21:20",
    "operator": "SuperVia",
    "public_transport": "station",
    "railway": "station",
    "railway:ref": "STO",
    "source": "IPP",
    "start_date": "1890",
    "train": "yes",
    "wikidata": "Q10276134",
    "wikimedia_commons": "Category:Estação Santíssimo",
    "wikipedia": "pt:Estação Santíssimo"
  }
},
{
  "type": "node",
  "id": 823909108,
  "lat": -22.9090062,
  "lon": -43.5950918,
  "tags": {
    "IPP:CODESTFERR": "22",
    "IPP:FONTE": "http://www.supervia.com.br/",
    "IPP:RAMAL": "Santa Cruz",
    "addr:city": "Rio de Janeiro",
    "addr:country": "BR",
    "addr:postcode": "23063-000",
    "addr:street": "Rua Campo Grande",
    "name": "Inhoaíba",
    "note": "Local sem número",
    "opening_hours": "Mo-Fr 03:45-23:45; Sa 04:40-21:35; Su 05:10-21:35; PH 05:10-21:35",
    "operator": "SuperVia",
    "public_transport": "station",
    "railway": "station",
    "railway:ref": "IBA",
    "source": "IPP",
    "start_date": "1912-09-01",
    "train": "yes",
    "wheelchair": "no",
    "wikidata": "Q10275872",
    "wikimedia_commons": "Category:Estação Inhoaíba",
    "wikipedia": "pt:Estação Inhoaíba"
  }
},
{
  "type": "node",
  "id": 823909110,
  "lat": -22.8244039,
  "lon": -43.4032236,
  "tags": {
    "IPP:CODESTFERR": "1",
    "IPP:FONTE": "http://www.supervia.com.br/",
    "IPP:RAMAL": "Japeri",
    "addr:city": "Rio de Janeiro",
    "addr:country": "BR",
    "addr:postcode": "21645-010",
    "addr:street": "Avenida Nazaré",
    "name": "Anchieta",
    "note": "Local sem número",
    "opening_hours": "Mo-Fr 04:00-23:40; Sa 05:00-21:00; Su 06:00-21:25; PH 06:20-19:00",
    "operator": "SuperVia",
    "public_transport": "station",
    "railway": "station",
    "railway:ref": "ACT",
    "source": "IPP",
    "start_date": "1896-10-01",
    "train": "yes"
  }
},
{
  "type": "node",
  "id": 823909111,
  "lat": -22.8930412,
  "lon": -43.5373957,
  "tags": {
    "IPP:CODESTFERR": "2",
    "IPP:FONTE": "http://www.supervia.com.br/",
    "IPP:RAMAL": "Santa Cruz",
    "addr:city": "Rio de Janeiro",
    "addr:country": "BR",
    "addr:postcode": "23013-440",
    "addr:street": "Rua Tenente Agenor Brito",
    "name": "Augusto Vasconcelos",
    "note": "Local sem número",
    "opening_hours": "Mo-Fr 04:00-23:45; Sa 04:50-21:30; Su 05:20-21:25; PH 05:20-21:25",
    "operator": "SuperVia",
    "public_transport": "station",
    "railway": "station",
    "railway:ref": "AVS",
    "source": "IPP",
    "start_date": "1914-11-07",
    "train": "yes",
    "wheelchair": "no",
    "wikidata": "Q10275583",
    "wikimedia_commons": "Category:Estação Augusto Vasconcelos",
    "wikipedia": "pt:Estação Augusto Vasconcelos"
  }
},
{
  "type": "node",
  "id": 823909117,
  "lat": -22.8303878,
  "lon": -43.2930029,
  "tags": {
    "IPP:CODESTFERR": "8",
    "IPP:FONTE": "http://www.supervia.com.br/",
    "IPP:RAMAL": "Gramacho",
    "addr:country": "BR",
    "name": "Brás de Pina",
    "operator": "SuperVia",
    "public_transport": "station",
    "railway": "station",
    "railway:ref": "BPA",
    "source": "IPP",
    "start_date": "1886-10-23",
    "train": "yes"
  }
},
{
  "type": "node",
  "id": 823909118,
  "lat": -22.8643462,
  "lon": -43.3616461,
  "tags": {
    "addr:city": "Rio de Janeiro",
    "addr:country": "BR",
    "addr:postcode": "21555-290",
    "addr:street": "Rua Carolina Machado",
    "name": "Prefeito Bento Ribeiro",
    "network": "SuperVia",
    "network:wikidata": "Q1125591",
    "opening_hours": "Mo-Fr 04:40-23:25; Sa 06:00-20:55; Su 06:00-20:50; PH 06:00-19:05",
    "operator": "SuperVia",
    "public_transport": "station",
    "railway": "station",
    "railway:ref": "BRO",
    "source": "IPP",
    "start_date": "1914-11-07",
    "train": "yes",
    "wikidata": "Q10276065",
    "wikimedia_commons": "Category:Estação Prefeito Bento Ribeiro",
    "wikipedia": "pt:Estação Prefeito Bento Ribeiro"
  }
},
{
  "type": "node",
  "id": 823909122,
  "lat": -22.8471867,
  "lon": -43.2663633,
  "tags": {
    "IPP:CODESTFERR": "32",
    "IPP:FONTE": "http://www.supervia.com.br/",
    "IPP:RAMAL": "Gramacho",
    "addr:country": "BR",
    "name": "Olaria",
    "old_name": "Pedro Ernesto",
    "operator": "SuperVia",
    "public_transport": "station",
    "railway": "station",
    "railway:ref": "OLA",
    "source": "IPP",
    "start_date": "1886-10-23",
    "train": "yes"
  }
},
{
  "type": "node",
  "id": 848166930,
  "lat": -25.0818486,
  "lon": -50.1860057,
  "tags": {
    "amenity": "bus_station",
    "bus": "yes",
    "name": "Terminal Nova Russia",
    "operator": "Terminal Nova Russia",
    "public_transport": "station"
  }
},
{
  "type": "node",
  "id": 879094348,
  "lat": -22.8813919,
  "lon": -43.0840694,
  "tags": {
    "amenity": "bus_station",
    "name": "Riodades A"
  }
},
{
  "type": "node",
  "id": 879094350,
  "lat": -22.8807017,
  "lon": -43.1042962,
  "tags": {
    "amenity": "bus_station",
    "bench": "yes",
    "bus": "yes",
    "highway": "bus_stop",
    "name": "Nossa Senhora dos Mercês;Nossa Senhora das Mercês A",
    "public_transport": "platform",
    "shelter": "yes"
  }
},
{
  "type": "node",
  "id": 879094358,
  "lat": -22.8810295,
  "lon": -43.0944244,
  "tags": {
    "amenity": "bus_station",
    "name": "Bairro Chic A"
  }
},
{
  "type": "node",
  "id": 879094402,
  "lat": -22.8204047,
  "lon": -43.0011316,
  "tags": {
    "amenity": "bus_station",
    "bus": "yes",
    "name": "Alcântara",
    "public_transport": "station"
  }
},
{
  "type": "node",
  "id": 911548688,
  "lat": -19.8973250,
  "lon": -43.9612689,
  "tags": {
    "amenity": "bus_station",
    "bus": "yes",
    "name": "Ponto Final 9404",
    "public_transport": "station"
  }
},
{
  "type": "node",
  "id": 920775835,
  "lat": -22.4658279,
  "lon": -42.6543678,
  "tags": {
    "amenity": "bus_station",
    "bus": "yes",
    "name": "Rodoviária de Cachoeiras de Macacu",
    "name:en": "Cachoeiras de Macacu bus station",
    "public_transport": "station",
    "wikimedia_commons": "File:Rodoviaria de Cachoera de macacu - Vista Traseira - panoramio.jpg"
  }
},
{
  "type": "node",
  "id": 920776245,
  "lat": -22.3082429,
  "lon": -42.5219257,
  "tags": {
    "amenity": "bus_station",
    "name": "Terminal Rodoviário Sul"
  }
},
{
  "type": "node",
  "id": 931737276,
  "lat": -31.2892169,
  "lon": -51.0922735,
  "tags": {
    "DER:RS:categoria_rodoviaria": "quarta",
    "DER:RS:zona_de_fiscalizacao": "16",
    "addr:housenumber": "114",
    "addr:postcode": "96290-000",
    "addr:street": "Rua Edgardo Pereira Velho",
    "addr:suburb": "Centro",
    "amenity": "bus_station",
    "bus": "yes",
    "contact:email": "rodoviariatavares@gmail.com/rosane208@hotmail.com",
    "contact:phone": "+55 51 3674-1175;+55 51 3674-1291",
    "name": "Rodoviária de Tavares",
    "network": "BR:RS",
    "official_name": "Tavares",
    "operator": "Olegario da Silva Costa & Cia Ltda",
    "public_transport": "station",
    "ref": "175",
    "ref:vatin": "BR93094415000152"
  }
},
{
  "type": "node",
  "id": 966827284,
  "lat": -27.9494222,
  "lon": -51.8132017,
  "tags": {
    "DER:RS:categoria_rodoviaria": "terceira",
    "DER:RS:zona_de_fiscalizacao": "13",
    "addr:housenumber": "152",
    "addr:postcode": "95380-000",
    "addr:street": "Rua 14 de Julho",
    "addr:suburb": "Centro",
    "amenity": "bus_station",
    "bus": "yes",
    "contact:email": "rodoviariasananduva@gmail.com",
    "contact:phone": "+55 54 3343-2588;+55 54 3343-1320",
    "name": "Estação Rodoviária de Sananduva",
    "network": "BR:RS",
    "official_name": "Sananduva",
    "operator": "João Agostinho Ribeiro",
    "public_transport": "station",
    "ref": "143",
    "ref:vatin": "BR95325486/0001-4"
  }
},
{
  "type": "node",
  "id": 966830294,
  "lat": -28.2115403,
  "lon": -51.5234508,
  "tags": {
    "DER:RS:categoria_rodoviaria": "terceira",
    "DER:RS:zona_de_fiscalizacao": "06",
    "addr:housenumber": "2098",
    "addr:postcode": "95300-000",
    "addr:street": "Avenida Benjamin Constant",
    "addr:suburb": "Centro",
    "amenity": "bus_station",
    "contact:email": "rodolagoa@hotmail.com",
    "contact:phone": "+55 54 3358-1803;+55 54 3358-1691",
    "name": "Estação Rodoviária de Lagoa Vermelha",
    "network": "BR:RS",
    "official_name": "Lagoa Vermelha",
    "operator": "Bigarella & Bigarella Ltda ME",
    "public_transport": "station",
    "ref": "086",
    "ref:vatin": "BR91064329000171"
  }
},
{
  "type": "node",
  "id": 974274513,
  "lat": -22.9087465,
  "lon": -43.2062984,
  "tags": {
    "addr:city": "Rio de Janeiro",
    "addr:suburb": "Cidade Nova",
    "bench": "yes",
    "name": "Cidade Nova",
    "operator": "Metrô Rio",
    "public_transport": "station",
    "railway": "station",
    "railway:ref": "CNV",
    "start_date": "2010-11-01",
    "station": "subway",
    "subway": "yes",
    "timetable": "real_time",
    "wheelchair": "yes",
    "wikidata": "Q10275650",
    "wikimedia_commons": "Category:Estação Cidade Nova",
    "wikipedia": "pt:Estação Cidade Nova"
  }
},
{
  "type": "node",
  "id": 982308914,
  "lat": -22.9041267,
  "lon": -43.2751743,
  "tags": {
    "addr:country": "BR",
    "name": "Silva Freire",
    "public_transport": "station",
    "railway": "station",
    "railway:ref": "SFE",
    "start_date": "1923",
    "wheelchair": "no"
  }
},
{
  "type": "node",
  "id": 992840767,
  "lat": -22.8174204,
  "lon": -43.4100058,
  "tags": {
    "addr:city": "Nilópolis",
    "addr:country": "BR",
    "addr:postcode": "26545-770",
    "addr:street": "Avenida Governador Roberto Silveira",
    "name": "Olinda",
    "note": "Local sem número",
    "opening_hours": "Mo-Fr 04:00-23:40; Sa 05:00-21:00; Su 06:00-21:20; PH 06:10-19:05",
    "operator": "SuperVia",
    "public_transport": "station",
    "railway": "station",
    "railway:ref": "OLI",
    "start_date": "1935-10-03",
    "train": "yes"
  }
},
{
  "type": "node",
  "id": 992841159,
  "lat": -22.8085879,
  "lon": -43.4150127,
  "tags": {
    "addr:city": "Nilópolis",
    "addr:country": "BR",
    "addr:postcode": "26545-770",
    "addr:street": "Avenida Governador Roberto Silveira",
    "name": "Nilópolis",
    "note": "Local sem número",
    "old_name": "Engenheiro Neiva",
    "opening_hours": "Mo-Fr 04:00-23:45; Sa 05:00-21:00; Su 06:00-21:15; PH 06:10-19:10",
    "operator": "SuperVia",
    "public_transport": "station",
    "railway": "station",
    "railway:ref": "NLS",
    "start_date": "1914-11-08",
    "train": "yes",
    "wikidata": "Q10276006",
    "wikimedia_commons": "Category:Estação Nilópolis",
    "wikipedia": "pt:Estação Nilópolis"
  }
},
{
  "type": "node",
  "id": 992845669,
  "lat": -22.7962280,
  "lon": -43.4226447,
  "tags": {
    "addr:city": "Nova Iguaçu",
    "addr:country": "BR",
    "addr:postcode": "26240-040",
    "addr:street": "Avenida Getúlio de Moura",
    "name": "Edson Passos",
    "note": "Local sem número",
    "opening_hours": "Mo-Fr 04:00-23:45; Sa 05:00-21:00; Su 06:00-21:15; PH 06:10-19:10",
    "operator": "SuperVia",
    "public_transport": "station",
    "railway": "station",
    "railway:ref": "EPS",
    "train": "yes"
  }
},
{
  "type": "node",
  "id": 992846878,
  "lat": -22.7825527,
  "lon": -43.4286665,
  "tags": {
    "addr:city": "Mesquita",
    "addr:country": "BR",
    "addr:postcode": "26235-020",
    "addr:street": "Rua Baronesa de Mesquita",
    "name": "Mesquita",
    "note": "Local sem número",
    "old_name": "José de Mesquita",
    "opening_hours": "Mo-Fr 04:00-23:45; Sa 05:00-21:00; Su 06:00-21:15; PH 06:10-19:10",
    "operator": "SuperVia",
    "public_transport": "station",
    "railway": "station",
    "railway:ref": "MES",
    "start_date": "1884-03-02",
    "train": "yes"
  }
},
{
  "type": "node",
  "id": 992848083,
  "lat": -22.7700212,
  "lon": -43.4344219,
  "tags": {
    "addr:city": "Mesquita",
    "addr:country": "BR",
    "addr:postcode": "26250-480",
    "addr:street": "Rua Feliciano Sodré",
    "name": "Presidente Juscelino",
    "note": "Local sem número",
    "old_name": "Vila Nova; Papavento",
    "opening_hours": "Mo-Fr 04:00-23:50; Sa 05:00-21:05; Su 05:50-21:05; PH 06:05-19:15",
    "operator": "SuperVia",
    "public_transport": "station",
    "railway": "station",
    "railway:ref": "JUS",
    "start_date": "1961-10-02"
  }
},
{
  "type": "node",
  "id": 992849871,
  "lat": -22.7444109,
  "lon": -43.4884348,
  "tags": {
    "addr:city": "Nova Iguaçu",
    "addr:country": "BR",
    "addr:postcode": "26280-480",
    "addr:street": "Rua Tomás Fonseca",
    "addr:suburb": "Comendador Soares",
    "name": "Comendador Soares",
    "note": "Local sem número",
    "old_name": "Morro Agudo",
    "opening_hours": "Mo-Fr 03:30-00:00; Sa 05:00-21:10; Su 05:30-21:05; PH 05:50-19:25",
    "operator": "SuperVia",
    "public_transport": "station",
    "railway": "station",
    "railway:ref": "CSS",
    "start_date": "1890-04-13",
    "wheelchair": "no"
  }
},
{
  "type": "node",
  "id": 992850521,
  "lat": -22.7202067,
  "lon": -43.5232928,
  "tags": {
    "addr:city": "Nova Iguaçu",
    "addr:country": "BR",
    "addr:postcode": "26395-000",
    "addr:street": "Rua Coronel Monteiro de Barros",
    "name": "Austin",
    "network": "SuperVia",
    "network:wikidata": "Q1125591",
    "note": "Local sem número",
    "opening_hours": "Mo-Fr 03:30-00:00; Sa 05:00-21:20; Su 05:30-21:20; PH 05:50-19:30",
    "operator": "SuperVia",
    "public_transport": "station",
    "railway": "station",
    "railway:ref": "AUS",
    "start_date": "1896-09-17",
    "train": "yes",
    "wikidata": "Q10275584",
    "wikimedia_commons": "Category:Estação Austin",
    "wikipedia": "pt:Estação Austin"
  }
},
{
  "type": "node",
  "id": 992856860,
  "lat": -22.6790646,
  "lon": -43.6055733,
  "tags": {
    "addr:city": "Japeri",
    "addr:country": "BR",
    "addr:postcode": "26373-320",
    "addr:street": "Avenida das Nações",
    "name": "Engenheiro Pedreira",
    "note": "Local sem número",
    "old_name": "Caramujos",
    "opening_hours": "Mo-Fr 03:30-00:10; Sa 04:00-21:30; Su 05:00-21:30; PH 05:35-19:40",
    "operator": "SuperVia",
    "public_transport": "station",
    "railway": "station",
    "railway:ref": "EPA",
    "start_date": "1914-01-27",
    "train": "yes"
  }
},
{
  "type": "node",
  "id": 993774599,
  "lat": -22.7773373,
  "lon": -43.4066986,
  "tags": {
    "disused:railway": "station",
    "name": "Rocha Sobrinho",
    "public_transport": "station",
    "railway": "station"
  }
},
{
  "type": "node",
  "id": 993782878,
  "lat": -22.7939466,
  "lon": -43.3753328,
  "tags": {
    "addr:country": "BR",
    "name": "Vila Rosali",
    "old_name": "Vila Alcântara",
    "operator": "SuperVia",
    "public_transport": "station",
    "railway": "station",
    "start_date": "1929",
    "train": "yes"
  }
},
{
  "type": "node",
  "id": 993784202,
  "lat": -22.7886407,
  "lon": -43.3813924,
  "tags": {
    "addr:country": "BR",
    "name": "Agostinho Porto",
    "operator": "SuperVia",
    "public_transport": "station",
    "railway": "station",
    "railway:ref": "AGO",
    "start_date": "1926",
    "train": "yes"
  }
},
{
  "type": "node",
  "id": 993784935,
  "lat": -22.7787292,
  "lon": -43.3873469,
  "tags": {
    "addr:country": "BR",
    "name": "Coelho da Rocha",
    "network": "SuperVia",
    "network:wikidata": "Q1125591",
    "operator": "SuperVia",
    "public_transport": "station",
    "railway": "station",
    "railway:ref": "CRA",
    "train": "yes"
  }
},
{
  "type": "node",
  "id": 994616760,
  "lat": -28.7336063,
  "lon": -51.7029961,
  "tags": {
    "DER:RS:categoria_rodoviaria": "quarta",
    "DER:RS:zona_de_fiscalizacao": "02",
    "addr:housenumber": "1153",
    "addr:postcode": "95340-000",
    "addr:street": "Rua Pinheiro Machado",
    "addr:suburb": "Centro",
    "amenity": "bus_station",
    "bus": "yes",
    "contact:email": "rodoviariasrs@gmail.com",
    "contact:phone": "+55 55 3273-1140;+55 54 3273-1014",
    "name": "Rodoviária de Nova Bassano",
    "network": "BR:RS",
    "official_name": "Nova Bassano",
    "operator": "Estação Rodoviária de Nova Bassano ME",
    "public_transport": "station",
    "ref": "099",
    "ref:vatin": "BR5862771000101"
  }
},
{
  "type": "node",
  "id": 1013919002,
  "lat": -22.8239032,
  "lon": -47.0913828,
  "tags": {
    "amenity": "bus_station",
    "bus": "yes",
    "public_transport": "station"
  }
},
{
  "type": "node",
  "id": 1037953345,
  "lat": -22.8307461,
  "lon": -47.0796106,
  "tags": {
    "amenity": "bus_station",
    "bus": "yes",
    "name": "Terminal Barão Geraldo",
    "public_transport": "station",
    "tourist_bus": "yes",
    "website": "http://www.emdec.com.br/eficiente/sites/portalemdec/pt-br/site.php?secao=terminais_urbanos&pub=3300"
  }
},
{
  "type": "node",
  "id": 1053355283,
  "lat": -22.6777531,
  "lon": -43.2471970,
  "tags": {
    "addr:country": "BR",
    "name": "Saracuruna",
    "old_name": "Rosário",
    "operator": "SuperVia",
    "public_transport": "station",
    "railway": "station",
    "railway:ref": "SAR",
    "start_date": "1888-04-24",
    "train": "yes",
    "wikidata": "Q10276137",
    "wikimedia_commons": "Category:Estação Saracuruna",
    "wikipedia": "pt:Estação Saracuruna"
  }
},
{
  "type": "node",
  "id": 1053355284,
  "lat": -22.6502692,
  "lon": -43.2082276,
  "tags": {
    "addr:city": "Magé",
    "addr:country": "BR",
    "addr:suburb": "Parque Estrela",
    "name": "Parque Estrela",
    "operator": "SuperVia",
    "public_transport": "station",
    "railway": "station",
    "railway:ref": "PQE",
    "train": "yes",
    "wikidata": "Q10276040",
    "wikipedia": "pt:Estação Parque Estrela"
  }
},
{
  "type": "node",
  "id": 1058120139,
  "lat": -22.6629950,
  "lon": -43.1289983,
  "tags": {
    "addr:country": "BR",
    "name": "Suruí",
    "network": "SuperVia",
    "network:wikidata": "Q1125591",
    "operator": "SuperVia",
    "public_transport": "station",
    "railway": "station",
    "railway:ref": "SUR",
    "start_date": "1926-12-02",
    "train": "yes",
    "wikidata": "Q10276153",
    "wikimedia_commons": "Category:Estação Suruí",
    "wikipedia": "pt:Estação Suruí"
  }
},
{
  "type": "node",
  "id": 1068399367,
  "lat": -29.6845532,
  "lon": -51.1356641,
  "tags": {
    "amenity": "bus_station",
    "bus": "yes",
    "public_transport": "station",
    "wheelchair": "yes"
  }
},
{
  "type": "node",
  "id": 1069304993,
  "lat": -29.3750093,
  "lon": -51.1101287,
  "tags": {
    "amenity": "bus_station",
    "bus": "yes",
    "internet_access": "no",
    "name": "Estação Rodoviária de Nova Petrópolis",
    "public_transport": "station",
    "wheelchair": "yes"
  }
},
{
  "type": "node",
  "id": 1069994341,
  "lat": -29.7010175,
  "lon": -51.1359495,
  "tags": {
    "DER:RS:categoria_rodoviaria": "primeira",
    "DER:RS:zona_de_fiscalizacao": "14",
    "addr:housenumber": "667",
    "addr:postcode": "93300-000",
    "addr:street": "Rua Três de Outubro",
    "addr:suburb": "Rio Branco",
    "alt_name": "Rodoviária de Novo Hamburgo",
    "amenity": "bus_station",
    "bus": "yes",
    "contact:email": "rodoviaria@comur.com.br",
    "contact:phone": "+55 51 3525-0990;+55 51 3593-4430",
    "name": "Estação Rodoviária Normélio Stabel",
    "network": "BR:RS",
    "official_name": "Novo Hamburgo",
    "operator": "Prefeitura Municipal de Novo Hamburgo",
    "public_transport": "station",
    "ref": "103",
    "ref:vatin": "BR88254875000160"
  }
},
{
  "type": "node",
  "id": 1073056111,
  "lat": -20.1936071,
  "lon": -40.2554191,
  "tags": {
    "amenity": "bus_station",
    "internet_access": "no",
    "name": "Terminal Laranjeiras",
    "operator": "Ceturb-GV"
  }
},
{
  "type": "node",
  "id": 1094990809,
  "lat": -23.6488711,
  "lon": -46.6221088,
  "tags": {
    "amenity": "bus_station",
    "bus": "yes",
    "name": "Ponte Orca Zoo - Terminal Jabaquara",
    "public_transport": "station"
  }
},
{
  "type": "node",
  "id": 1098314441,
  "lat": -22.0050389,
  "lon": -47.8895615,
  "tags": {
    "amenity": "bus_station",
    "name": "Estação Norte"
  }
},
{
  "type": "node",
  "id": 1113912290,
  "lat": -19.9511196,
  "lon": -43.9222296,
  "tags": {
    "amenity": "bus_station",
    "bus": "yes",
    "highway": "bus_stop",
    "public_transport": "station"
  }
},
{
  "type": "node",
  "id": 1128223409,
  "lat": -22.6517348,
  "lon": -43.0425022,
  "tags": {
    "addr:country": "BR",
    "name": "Magé",
    "operator": "SuperVia",
    "public_transport": "station",
    "railway": "station",
    "railway:ref": "MGE",
    "train": "yes",
    "wikidata": "Q10275945",
    "wikimedia_commons": "Category:Estação Magé",
    "wikipedia": "pt:Estação Magé"
  }
},
{
  "type": "node",
  "id": 1128292080,
  "lat": -22.5459658,
  "lon": -42.9851080,
  "tags": {
    "addr:country": "BR",
    "name": "Parada Modelo",
    "operator": "Central Logística",
    "public_transport": "station",
    "railway": "station",
    "railway:ref": "MDL",
    "train": "yes",
    "wikidata": "Q10276035",
    "wikipedia": "pt:Estação Parada Modelo"
  }
},
{
  "type": "node",
  "id": 1131076714,
  "lat": -19.9447823,
  "lon": -43.9161904,
  "tags": {
    "amenity": "bus_station",
    "bus": "yes",
    "name": "4111 - Final",
    "public_transport": "station"
  }
},
{
  "type": "node",
  "id": 1131076721,
  "lat": -19.9558578,
  "lon": -43.9205723,
  "tags": {
    "amenity": "bus_station",
    "bus": "yes",
    "name": "4111 - Final (UEMG)",
    "public_transport": "station"
  }
},
{
  "type": "node",
  "id": 1152120268,
  "lat": -22.5526322,
  "lon": -43.1826212,
  "tags": {
    "disused": "yes",
    "name": "Meio da Serra",
    "railway": "station",
    "wikidata": "Q10275975",
    "wikimedia_commons": "Category:Estação Meio da Serra",
    "wikipedia": "pt:Estação Meio da Serra"
  }
},
{
  "type": "node",
  "id": 1177370562,
  "lat": -22.8601311,
  "lon": -43.3714054,
  "tags": {
    "amenity": "bus_station",
    "bus": "yes",
    "name": "Linha 650 Marechal Hermes >> Engenho Novo",
    "operator": "Viação Acari",
    "public_transport": "station"
  }
},
{
  "type": "node",
  "id": 1178247908,
  "lat": -22.8768310,
  "lon": -43.3378768,
  "tags": {
    "advertising": "no",
    "amenity": "bus_station",
    "bench": "yes",
    "bin": "no",
    "bus": "yes",
    "gtfs:stop_id": "3083O00068C0",
    "highway": "bus_stop",
    "name": "Ponto Final: Madureira :: Linha 779",
    "public_transport": "platform",
    "shelter": "no",
    "tactile_paving": "no",
    "wheelchair": "no"
  }
},
{
  "type": "node",
  "id": 1178247915,
  "lat": -22.8698462,
  "lon": -43.3413133,
  "tags": {
    "amenity": "bus_station",
    "bus": "yes",
    "name": "Linha 355 Madureira >> Praça Tiradentes",
    "public_transport": "station"
  }
},
{
  "type": "node",
  "id": 1178801562,
  "lat": -22.9581241,
  "lon": -43.3524490,
  "tags": {
    "amenity": "bus_station",
    "bus": "yes",
    "name": "Terminal Rodoviário Urbano Arquiteto Julius Sass",
    "public_transport": "station"
  }
},
{
  "type": "node",
  "id": 1179542151,
  "lat": -19.9513501,
  "lon": -43.9055356,
  "tags": {
    "amenity": "bus_station"
  }
},
{
  "type": "node",
  "id": 1194573595,
  "lat": -23.5048630,
  "lon": -51.1256851,
  "tags": {
    "amenity": "bus_station"
  }
},
{
  "type": "node",
  "id": 1246515526,
  "lat": -29.9216816,
  "lon": -51.1776315,
  "tags": {
    "addr:housenumber": "5001",
    "addr:street": "Avenida Getúlio Vargas",
    "amenity": "bus_station",
    "bus": "yes",
    "contact:phone": "+55 51 3472-4559;+55 51 3472-9647",
    "name": "Estação Rodoviária de Canoas",
    "public_transport": "station"
  }
},
{
  "type": "node",
  "id": 1277781330,
  "lat": -22.6112575,
  "lon": -43.7107102,
  "tags": {
    "addr:city": "Paracambi",
    "addr:country": "BR",
    "addr:postcode": "26600-001",
    "addr:street": "Rua Ministro Sebastião Lacerda",
    "name": "Paracambi",
    "note": "Local sem número",
    "old_name": "Macacos; Tairetá; Paracamby",
    "opening_hours": "Mo-Fr 03:30-23:20; Sa 04:00-20:20; Su 04:40-21:20; PH 05:10-20:20",
    "operator": "SuperVia",
    "public_transport": "station",
    "railway": "station",
    "railway:ref": "PBI",
    "source": "Bing",
    "start_date": "1861-08-01",
    "train": "yes",
    "wheelchair": "yes"
  }
},
{
  "type": "node",
  "id": 1278195937,
  "lat": -22.6445790,
  "lon": -43.6529816,
  "tags": {
    "addr:city": "Japeri",
    "addr:country": "BR",
    "addr:postcode": "26375-520",
    "addr:street": "Rua Lenir Ferreira",
    "name": "Japeri",
    "note": "Local sem número",
    "opening_hours": "Mo-Fr 03:30-00:25; Sa 04:30-21:45; Su 05:10-21:45; PH 05:10-21:45",
    "operator": "SuperVia",
    "public_transport": "station",
    "railway": "station",
    "ref": "JRI",
    "train": "yes"
  }
},
{
  "type": "node",
  "id": 1278853912,
  "lat": -21.7777482,
  "lon": -46.6038198,
  "tags": {
    "amenity": "bus_station",
    "bus": "yes",
    "public_transport": "station"
  }
},
{
  "type": "node",
  "id": 1278911578,
  "lat": -22.6217954,
  "lon": -43.7040855,
  "tags": {
    "addr:city": "Paracambi",
    "addr:country": "BR",
    "addr:postcode": "26600-000",
    "addr:street": "Rua Anibal Cardoso",
    "name": "Lages",
    "note": "Local sem número",
    "old_name": "Nicanor Pereira",
    "opening_hours": "Mo-Fr 03:30-23:25; Sa 04:00-20:30; Su 05:00-21:30; PH 05:15-20:10",
    "operator": "SuperVia",
    "public_transport": "station",
    "railway": "station",
    "railway:ref": "LAJ",
    "start_date": "1858-09-21",
    "train": "yes"
  }
},
{
  "type": "node",
  "id": 1304139978,
  "lat": -22.6584732,
  "lon": -43.2305991,
  "tags": {
    "addr:country": "BR",
    "name": "Morabi",
    "operator": "SuperVia",
    "public_transport": "station",
    "railway": "station",
    "railway:ref": "MBI",
    "train": "yes"
  }
},
{
  "type": "node",
  "id": 1304214216,
  "lat": -22.6422246,
  "lon": -43.2195065,
  "tags": {
    "addr:country": "BR",
    "name": "Imbariê",
    "network": "SuperVia",
    "network:wikidata": "Q1125591",
    "old_name": "Estrela",
    "operator": "SuperVia",
    "public_transport": "station",
    "railway": "station",
    "railway:ref": "IMB",
    "start_date": "1888-04",
    "train": "yes"
  }
},
{
  "type": "node",
  "id": 1304217915,
  "lat": -22.6304408,
  "lon": -43.2104943,
  "tags": {
    "addr:country": "BR",
    "name": "Manoel Belo",
    "operator": "SuperVia",
    "public_transport": "station",
    "railway": "station",
    "railway:ref": "BEM",
    "train": "yes"
  }
},
{
  "type": "node",
  "id": 1304242080,
  "lat": -22.6094246,
  "lon": -43.1796584,
  "tags": {
    "addr:country": "BR",
    "name": "Piabetá",
    "network": "SuperVia",
    "network:wikidata": "Q1125591",
    "old_name": "Entroncamento",
    "operator": "SuperVia",
    "public_transport": "station",
    "railway": "station",
    "railway:ref": "PBA",
    "start_date": "1888-04",
    "train": "yes"
  }
},
{
  "type": "node",
  "id": 1304246239,
  "lat": -22.5887586,
  "lon": -43.1844125,
  "tags": {
    "addr:country": "BR",
    "name": "Fragoso",
    "operator": "SuperVia",
    "public_transport": "station",
    "railway": "station",
    "railway:ref": "FRA",
    "start_date": "1856-12-16",
    "train": "yes"
  }
},
{
  "type": "node",
  "id": 1304247564,
  "lat": -22.5708955,
  "lon": -43.1846121,
  "tags": {
    "addr:country": "BR",
    "name": "Vila Inhomirim",
    "network": "SuperVia",
    "network:wikidata": "Q1125591",
    "old_name": "Raiz da Serra",
    "operator": "SuperVia",
    "public_transport": "station",
    "railway": "station",
    "railway:ref": "VIM",
    "start_date": "1856-12-16",
    "train": "yes",
    "wikidata": "Q10276218",
    "wikimedia_commons": "Category:Estação Vila Inhomirim",
    "wikipedia": "pt:Estação Vila Inhomirim"
  }
},
{
  "type": "node",
  "id": 1305341874,
  "lat": -22.6531321,
  "lon": -43.0662528,
  "tags": {
    "name": "Iriri",
    "operator": "SuperVia",
    "public_transport": "stop_position",
    "railway": "station",
    "railway:ref": "IRI",
    "source": "survey",
    "train": "yes",
    "wikidata": "Q10275879",
    "wikipedia": "pt:Estação Iriri"
  }
},
{
  "type": "node",
  "id": 1334751322,
  "lat": -29.6429244,
  "lon": -49.9578220,
  "tags": {
    "DER:RS:categoria_rodoviaria": "quarta",
    "DER:RS:zona_de_fiscalizacao": "16",
    "addr:city": "Arroio Teixeira",
    "addr:housenumber": "681",
    "addr:postcode": "95555-000",
    "addr:street": "Avenida Paraguassu",
    "addr:suburb": "Centro",
    "amenity": "bus_station",
    "bus": "yes",
    "contact:email": "fernandofernandes306@gmail.com",
    "contact:phone": "+55 51 99415-2928;+55 51 3621-3222",
    "name": "Estação Rodoviária de Arroio Teixeira",
    "network": "BR:RS",
    "official_name": "Arroio Teixeira",
    "operator": "Aida Galimberti",
    "public_transport": "station",
    "ref": "244",
    "ref:vatin": "BR10542485087"
  }
},
{
  "type": "node",
  "id": 1338122558,
  "lat": -19.9632862,
  "lon": -43.9477538,
  "tags": {
    "amenity": "bus_station",
    "bus": "yes",
    "name": "Final 8103",
    "public_transport": "station"
  }
},
{
  "type": "node",
  "id": 1350298489,
  "lat": -21.7593356,
  "lon": -43.3432981,
  "tags": {
    "addr:city": "Juiz de Fora",
    "addr:street": "Rua Raul Soares",
    "addr:suburb": "Centro",
    "alt_name": "Baton Rouge",
    "amenity": "bus_station",
    "bus": "yes",
    "name": "Estação Rodoviária Intermunicipal",
    "public_transport": "station",
    "wheelchair": "yes"
  }
},
{
  "type": "node",
  "id": 1357306487,
  "lat": -19.8762489,
  "lon": -43.9320509,
  "tags": {
    "amenity": "bus_station"
  }
},
{
  "type": "node",
  "id": 1357628587,
  "lat": -19.8950174,
  "lon": -43.9920474,
  "tags": {
    "amenity": "bus_station",
    "bus": "yes",
    "name": "3501A",
    "public_transport": "station"
  }
},
{
  "type": "node",
  "id": 1398072914,
  "lat": -22.9463098,
  "lon": -43.2567800,
  "tags": {
    "amenity": "bus_station",
    "bus": "yes",
    "name": "Terminal Professor Carlos Manes Bandeira",
    "public_transport": "station"
  }
},
{
  "type": "node",
  "id": 1405761156,
  "lat": -18.8518863,
  "lon": -41.9511151,
  "tags": {
    "name": "Governador Valadares",
    "public_transport": "station",
    "railway": "station",
    "ref": "VGV",
    "train": "yes"
  }
},
{
  "type": "node",
  "id": 1407559959,
  "lat": -22.7902860,
  "lon": -48.1278846,
  "tags": {
    "amenity": "bus_station"
  }
},
{
  "type": "node",
  "id": 1408777985,
  "lat": -23.6100078,
  "lon": -46.5716509,
  "tags": {
    "amenity": "bus_station",
    "name": "Terminal Rodoviário Nicolau Delic Módulo II"
  }
},
{
  "type": "node",
  "id": 1420120091,
  "lat": -30.0267917,
  "lon": -51.2286966,
  "tags": {
    "amenity": "bus_station",
    "bus": "yes",
    "name": "Terminal Mercado",
    "public_transport": "station"
  }
},
{
  "type": "node",
  "id": 1420491326,
  "lat": -30.0264145,
  "lon": -51.2269610,
  "tags": {
    "amenity": "bus_station",
    "bus": "yes",
    "name": "Terminal Largo Visconde do Cairu",
    "public_transport": "station"
  }
},
{
  "type": "node",
  "id": 1427398583,
  "lat": -30.0279179,
  "lon": -51.2309224,
  "tags": {
    "amenity": "bus_station",
    "bus": "yes",
    "name": "Terminal Cassiano Nascimento",
    "public_transport": "station"
  }
},
{
  "type": "node",
  "id": 1428535664,
  "lat": -21.7847208,
  "lon": -46.5874868,
  "tags": {
    "amenity": "bus_station",
    "bus": "yes",
    "public_transport": "station"
  }
},
{
  "type": "node",
  "id": 1449008248,
  "lat": -22.4071439,
  "lon": -43.6606057,
  "tags": {
    "amenity": "bus_station",
    "bus": "yes",
    "name": "Rodoviária Maurício Lacerda",
    "public_transport": "station"
  }
},
{
  "type": "node",
  "id": 1473517781,
  "lat": -22.9241410,
  "lon": -43.2325924,
  "tags": {
    "addr:city": "Rio de Janeiro",
    "addr:suburb": "Tijuca",
    "bench": "yes",
    "name": "Saens Peña / Tijuca",
    "old_name": "Tijuca;Saens Peña",
    "opening_hours": "Mo-Sa 05:00-00:00; Su 07:00-23:00; PH 07:00-23:00",
    "operator": "MetrôRio",
    "public_transport": "station",
    "railway": "station",
    "railway:ref": "SPN",
    "source": "survey",
    "start_date": "1982",
    "station": "subway",
    "subway": "yes",
    "timetable": "real_time",
    "wikidata": "Q9352798",
    "wikimedia_commons": "Category:Estação Saens Peña",
    "wikipedia": "pt:Estação Saens Peña / Tijuca"
  }
},
{
  "type": "node",
  "id": 1491754671,
  "lat": -29.5093967,
  "lon": -51.8075734,
  "tags": {
    "amenity": "bus_station",
    "bus": "yes",
    "highway": "bus_stop",
    "local_ref": "Rodoviária de Canabarro",
    "name": "Rodoviária de Canabarro",
    "public_transport": "station"
  }
},
{
  "type": "node",
  "id": 1492090319,
  "lat": -21.5641824,
  "lon": -45.4474448,
  "tags": {
    "amenity": "bus_station",
    "bus": "yes",
    "public_transport": "station"
  }
},
{
  "type": "node",
  "id": 1492143359,
  "lat": -21.7182707,
  "lon": -44.9817350,
  "tags": {
    "amenity": "bus_station",
    "bus": "yes",
    "name": "Rodoviária",
    "public_transport": "station"
  }
},
{
  "type": "node",
  "id": 1512010609,
  "lat": -19.3170250,
  "lon": -42.3639078,
  "tags": {
    "name": "Frederico Sellow",
    "public_transport": "stop_position",
    "railway": "station",
    "ref": "VFS",
    "train": "yes"
  }
},
{
  "type": "node",
  "id": 1557684782,
  "lat": -22.8023242,
  "lon": -47.0027063,
  "tags": {
    "name": "Tanquinho",
    "public_transport": "station",
    "railway": "station",
    "wikidata": "Q10276176"
  }
},
{
  "type": "node",
  "id": 1569200696,
  "lat": -19.9198583,
  "lon": -43.9435139,
  "tags": {
    "amenity": "bus_station",
    "bus": "yes",
    "name": "Intermunicipais",
    "public_transport": "station"
  }
},
{
  "type": "node",
  "id": 1587920562,
  "lat": -21.0496793,
  "lon": -40.8310157,
  "tags": {
    "amenity": "bus_station",
    "name": "Rodoviária de Marataízes"
  }
},
{
  "type": "node",
  "id": 1599484721,
  "lat": -33.9986963,
  "lon": -53.5670097,
  "tags": {
    "amenity": "bus_station",
    "bus": "yes",
    "description": "Parada de omnibus del Parque de Santa Teresa",
    "name": "Estación Parque Nacional de Santa Teresa",
    "public_transport": "station"
  }
},
{
  "type": "node",
  "id": 1611274442,
  "lat": -25.0154824,
  "lon": -51.6457303,
  "tags": {
    "amenity": "bus_station",
    "name": "POnto de Onibus"
  }
},
{
  "type": "node",
  "id": 1613546772,
  "lat": -31.8747028,
  "lon": -53.0228194,
  "tags": {
    "name": "Basílio",
    "railway": "station"
  }
},
{
  "type": "node",
  "id": 1614757965,
  "lat": -29.9795580,
  "lon": -52.3839803,
  "tags": {
    "name": "Rio Pardo",
    "public_transport": "station",
    "railway": "station"
  }
},
{
  "type": "node",
  "id": 1614775908,
  "lat": -29.8108175,
  "lon": -53.3768636,
  "tags": {
    "name": "Restinga Seca",
    "railway": "station"
  }
},
{
  "type": "node",
  "id": 1618587281,
  "lat": -20.3881296,
  "lon": -53.9478989,
  "tags": {
    "abandoned:railway": "station",
    "alt_name": "Balsamo",
    "name": "Bálsamo",
    "operator": "Rumo S/A",
    "operator:type": "private",
    "owner": "União Federal",
    "ownership": "national",
    "public_transport": "station",
    "railway": "station",
    "railway:ref": "JBL",
    "ref": "JBL",
    "start_date": "1914-10-12",
    "train": "yes"
  }
},
{
  "type": "node",
  "id": 1619245529,
  "lat": -23.2713723,
  "lon": -51.0435837,
  "tags": {
    "name": "Antiga Estação Ferroviária de Ibiporã",
    "public_transport": "station",
    "railway": "station"
  }
},
{
  "type": "node",
  "id": 1619245532,
  "lat": -23.2762638,
  "lon": -51.2792806,
  "tags": {
    "name": "Cambé",
    "public_transport": "station",
    "railway": "station"
  }
},
{
  "type": "node",
  "id": 1620543483,
  "lat": -21.8295588,
  "lon": -51.9872172,
  "tags": {
    "name": "Caiuá",
    "public_transport": "station",
    "railway": "station"
  }
},
{
  "type": "node",
  "id": 1620593450,
  "lat": -21.9704690,
  "lon": -51.6515681,
  "tags": {
    "name": "Santo Anastácio",
    "railway": "station"
  }
},
{
  "type": "node",
  "id": 1623702647,
  "lat": -22.0135221,
  "lon": -51.5542726,
  "tags": {
    "name": "Presidente Bernardes",
    "railway": "station"
  }
},
{
  "type": "node",
  "id": 1623702887,
  "lat": -21.8751623,
  "lon": -51.8465421,
  "tags": {
    "name": "Presidente Venceslau",
    "public_transport": "station",
    "railway": "station"
  }
},
{
  "type": "node",
  "id": 1625249638,
  "lat": -28.0592680,
  "lon": -51.1871854,
  "tags": {
    "DER:RS:categoria_rodoviaria": "quarta",
    "DER:RS:zona_de_fiscalizacao": "02",
    "addr:housenumber": "1066",
    "addr:postcode": "95380-000",
    "addr:street": "Avenida Castelo Branco",
    "addr:suburb": "Centro",
    "amenity": "bus_station",
    "contact:phone": "+55 54 3354-1267",
    "name": "Estação Rodoviária de Esmeralda",
    "network": "BR:RS",
    "official_name": "Esmeralda",
    "operator": "Lidio Sitta-Me",
    "public_transport": "station",
    "ref": "281",
    "ref:vatin": "BR88225198/0001-52"
  }
},
{
  "type": "node",
  "id": 1627152970,
  "lat": -24.3066774,
  "lon": -50.0059756,
  "tags": {
    "abandoned": "yes",
    "railway": "station",
    "source": "Bing"
  }
},
{
  "type": "node",
  "id": 1637991621,
  "lat": -23.3183796,
  "lon": -50.0063233,
  "tags": {
    "name": "Platina",
    "railway": "station"
  }
},
{
  "type": "node",
  "id": 1637999052,
  "lat": -23.2571846,
  "lon": -49.9957077,
  "tags": {
    "disused": "yes",
    "name": "Guimarães Carneiro",
    "railway": "station"
  }
},
{
  "type": "node",
  "id": 1638800559,
  "lat": -23.0768587,
  "lon": -49.9505555,
  "tags": {
    "disused:railway": "station",
    "name": "Costa Júnior",
    "public_transport": "station",
    "railway": "station"
  }
},
{
  "type": "node",
  "id": 1638800560,
  "lat": -23.1533435,
  "lon": -49.9654722,
  "tags": {
    "name": "Estação Ferroviária de Jacarezinho",
    "public_transport": "station",
    "railway": "station"
  }
},
{
  "type": "node",
  "id": 1638845167,
  "lat": -22.8419988,
  "lon": -50.0255959,
  "tags": {
    "disused": "yes",
    "name": "Saguaragi",
    "railway": "station"
  }
},
{
  "type": "node",
  "id": 1638845168,
  "lat": -22.9005652,
  "lon": -49.9725398,
  "tags": {
    "name": "Salto Grande",
    "railway": "station"
  }
},
{
  "type": "node",
  "id": 1639095029,
  "lat": -22.6616110,
  "lon": -50.4206343,
  "tags": {
    "name": "Estação de Assis",
    "network": "ALL",
    "operator": "ALL",
    "public_transport": "station",
    "railway": "station"
  }
},
{
  "type": "node",
  "id": 1639095032,
  "lat": -22.5980977,
  "lon": -50.4532221,
  "tags": {
    "disused:railway": "station",
    "name": "Cervinho",
    "public_transport": "station",
    "railway": "station"
  }
},
{
  "type": "node",
  "id": 1639114006,
  "lat": -22.5288686,
  "lon": -50.5369668,
  "tags": {
    "disused": "yes",
    "name": "Cardoso de Almeida",
    "railway": "station"
  }
},
{
  "type": "node",
  "id": 1639325487,
  "lat": -23.2088399,
  "lon": -50.9425460,
  "tags": {
    "disused": "yes",
    "name": "Frei Timóteo",
    "railway": "station"
  }
},
{
  "type": "node",
  "id": 1639325506,
  "lat": -23.2527929,
  "lon": -50.9811670,
  "tags": {
    "name": "Antiga Estação Ferroviária de Jataizinho",
    "public_transport": "station",
    "railway": "station"
  }
},
{
  "type": "node",
  "id": 1640335398,
  "lat": -23.0158278,
  "lon": -49.9540397,
  "tags": {
    "disused": "yes",
    "name": "Presidente Munhoz",
    "railway": "station"
  }
},
{
  "type": "node",
  "id": 1640415039,
  "lat": -19.9820680,
  "lon": -49.6795066,
  "tags": {
    "amenity": "bus_station",
    "name": "Terminal Rodoviario"
  }
},
{
  "type": "node",
  "id": 1640431669,
  "lat": -23.0540801,
  "lon": -50.0568599,
  "tags": {
    "name": "Cambará",
    "railway": "station"
  }
},
{
  "type": "node",
  "id": 1640431670,
  "lat": -23.0590395,
  "lon": -50.0211458,
  "tags": {
    "disused": "yes",
    "name": "Leoflora",
    "railway": "station"
  }
},
{
  "type": "node",
  "id": 1640431672,
  "lat": -23.0666772,
  "lon": -50.1260967,
  "tags": {
    "disused": "yes",
    "name": "Mereilles",
    "railway": "station"
  }
},
{
  "type": "node",
  "id": 1640431682,
  "lat": -23.0704523,
  "lon": -50.1627069,
  "tags": {
    "FIXME": "position",
    "disused": "yes",
    "name": "Niepce da Silva",
    "railway": "station"
  }
},