{
  "version": 0.6,
  "generator": "Overpass API 0.7.62.8 e802775f",
  "osm3s": {
    "timestamp_osm_base": "2025-12-02T12:52:54Z",
    "timestamp_areas_base": "2025-12-02T09:15:00Z",
    "copyright": "The data included in this document is from www.openstreetmap.org. The data is made available under ODbL."
  },
  "elements": [

{
  "type": "node",
  "id": 19485633,
  "lat": 47.4624666,
  "lon": 9.0409498,
  "tags": {
    "ele": "570",
    "internet_access": "wlan",
    "internet_access:fee": "no",
    "internet_access:operator": "SBB",
    "name": "Wil SG",
    "operator": "SBB",
    "public_transport": "station",
    "railway": "station",
    "railway:ref": "WIL",
    "uic_name": "Wil SG",
    "uic_ref": "8506206",
    "wheelchair": "yes",
    "wikidata": "Q5847532",
    "wikimedia_commons": "Category:Wil SG railway station",
    "wikipedia": "de:Bahnhof Wil"
  }
},
{
  "type": "node",
  "id": 25522992,
  "lat": 47.5038653,
  "lon": 9.3586097,
  "tags": {
    "ele": "512",
    "name": "Häggenschwil-Winden",
    "operator": "SOB",
    "public_transport": "station",
    "railway": "station",
    "railway:ref": "HAEW",
    "uic_name": "Häggenschwil-Winden",
    "uic_ref": "8506395",
    "wikidata": "Q33507046"
  }
},
{
  "type": "node",
  "id": 26032230,
  "lat": 46.9075454,
  "lon": 9.8101839,
  "tags": {
    "alt_name": "Saas im Prättigau",
    "ele": "935",
    "name": "Saas",
    "network": "RhB",
    "network:wikidata": "Q2204412",
    "operator": "RhB",
    "operator:wikidata": "Q177598",
    "public_transport": "station",
    "railway": "station",
    "railway:ref": "SAAS",
    "train": "yes",
    "uic_name": "Saas im Prättigau",
    "uic_ref": "8509065",
    "wikidata": "Q7395704",
    "wikipedia": "en:Saas (Rhaetian Railway station)"
  }
},
{
  "type": "node",
  "id": 26032254,
  "lat": 46.9296373,
  "lon": 9.7184824,
  "tags": {
    "ele": "723",
    "name": "Jenaz",
    "network": "RhB",
    "network:wikidata": "Q2204412",
    "operator": "RhB",
    "operator:wikidata": "Q177598",
    "public_transport": "station",
    "railway": "station",
    "railway:ref": "JAZ",
    "train": "yes",
    "uic_name": "Jenaz",
    "uic_ref": "8509062",
    "wikidata": "Q6177395",
    "wikipedia": "en:Jenaz (Rhaetian Railway station)"
  }
},
{
  "type": "node",
  "id": 26032347,
  "lat": 46.9806046,
  "lon": 9.6458358,
  "tags": {
    "ele": "630",
    "name": "Grüsch",
    "network": "RhB",
    "network:wikidata": "Q2204412",
    "operator": "RhB",
    "operator:wikidata": "Q177598",
    "public_transport": "station",
    "railway": "station",
    "railway:ref": "GRUS",
    "train": "yes",
    "uic_name": "Grüsch",
    "uic_ref": "8509059",
    "wikidata": "Q5612288",
    "wikipedia": "en:Grusch (Rhaetian Railway station)"
  }
},
{
  "type": "node",
  "id": 26032373,
  "lat": 46.9777283,
  "lon": 9.5737102,
  "tags": {
    "ele": "536",
    "name": "Malans",
    "network": "RhB",
    "network:wikidata": "Q2204412",
    "operator": "RhB",
    "operator:wikidata": "Q177598",
    "public_transport": "station",
    "railway": "station",
    "railway:ref": "MALA",
    "train": "yes",
    "uic_name": "Malans GR",
    "uic_ref": "8509057",
    "wheelchair": "yes",
    "wikidata": "Q6741292"
  }
},
{
  "type": "node",
  "id": 27528737,
  "lat": 47.3862245,
  "lon": 7.7490040,
  "tags": {
    "ele": "518",
    "name": "Waldenburg",
    "network": "TNW",
    "network:wikidata": "Q1479394",
    "operator": "BLT-wb",
    "public_transport": "station",
    "railway": "station",
    "train": "yes",
    "uic_name": "Waldenburg, Station",
    "uic_ref": "8572351",
    "wikidata": "Q33437109",
    "wikimedia_commons": "Category:Waldenburg BL railway station"
  }
},
{
  "type": "node",
  "id": 27580759,
  "lat": 47.3454892,
  "lon": 8.5930969,
  "tags": {
    "ele": "590",
    "light_rail": "yes",
    "name": "Waldburg",
    "operator": "FB",
    "public_transport": "station",
    "railway": "station",
    "railway:ref": "WALG",
    "station": "light_rail",
    "uic_name": "Waldburg",
    "uic_ref": "8503078",
    "wheelchair": "no",
    "wikidata": "Q33456136"
  }
},
{
  "type": "node",
  "id": 27580765,
  "lat": 47.3473310,
  "lon": 8.5970611,
  "tags": {
    "check_date": "2024-12-09",
    "ele": "602",
    "light_rail": "yes",
    "name": "Spital Zollikerberg",
    "operator": "FB",
    "public_transport": "station",
    "railway": "station",
    "railway:ref": "SPIT",
    "station": "light_rail",
    "uic_name": "Spital Zollikerberg",
    "uic_ref": "8503077",
    "wheelchair": "yes",
    "wikidata": "Q33456111"
  }
},
{
  "type": "node",
  "id": 29542965,
  "lat": 47.3765183,
  "lon": 8.5441720,
  "tags": {
    "alt_name": "Polybahn (Talstation)",
    "ele": "411.09",
    "funicular": "yes",
    "name": "Central Polybahn",
    "nat_name": "Zürich, Central Polybahn",
    "network": "ZVV",
    "operator": "PBZ",
    "public_transport": "stop_position",
    "railway": "station",
    "ref": "6217",
    "ref_name": "Zürich, Central Polybahn",
    "station": "funicular",
    "uic_name": "Zürich Central (Polybahn)",
    "uic_ref": "8503499",
    "wheelchair": "no"
  }
},
{
  "type": "node",
  "id": 29542967,
  "lat": 47.3768321,
  "lon": 8.5463207,
  "tags": {
    "alt_name": "Polybahn (Bergstation)",
    "check_date:wheelchair": "2021-11-27",
    "ele": "448.76",
    "funicular": "yes",
    "name": "Polyterrasse ETH",
    "nat_name": "Zürich, Polyterasse ETH",
    "network": "ZVV",
    "operator": "PBZ",
    "public_transport": "stop_position",
    "railway": "station",
    "ref": "1896",
    "ref_name": "Zürich, Polyterasse ETH",
    "station": "funicular",
    "uic_name": "Zürich Polyterrasse",
    "uic_ref": "8503500",
    "wheelchair": "no"
  }
},
{
  "type": "node",
  "id": 36258964,
  "lat": 47.3731699,
  "lon": 8.5746371,
  "tags": {
    "ele": "606",
    "name": "Bergstation Dolderbahn",
    "nat_name": "Zürich, Bergstation Dolderbahn",
    "network": "ZVV",
    "operator": "VBZ/DBZ",
    "public_transport": "stop_position",
    "railway": "station",
    "ref": "459",
    "ref_name": "Zürich, Bergstation Dolderbahn",
    "train": "yes",
    "uic_name": "Zürich, Dolder",
    "uic_ref": "8503084",
    "wheelchair": "yes",
    "wikidata": "Q33514141"
  }
},
{
  "type": "node",
  "id": 41141842,
  "lat": 47.3576218,
  "lon": 9.2861307,
  "tags": {
    "ele": "816",
    "name": "Waldstatt",
    "operator": "AB",
    "public_transport": "station",
    "railway": "station",
    "uic_name": "Waldstatt",
    "uic_ref": "8506281",
    "wikidata": "Q33506188"
  }
},
{
  "type": "node",
  "id": 41147989,
  "lat": 47.3201237,
  "lon": 9.3284963,
  "tags": {
    "ele": "876",
    "name": "Jakobsbad",
    "operator": "AB",
    "public_transport": "station",
    "railway": "station",
    "uic_name": "Jakobsbad",
    "uic_ref": "8506284",
    "wheelchair": "yes",
    "wikidata": "Q33506229"
  }
},
{
  "type": "node",
  "id": 52208883,
  "lat": 46.7122861,
  "lon": 6.3706406,
  "tags": {
    "ele": "807",
    "name": "Vallorbe",
    "name:fr": "Vallorbe",
    "operator": "SBB",
    "public_transport": "station",
    "railway": "station",
    "railway:ref": "VAL",
    "ref:FR:sncf:resarail": "CHAGL",
    "ref:FR:uic8": "85011031",
    "uic_name": "Vallorbe",
    "uic_ref": "8501103",
    "wikidata": "Q3097934"
  }
},
{
  "type": "node",
  "id": 57476521,
  "lat": 46.9286050,
  "lon": 9.0023003,
  "tags": {
    "alt_name": "Linthal Braunwaldbahn (Talstation)",
    "email": "info@braunwaldbahn.ch",
    "funicular": "yes",
    "name": "Linthal Braunwaldbahn",
    "network": "Ostwind",
    "operator": "BRSB",
    "phone": "+41 55 653 50 30",
    "public_transport": "stop_position",
    "railway": "station",
    "station": "funicular",
    "uic_name": "Linthal Braunwaldbahn (Talstation)",
    "uic_ref": "8503260",
    "website": "https://braunwald.ch/de/map/detail/braunwald-standseilbahn-ag-0b116a0d-60d2-405c-844b-cbba3faf23e0.html"
  }
},
{
  "type": "node",
  "id": 57476561,
  "lat": 46.9387886,
  "lon": 8.9985647,
  "tags": {
    "alt_name": "Linthal Braunwaldbahn (Bergstation)",
    "email": "info@braunwaldbahn.ch",
    "funicular": "yes",
    "name": "Braunwald",
    "network": "Ostwind",
    "operator": "BRSB",
    "phone": "+41 55 653 50 38",
    "public_transport": "stop_position",
    "railway": "station",
    "station": "funicular",
    "uic_name": "Braunwald",
    "uic_ref": "8503261",
    "website": "https://braunwald.ch/de/map/detail/braunwald-standseilbahn-ag-0b116a0d-60d2-405c-844b-cbba3faf23e0.html",
    "wheelchair": "limited"
  }
},
{
  "type": "node",
  "id": 60769200,
  "lat": 47.4109478,
  "lon": 9.4426432,
  "tags": {
    "ele": "924",
    "name": "Speicher",
    "nat_name": "Speicher",
    "network": "Ostwind",
    "network:wikidata": "Q2394207",
    "operator": "AB-tb",
    "public_transport": "station",
    "railway": "station",
    "train": "yes",
    "uic_name": "Speicher",
    "uic_ref": "8506366",
    "wikidata": "Q33506780"
  }
},
{
  "type": "node",
  "id": 81321512,
  "lat": 47.5329301,
  "lon": 9.0690790,
  "tags": {
    "ele": "506",
    "name": "Märwil",
    "network": "Ostwind",
    "operator": "SBB",
    "public_transport": "station",
    "railway": "station",
    "railway:ref": "MAE",
    "transport:zone": "919",
    "uic_name": "Märwil",
    "uic_ref": "8506184",
    "wikidata": "Q33505548"
  }
},
{
  "type": "node",
  "id": 85763770,
  "lat": 46.5138253,
  "lon": 9.8584334,
  "tags": {
    "ele": "1730",
    "name": "Celerina/Schlarigna",
    "name:de": "Celerina",
    "name:rm": "Schlarigna",
    "network": "RhB",
    "network:wikidata": "Q2204412",
    "operator": "RhB",
    "operator:wikidata": "Q177598",
    "public_transport": "station",
    "railway": "station",
    "railway:ref": "CELE",
    "train": "yes",
    "uic_name": "Celerina",
    "uic_ref": "8509252",
    "wheelchair": "no",
    "wikidata": "Q5057816",
    "wikimedia_commons": "Category:Celerina railway station",
    "wikipedia": "en:Celerina (Rhaetian Railway station)"
  }
},
{
  "type": "node",
  "id": 85763797,
  "lat": 46.5495496,
  "lon": 9.8881843,
  "tags": {
    "ele": "1714",
    "name": "Bever",
    "network": "RhB",
    "network:wikidata": "Q2204412",
    "operator": "RhB",
    "operator:wikidata": "Q177598",
    "public_transport": "station",
    "railway": "station",
    "railway:ref": "BEV",
    "train": "yes",
    "uic_name": "Bever",
    "uic_ref": "8509250",
    "wikidata": "Q4899363",
    "wikipedia": "en:Bever (Rhaetian Railway station)"
  }
},
{
  "type": "node",
  "id": 102387395,
  "lat": 47.3873301,
  "lon": 8.5533362,
  "tags": {
    "alt_name": "Seilbahn Rigiblick (Bergstation)",
    "ele": "585.07",
    "funicular": "yes",
    "name": "Rigiblick",
    "network": "ZVV",
    "network:wikidata": "Q201977",
    "operator": "VBZ",
    "public_transport": "stop_position",
    "railway": "station",
    "ref": "2090",
    "station": "funicular",
    "uic_name": "Zürich, Rigiblick",
    "uic_ref": "8530473",
    "wheelchair": "yes"
  }
},
{
  "type": "node",
  "id": 108092258,
  "lat": 47.5388525,
  "lon": 9.1836253,
  "tags": {
    "ele": "449",
    "name": "Sulgen",
    "network": "Ostwind",
    "operator": "SBB",
    "public_transport": "station",
    "railway": "station",
    "railway:ref": "SLG",
    "uic_name": "Sulgen",
    "uic_ref": "8506217",
    "wheelchair": "yes",
    "wikidata": "Q801492"
  }
},
{
  "type": "node",
  "id": 130246905,
  "lat": 47.3858838,
  "lon": 8.5489474,
  "tags": {
    "alt_name": "Seilbahn Rigiblick (Talstation)",
    "ele": "489.47",
    "funicular": "yes",
    "name": "Seilbahn Rigiblick",
    "network": "ZVV",
    "network:wikidata": "Q201977",
    "operator": "VBZ",
    "public_transport": "stop_position",
    "railway": "station",
    "ref": "2367",
    "station": "funicular",
    "uic_name": "Zürich, Seilbahn Rigiblick",
    "uic_ref": "8591362",
    "wheelchair": "yes"
  }
},
{
  "type": "node",
  "id": 187228398,
  "lat": 46.5043881,
  "lon": 7.2908891,
  "tags": {
    "ele": "1231",
    "name": "Schönried",
    "operator": "MOB",
    "railway": "station",
    "railway:ref": "SCR",
    "uic_name": "Schönried",
    "uic_ref": "8507271",
    "wikidata": "Q33507623"
  }
},
{
  "type": "node",
  "id": 205214880,
  "lat": 46.4507365,
  "lon": 9.9404320,
  "tags": {
    "ele": "1896",
    "name": "Morteratsch",
    "network": "RhB",
    "not:network:wikidata": "Q2204412",
    "operator": "RhB",
    "operator:wikidata": "Q177598",
    "public_transport": "station",
    "railway": "station",
    "railway:ref": "MOTA",
    "train": "yes",
    "uic_name": "Morteratsch",
    "uic_ref": "8509353",
    "wheelchair": "yes",
    "wikidata": "Q6914572",
    "wikimedia_commons": "Category:Morteratsch railway station",
    "wikipedia": "en:Morteratsch (Rhaetian Railway station)"
  }
},
{
  "type": "node",
  "id": 205214903,
  "lat": 46.4855344,
  "lon": 9.9060742,
  "tags": {
    "ele": "1822",
    "name": "Surovas",
    "operator": "RhB",
    "operator:wikidata": "Q177598",
    "public_transport": "station",
    "railway": "station",
    "railway:ref": "SURO",
    "uic_name": "Surovas",
    "uic_ref": "8509352",
    "wheelchair": "limited",
    "wikidata": "Q10640070",
    "wikipedia": "en:Surovas (Rhaetian Railway station)"
  }
},
{
  "type": "node",
  "id": 206936372,
  "lat": 46.6935439,
  "lon": 6.9120499,
  "tags": {
    "ele": "707",
    "image": "https://upload.wikimedia.org/wikipedia/commons/b/b2/Romont_railway_station.jpg",
    "name": "Romont",
    "operator": "SBB",
    "public_transport": "station",
    "railway": "station",
    "railway:ref": "ROM",
    "uic_name": "Romont FR",
    "uic_ref": "8504023",
    "wikidata": "Q5847067",
    "wikimedia_commons": "Category:Romont railway station",
    "wikipedia": "fr:Gare de Romont (Fribourg)"
  }
},
{
  "type": "node",
  "id": 240025600,
  "lat": 46.2140680,
  "lon": 7.8368878,
  "tags": {
    "ele": "897",
    "name": "Kalpetran",
    "operator": "MGB",
    "public_transport": "stop_position",
    "railway": "station",
    "train": "yes",
    "uic_name": "Kalpetran",
    "uic_ref": "8501684",
    "wheelchair": "yes",
    "wikidata": "Q33450811"
  }
},
{
  "type": "node",
  "id": 240025702,
  "lat": 46.1774046,
  "lon": 7.8019571,
  "tags": {
    "ele": "1127",
    "name": "St. Niklaus",
    "operator": "MGB",
    "public_transport": "platform",
    "railway": "station",
    "uic_name": "St. Niklaus VS",
    "uic_ref": "8501685",
    "wheelchair": "yes",
    "wikidata": "Q33450837"
  }
},
{
  "type": "node",
  "id": 240052658,
  "lat": 46.0998984,
  "lon": 7.7815278,
  "tags": {
    "ele": "1406",
    "image": "https://commons.wikimedia.org/wiki/Category:Randa_train_station#/media/File:Randa-Station-1.jpg",
    "name": "Randa",
    "operator": "MGB",
    "public_transport": "platform",
    "railway": "station",
    "uic_name": "Randa",
    "uic_ref": "8501687",
    "wikidata": "Q33450891"
  }
},
{
  "type": "node",
  "id": 240052843,
  "lat": 46.0671754,
  "lon": 7.7745399,
  "tags": {
    "ele": "1438",
    "name": "Täsch",
    "operator": "MGB",
    "railway": "station",
    "uic_name": "Täsch",
    "uic_ref": "8501688",
    "wheelchair": "yes",
    "wikidata": "Q7862167"
  }
},
{
  "type": "node",
  "id": 240052938,
  "lat": 46.0245732,
  "lon": 7.7481294,
  "tags": {
    "ele": "1605",
    "name": "Zermatt",
    "operator": "MGB",
    "public_transport": "station",
    "railway": "station",
    "toilets:wheelchair": "yes",
    "train": "yes",
    "uic_name": "Zermatt",
    "uic_ref": "8501689",
    "wheelchair": "yes",
    "wikidata": "Q8069422",
    "wikimedia_commons": "Category:Zermatt railway station",
    "wikipedia": "de:Brig-Visp-Zermatt-Bahn#Bahnhof_Zermatt"
  }
},
{
  "type": "node",
  "id": 240135050,
  "lat": 46.0172947,
  "lon": 7.7700623,
  "tags": {
    "ele": "1604",
    "funicular": "yes",
    "name": "Sunnegga Paradise",
    "operator": "ZBAG",
    "public_transport": "stop_position",
    "railway": "station",
    "station": "funicular",
    "toilets:wheelchair": "no",
    "wheelchair": "yes"
  }
},
{
  "type": "node",
  "id": 243715751,
  "lat": 47.5214389,
  "lon": 9.0335783,
  "tags": {
    "ele": "511",
    "name": "Tobel-Affeltrangen",
    "network": "Ostwind",
    "operator": "SBB",
    "public_transport": "station",
    "railway": "station",
    "railway:ref": "TOA",
    "transport:zone": "919",
    "uic_name": "Tobel-Affeltrangen",
    "uic_ref": "8506183",
    "wheelchair": "yes",
    "wikidata": "Q33505531"
  }
},
{
  "type": "node",
  "id": 243715773,
  "lat": 47.4985759,
  "lon": 9.0209313,
  "tags": {
    "ele": "546",
    "name": "Bettwiesen",
    "network": "Ostwind",
    "operator": "SBB",
    "public_transport": "station",
    "railway": "station",
    "railway:ref": "BTW",
    "transport:zone": "915",
    "uic_name": "Bettwiesen",
    "uic_ref": "8506182",
    "wheelchair": "yes",
    "wikidata": "Q33505514"
  }
},
{
  "type": "node",
  "id": 243717690,
  "lat": 47.3195919,
  "lon": 9.0831877,
  "tags": {
    "ele": "616",
    "name": "Lichtensteig",
    "operator": "SOB",
    "public_transport": "station",
    "railway": "station",
    "railway:ref": "LSG",
    "uic_name": "Lichtensteig",
    "uic_ref": "8506201",
    "wheelchair": "yes",
    "wikidata": "Q33505684"
  }
},
{
  "type": "node",
  "id": 243717707,
  "lat": 47.2994967,
  "lon": 9.0865467,
  "tags": {
    "ele": "614",
    "name": "Wattwil",
    "operator": "SOB",
    "public_transport": "station",
    "railway": "station",
    "railway:ref": "WA",
    "uic_name": "Wattwil",
    "uic_ref": "8506200",
    "wheelchair": "yes",
    "wikidata": "Q5847525",
    "wikimedia_commons": "Category:Wattwil railway station",
    "wikipedia": "de:Bahnhof Wattwil"
  }
},
{
  "type": "node",
  "id": 247119169,
  "lat": 46.0225060,
  "lon": 7.7517316,
  "tags": {
    "ele": "1604",
    "funicular": "yes",
    "name": "Sunneggabahn Talstation",
    "operator": "ZBAG",
    "public_transport": "stop_position",
    "railway": "station",
    "station": "funicular",
    "uic_name": "Zermatt (Talstation Sunnegga)",
    "uic_ref": "8530212",
    "wheelchair": "yes"
  }
},
{
  "type": "node",
  "id": 252819120,
  "lat": 47.1440392,
  "lon": 8.5328270,
  "tags": {
    "alt_name": "Zugerberg (Bergstation)",
    "ele": "927",
    "funicular": "yes",
    "name": "Zugerberg",
    "operator": "ZBB",
    "public_transport": "stop_position",
    "railway": "station",
    "station": "funicular",
    "uic_name": "Zugerberg",
    "uic_ref": "8502292"
  }
},
{
  "type": "node",
  "id": 252819128,
  "lat": 47.1513720,
  "lon": 8.5210904,
  "tags": {
    "alt_name": "Zugerberg (Talstation)",
    "ele": "561",
    "funicular": "yes",
    "name": "Schönegg",
    "operator": "ZBB",
    "public_transport": "stop_position",
    "railway": "station",
    "station": "funicular",
    "uic_name": "Schönegg",
    "uic_ref": "8502291"
  }
},
{
  "type": "node",
  "id": 253238168,
  "lat": 46.6571696,
  "lon": 6.5523811,
  "tags": {
    "ele": "455",
    "name": "Eclépens",
    "operator": "SBB",
    "public_transport": "station",
    "railway": "station",
    "railway:ref": "ECL",
    "uic_name": "Eclépens",
    "uic_ref": "8501114",
    "wikidata": "Q12174796"
  }
},
{
  "type": "node",
  "id": 254374885,
  "lat": 46.9046795,
  "lon": 6.5813154,
  "tags": {
    "ele": "742",
    "name": "Fleurier",
    "operator": "TransN",
    "public_transport": "station",
    "railway": "station",
    "railway:ref": "FLE",
    "uic_name": "Fleurier",
    "uic_ref": "8504287",
    "wheelchair": "yes",
    "wikidata": "Q33465144"
  }
},
{
  "type": "node",
  "id": 254841922,
  "lat": 47.0029246,
  "lon": 8.3824340,
  "tags": {
    "addr:city": "Kehrsiten",
    "addr:housenumber": "16",
    "addr:postcode": "6365",
    "addr:street": "Hinterberg",
    "ele": "435",
    "name": "Kehrsiten-Bürgenstock",
    "operator": "Bürgenstockbahn (BB)",
    "public_transport": "station",
    "railway": "station",
    "station": "funicular",
    "train": "yes",
    "uic_name": "Kehrsiten-Bürgenstock BB",
    "uic_ref": "8508490",
    "wheelchair": "yes"
  }
},
{
  "type": "node",
  "id": 254841932,
  "lat": 46.9968310,
  "lon": 8.3785863,
  "tags": {
    "addr:city": "Obbürgen",
    "addr:housenumber": "17",
    "addr:postcode": "6363",
    "addr:street": "Bürgenstockstrasse",
    "ele": "874",
    "name": "Bürgenstock Resort",
    "operator": "Bürgenstockbahn (BB)",
    "phone": "+41 41 612 60 00",
    "public_transport": "station",
    "railway": "station",
    "station": "funicular",
    "train": "yes",
    "uic_name": "Bürgenstock Resort",
    "uic_ref": "8508491"
  }
},
{
  "type": "node",
  "id": 255670378,
  "lat": 46.1712584,
  "lon": 8.7996544,
  "tags": {
    "ele": "205",
    "funicular": "yes",
    "name": "Locarno FLMS",
    "operator": "FLMS",
    "public_transport": "station",
    "railway": "station",
    "station": "funicular",
    "uic_name": "Locarno Funicolare",
    "uic_ref": "8530670",
    "wheelchair": "no"
  }
},
{
  "type": "node",
  "id": 256445955,
  "lat": 46.5097368,
  "lon": 9.8650492,
  "tags": {
    "ele": "1716,1",
    "name": "Celerina Staz",
    "operator": "RhB",
    "operator:wikidata": "Q177598",
    "railway": "station",
    "railway:ref": "CELS",
    "uic_name": "Celerina Staz",
    "uic_ref": "8509350",
    "wikidata": "Q5057814",
    "wikipedia": "en:Celerina Staz (Rhaetian Railway station)"
  }
},
{
  "type": "node",
  "id": 256446013,
  "lat": 46.4906964,
  "lon": 9.8963981,
  "tags": {
    "ele": "1774",
    "name": "Pontresina",
    "network": "RhB",
    "network:wikidata": "Q2204412",
    "operator": "RhB",
    "operator:wikidata": "Q177598",
    "public_transport": "station",
    "railway": "station",
    "railway:ref": "PORE",
    "train": "yes",
    "uic_name": "Pontresina",
    "uic_ref": "8509255",
    "wheelchair": "yes",
    "wikidata": "Q7228365",
    "wikipedia": "en:Pontresina (Rhaetian Railway station)"
  }
},
{
  "type": "node",
  "id": 256451508,
  "lat": 46.4450930,
  "lon": 9.9691597,
  "tags": {
    "ele": "2046",
    "name": "Bernina Suot",
    "network": "RhB",
    "network:wikidata": "Q2204412",
    "operator": "RhB",
    "operator:wikidata": "Q177598",
    "public_transport": "station",
    "railway": "station",
    "railway:ref": "BESU",
    "train": "yes",
    "uic_name": "Bernina Suot",
    "uic_ref": "8509354",
    "wikidata": "Q4894541",
    "wikimedia_commons": "Category:Bernina Suot railway station",
    "wikipedia": "en:Bernina Suot (Rhaetian Railway station)"
  }
},
{
  "type": "node",
  "id": 256455632,
  "lat": 46.4363388,
  "lon": 9.9915324,
  "tags": {
    "ele": "2099",
    "name": "Bernina Lagalb",
    "operator": "RhB",
    "operator:wikidata": "Q177598",
    "public_transport": "station",
    "railway": "station",
    "railway:ref": "BELA",
    "uic_name": "Bernina Lagalb",
    "uic_ref": "8509373",
    "wikidata": "Q4894538",
    "wikipedia": "en:Bernina Lagalb (Rhaetian Railway station)"
  }
},
{
  "type": "node",
  "id": 256455728,
  "lat": 46.4087587,
  "lon": 10.0198642,
  "tags": {
    "ele": "2253",
    "name": "Ospizio Bernina",
    "operator": "RhB",
    "operator:wikidata": "Q177598",
    "railway": "station",
    "railway:ref": "OSBE",
    "uic_name": "Ospizio Bernina",
    "uic_ref": "8509356",
    "wheelchair": "no",
    "wikidata": "Q686930",
    "wikipedia": "de:Bahnhof Ospizio Bernina"
  }
},
{
  "type": "node",
  "id": 256458497,
  "lat": 46.3745132,
  "lon": 10.0312223,
  "tags": {
    "ele": "2091",
    "image": "https://upload.wikimedia.org/wikipedia/commons/1/17/2011-08-02_13-05-12_Switzerland_Alp_Gr%C3%BCm.jpg",
    "name": "Alp Grüm",
    "network": "engadin mobil",
    "operator": "Ferrovia retica",
    "operator:de": "Rhätische Bahn",
    "operator:rm": "Viafier retica",
    "operator:wikidata": "Q177598",
    "public_transport": "station",
    "railway": "station",
    "railway:ref": "ALGR",
    "train": "yes",
    "uic_name": "Alp Grüm",
    "uic_ref": "8509357",
    "wikidata": "Q870514",
    "wikimedia_commons": "Category:Alp Grüm railway station",
    "wikipedia": "it:Stazione di Alp Grüm"
  }
},
{
  "type": "node",
  "id": 256459553,
  "lat": 46.3642292,
  "lon": 10.0439767,
  "tags": {
    "ele": "1692",
    "name": "Cavaglia",
    "operator": "RhB",
    "operator:wikidata": "Q177598",
    "public_transport": "station",
    "railway": "station",
    "railway:ref": "CAVA",
    "uic_name": "Cavaglia",
    "uic_ref": "8509358",
    "wikidata": "Q766046",
    "wikipedia": "en:Cavaglia (Rhaetian Railway station)"
  }
},
{
  "type": "node",
  "id": 256494674,
  "lat": 46.3452509,
  "lon": 10.0514140,
  "tags": {
    "ele": "1383",
    "name": "Cadera",
    "operator": "RhB",
    "operator:wikidata": "Q177598",
    "public_transport": "station",
    "railway": "station",
    "railway:ref": "CADE",
    "train": "yes",
    "uic_name": "Cadera",
    "uic_ref": "8509359",
    "wikidata": "Q5016390",
    "wikipedia": "en:Cadera (Rhaetian Railway station)"
  }
},
{
  "type": "node",
  "id": 256496188,
  "lat": 46.3246452,
  "lon": 10.0545003,
  "tags": {
    "ele": "1014",
    "name": "Poschiavo",
    "name:de": "Puschlav",
    "network": "RhB",
    "operator": "RhB",
    "operator:wikidata": "Q177598",
    "public_transport": "station",
    "railway": "station",
    "railway:ref": "POS",
    "train": "yes",
    "uic_name": "Poschiavo",
    "uic_ref": "8509361",
    "wheelchair": "yes",
    "wikidata": "Q10640085",
    "wikipedia": "en:Poschiavo (Rhaetian Railway station)"
  }
},
{
  "type": "node",
  "id": 257555031,
  "lat": 46.7916727,
  "lon": 9.2754924,
  "tags": {
    "ele": "669",
    "name": "Valendas-Sagogn",
    "operator": "RhB",
    "operator:wikidata": "Q177598",
    "public_transport": "station",
    "railway": "station",
    "railway:ref": "VASA",
    "train": "yes",
    "uic_name": "Valendas-Sagogn",
    "uic_ref": "8509169",
    "wheelchair": "no",
    "wikidata": "Q7910694",
    "wikimedia_commons": "Category:Valendas-Sagogn railway station",
    "wikipedia": "en:Valendas-Sagogn (Rhaetian Railway station)"
  }
},
{
  "type": "node",
  "id": 258400840,
  "lat": 46.7783921,
  "lon": 9.2328803,
  "tags": {
    "ele": "655",
    "name": "Castrisch",
    "operator": "RhB",
    "operator:wikidata": "Q177598",
    "public_transport": "station",
    "railway": "station",
    "railway:ref": "CASR",
    "train": "yes",
    "uic_name": "Castrisch",
    "uic_ref": "8509170",
    "wikidata": "Q5050776",
    "wikipedia": "en:Castrisch (Rhaetian Railway station)"
  }
},
{
  "type": "node",
  "id": 258400869,
  "lat": 46.7752509,
  "lon": 9.2076906,
  "tags": {
    "ele": "698",
    "name": "Ilanz/Glion",
    "name:de": "Ilanz",
    "name:rm": "Glion",
    "network": "RhB",
    "network:wikidata": "Q2204412",
    "operator": "RhB",
    "operator:wikidata": "Q177598",
    "public_transport": "station",
    "railway": "station",
    "railway:ref": "ILZ",
    "train": "yes",
    "uic_name": "Ilanz",
    "uic_ref": "8509171",
    "wheelchair": "yes",
    "wikidata": "Q800945",
    "wikimedia_commons": "Category:Ilanz railway station",
    "wikipedia": "en:Ilanz (Rhaetian Railway station)"
  }
},
{
  "type": "node",
  "id": 258404237,
  "lat": 46.7748321,
  "lon": 9.1455118,
  "tags": {
    "ele": "733",
    "name": "Rueun",
    "operator": "RhB",
    "operator:wikidata": "Q177598",
    "public_transport": "station",
    "railway": "station",
    "railway:ref": "RUEU",
    "uic_name": "Rueun",
    "uic_ref": "8509173",
    "wheelchair": "yes",
    "wikidata": "Q7377865",
    "wikipedia": "en:Rueun (Rhaetian Railway station)"
  }
},
{
  "type": "node",
  "id": 258404264,
  "lat": 46.7696129,
  "lon": 9.1200533,
  "tags": {
    "ele": "744",
    "name": "Waltensburg/Vuorz",
    "network": "RhB",
    "network:wikidata": "Q2204412",
    "operator": "RhB",
    "operator:wikidata": "Q177598",
    "public_transport": "station",
    "railway": "station",
    "railway:ref": "VESA",
    "train": "yes",
    "uic_name": "Waltensburg/Vuorz",
    "uic_ref": "8509174",
    "wikidata": "Q7964100",
    "wikipedia": "en:Waltensburg/Vuorz (Rhaetian Railway station)"
  }
},
{
  "type": "node",
  "id": 258509057,
  "lat": 46.7546747,
  "lon": 9.0627184,
  "tags": {
    "ele": "788",
    "name": "Tavanasa-Breil/Brigels",
    "operator": "RhB",
    "operator:wikidata": "Q177598",
    "public_transport": "station",
    "railway": "station",
    "railway:ref": "TABR",
    "uic_name": "Tavanasa-Breil/Brigels",
    "uic_ref": "8509175",
    "wheelchair": "limited",
    "wikidata": "Q7689014",
    "wikipedia": "en:Tavanasa-Breil/Brigels (Rhaetian Railway station)"
  }
},
{
  "type": "node",
  "id": 258509119,
  "lat": 46.7426507,
  "lon": 8.9905967,
  "tags": {
    "ele": "852",
    "name": "Trun",
    "operator": "RhB",
    "operator:wikidata": "Q177598",
    "public_transport": "station",
    "railway": "station",
    "railway:ref": "TRUN",
    "uic_name": "Trun",
    "uic_ref": "8509176",
    "wheelchair": "limited",
    "wikidata": "Q7847840",
    "wikipedia": "en:Trun (Rhaetian Railway station)"
  }
},
{
  "type": "node",
  "id": 258509146,
  "lat": 46.7325592,
  "lon": 8.9572170,
  "tags": {
    "ele": "928",
    "name": "Rabius-Surrein",
    "operator": "RhB",
    "operator:wikidata": "Q177598",
    "railway": "station",
    "railway:ref": "RASU",
    "uic_name": "Rabius-Surrein",
    "uic_ref": "8509177",
    "wikidata": "Q7278781",
    "wikipedia": "en:Rabius-Surrein (Rhaetian Railway station)"
  }
},
{
  "type": "node",
  "id": 258510891,
  "lat": 46.7240752,
  "lon": 8.9310499,
  "tags": {
    "ele": "982",
    "name": "Sumvitg-Cumpadials",
    "operator": "RhB",
    "operator:wikidata": "Q177598",
    "public_transport": "station",
    "railway": "station",
    "railway:ref": "SUCU",
    "uic_name": "Sumvitg-Cumpadials",
    "uic_ref": "8509178",
    "wikidata": "Q7638102",
    "wikimedia_commons": "Category:Sumvitg-Cumpadials railway station",
    "wikipedia": "en:Sumvitg-Cumpadials (Rhaetian Railway station)"
  }
},
{
  "type": "node",
  "id": 258541175,
  "lat": 46.6821150,
  "lon": 8.8265522,
  "tags": {
    "ele": "1394",
    "name": "Mumpé Tujetsch",
    "operator": "MGB",
    "public_transport": "station",
    "railway": "station",
    "uic_name": "Mumpé Tujetsch",
    "uic_ref": "8505178",
    "wikidata": "Q33467490"
  }
},
{
  "type": "node",
  "id": 262012132,
  "lat": 46.5270926,
  "lon": 6.4474684,
  "tags": {
    "ele": "506",
    "name": "Bussy-Chardonney",
    "operator": "MBC",
    "public_transport": "station",
    "railway": "station",
    "uic_name": "Bussy-Chardonney",
    "uic_ref": "8501092",
    "wikidata": "Q33442407"
  }
},
{
  "type": "node",
  "id": 262211081,
  "lat": 47.1893276,
  "lon": 7.1073138,
  "tags": {
    "ele": "677",
    "name": "Cortébert",
    "operator": "SBB",
    "public_transport": "station",
    "railway": "station",
    "railway:ref": "CO",
    "uic_name": "Cortébert",
    "uic_ref": "8504306",
    "wikidata": "Q31452842"
  }
},
{
  "type": "node",
  "id": 262595870,
  "lat": 47.3186140,
  "lon": 8.7917770,
  "tags": {
    "amenity": "bus_station",
    "bus": "yes",
    "internet_access": "wlan",
    "internet_access:fee": "no",
    "name": "Wetzikon ZH, Bahnhof",
    "public_transport": "station",
    "wheelchair": "yes"
  }
},
{
  "type": "node",
  "id": 263825515,
  "lat": 47.6424037,
  "lon": 9.1623911,
  "tags": {
    "ele": "461",
    "name": "Bernrain",
    "operator": "SBB",
    "public_transport": "station",
    "railway": "station",
    "railway:ref": "KRB",
    "uic_name": "Kreuzlingen Bernrain",
    "uic_ref": "8506197",
    "wheelchair": "yes",
    "wikidata": "Q33505655"
  }
},
{
  "type": "node",
  "id": 263825561,
  "lat": 47.6263257,
  "lon": 9.1896510,
  "tags": {
    "ele": "509",
    "name": "Lengwil",
    "operator": "SBB",
    "public_transport": "station",
    "railway": "station",
    "railway:ref": "LENG",
    "uic_name": "Lengwil",
    "uic_ref": "8506196",
    "wikidata": "Q33505647"
  }
},
{
  "type": "node",
  "id": 263825644,
  "lat": 47.5821466,
  "lon": 9.1743799,
  "tags": {
    "ele": "554",
    "name": "Berg",
    "operator": "SBB",
    "public_transport": "station",
    "railway": "station",
    "railway:ref": "BERG",
    "uic_name": "Berg",
    "uic_ref": "8506194",
    "wheelchair": "yes",
    "wikidata": "Q33505628"
  }
},
{
  "type": "node",
  "id": 263828133,
  "lat": 47.5514790,
  "lon": 9.2262099,
  "tags": {
    "ele": "449",
    "name": "Erlen",
    "operator": "SBB",
    "public_transport": "station",
    "railway": "station",
    "railway:ref": "ERL",
    "uic_name": "Erlen",
    "uic_ref": "8506107",
    "wheelchair": "no",
    "wikidata": "Q5550634"
  }
},
{
  "type": "node",
  "id": 263830918,
  "lat": 47.5504136,
  "lon": 9.3023047,
  "tags": {
    "ele": "437",
    "name": "Amriswil",
    "operator": "SBB",
    "public_transport": "station",
    "railway": "station",
    "uic_name": "Amriswil",
    "uic_ref": "8506109",
    "wheelchair": "yes",
    "wikidata": "Q5845683"
  }
},
{
  "type": "node",
  "id": 264552651,
  "lat": 46.4536346,
  "lon": 6.9434565,
  "tags": {
    "ele": "970",
    "name": "Les Avants",
    "operator": "MOB",
    "railway": "station",
    "railway:ref": "AVA",
    "uic_name": "Les Avants",
    "uic_ref": "8501377",
    "wikidata": "Q33446001"
  }
},
{
  "type": "node",
  "id": 265569083,
  "lat": 47.2700847,
  "lon": 8.7210904,
  "tags": {
    "amenity": "bus_station",
    "bus": "yes",
    "ele": "542",
    "name": "Oetwil am See, Zentrum",
    "operator": "VZO",
    "public_transport": "station",
    "uic_name": "Oetwil am See, Zentrum",
    "uic_ref": "8503184"
  }
},
{
  "type": "node",
  "id": 265649369,
  "lat": 46.9680165,
  "lon": 9.6881007,
  "tags": {
    "ele": "654",
    "name": "Schiers",
    "network": "RhB",
    "network:wikidata": "Q2204412",
    "operator": "RhB",
    "operator:wikidata": "Q177598",
    "public_transport": "station",
    "railway": "station",
    "railway:ref": "SCRS",
    "train": "yes",
    "uic_name": "Schiers",
    "uic_ref": "8509060",
    "wheelchair": "yes",
    "wikidata": "Q7431273",
    "wikipedia": "en:Schiers (Rhaetian Railway station)"
  }
},
{
  "type": "node",
  "id": 265649390,
  "lat": 46.9142005,
  "lon": 9.7717856,
  "tags": {
    "ele": "810",
    "name": "Küblis",
    "network": "RhB",
    "network:wikidata": "Q2204412",
    "operator": "RhB",
    "operator:wikidata": "Q177598",
    "public_transport": "station",
    "railway": "station",
    "railway:ref": "KUEB",
    "toilets:wheelchair": "yes",
    "train": "yes",
    "uic_name": "Küblis",
    "uic_ref": "8509064",
    "wheelchair": "yes",
    "wikidata": "Q6441284",
    "wikipedia": "en:Kublis (Rhaetian Railway station)"
  }
},
{
  "type": "node",
  "id": 265654508,
  "lat": 46.8705207,
  "lon": 9.8680074,
  "tags": {
    "ele": "1352",
    "name": "Cavadürli",
    "network": "RhB",
    "network:wikidata": "Q2204412",
    "operator": "RhB",
    "operator:wikidata": "Q177598",
    "public_transport": "station",
    "railway": "station",
    "railway:ref": "CDUE",
    "train": "yes",
    "uic_name": "Cavadürli",
    "uic_ref": "8509069",
    "wikidata": "Q5054733",
    "wikipedia": "en:Cavadürli (Rhaetian Railway station)"
  }
},
{
  "type": "node",
  "id": 265654564,
  "lat": 46.8481452,
  "lon": 9.8732389,
  "tags": {
    "ele": "1522",
    "name": "Davos Laret",
    "network": "RhB",
    "network:wikidata": "Q2204412",
    "operator": "RhB",
    "operator:wikidata": "Q177598",
    "public_transport": "station",
    "railway": "station",
    "railway:ref": "DALT",
    "train": "yes",
    "uic_name": "Davos Laret",
    "uic_ref": "8509070",
    "wikidata": "Q5242112",
    "wikipedia": "en:Davos Laret (Rhaetian Railway station)"
  }
},
{
  "type": "node",
  "id": 265790277,
  "lat": 46.7667212,
  "lon": 9.7993629,
  "tags": {
    "ele": "1505",
    "name": "Davos Frauenkirch",
    "network": "RhB",
    "network:wikidata": "Q2204412",
    "operator": "RhB",
    "operator:wikidata": "Q177598",
    "public_transport": "station",
    "railway": "station",
    "railway:ref": "DAF",
    "train": "yes",
    "uic_name": "Davos Frauenkirch",
    "uic_ref": "8509075",
    "wikidata": "Q5242110",
    "wikipedia": "en:Davos Frauenkirch (Rhaetian Railway station)"
  }
},
{
  "type": "node",
  "id": 265790339,
  "lat": 46.7453215,
  "lon": 9.7798394,
  "tags": {
    "ele": "1454",
    "name": "Davos Glaris",
    "network": "RhB",
    "network:wikidata": "Q2204412",
    "operator": "RhB",
    "operator:wikidata": "Q177598",
    "public_transport": "station",
    "railway": "station",
    "railway:ref": "DAGL",
    "train": "yes",
    "uic_name": "Davos Glaris",
    "uic_ref": "8509076",
    "wikidata": "Q5242111",
    "wikipedia": "en:Davos Glaris (Rhaetian Railway station)"
  }
},
{
  "type": "node",
  "id": 266196878,
  "lat": 46.8166075,
  "lon": 9.3593937,
  "tags": {
    "ele": "609",
    "name": "Trin",
    "network": "RhB",
    "network:wikidata": "Q2204412",
    "operator": "RhB",
    "operator:wikidata": "Q177598",
    "public_transport": "station",
    "railway": "station",
    "railway:ref": "TRIN",
    "train": "yes",
    "uic_name": "Trin",
    "uic_ref": "8509167",
    "wikidata": "Q7842275",
    "wikipedia": "en:Trin (Rhaetian Railway station)"
  }
},
{
  "type": "node",
  "id": 266199247,
  "lat": 46.5788653,
  "lon": 9.9239645,
  "tags": {
    "ele": "1697.7",
    "name": "La Punt Chamues-ch",
    "network": "RhB",
    "network:wikidata": "Q2204412",
    "old_name": "La Punt-Chamues-ch",
    "operator": "RhB",
    "operator:wikidata": "Q177598",
    "public_transport": "station",
    "railway": "station",
    "railway:ref": "LAPU",
    "train": "yes",
    "uic_name": "La Punt Chamues-ch",
    "uic_ref": "8509256",
    "wikidata": "Q6464663",
    "wikimedia_commons": "Category:La Punt Chamues-ch railway station",
    "wikipedia": "en:La Punt Chamues-ch railway station"
  }
},
{
  "type": "node",
  "id": 266199297,
  "lat": 46.6119824,
  "lon": 9.9820457,
  "tags": {
    "ele": "1670",
    "name": "S-chanf",
    "network": "RhB",
    "network:wikidata": "Q2204412",
    "operator": "RhB",
    "operator:wikidata": "Q177598",
    "public_transport": "station",
    "railway": "station",
    "railway:ref": "SCAN",
    "train": "yes",
    "uic_name": "S-chanf",
    "uic_ref": "8509259",
    "wikidata": "Q7387100",
    "wikipedia": "en:S-chanf (Rhaetian Railway station)"
  }
},
{
  "type": "node",
  "id": 266203328,
  "lat": 46.6378150,
  "lon": 10.0217064,
  "tags": {
    "ele": "1640",
    "name": "Cinuos-chel-Brail",
    "network": "RhB",
    "network:wikidata": "Q2204412",
    "operator": "RhB",
    "operator:wikidata": "Q177598",
    "public_transport": "station",
    "railway": "station",
    "railway:ref": "CIN",
    "train": "yes",
    "uic_name": "Cinuos-chel-Brail",
    "uic_ref": "8509260",
    "wikidata": "Q5121124",
    "wikipedia": "en:Cinuos-chel-Brail (Rhaetian Railway station)"
  }
},
{
  "type": "node",
  "id": 266207902,
  "lat": 46.7520148,
  "lon": 10.0794387,
  "tags": {
    "ele": "1435",
    "name": "Susch",
    "network": "RhB",
    "network:wikidata": "Q2204412",
    "operator": "RhB",
    "operator:wikidata": "Q177598",
    "public_transport": "station",
    "railway": "station",
    "railway:ref": "SUS",
    "train": "yes",
    "uic_name": "Susch",
    "uic_ref": "8509263",
    "wheelchair": "limited",
    "wikidata": "Q7648841",
    "wikipedia": "en:Susch (Rhaetian Railway station)"
  }
},
{
  "type": "node",
  "id": 266207958,
  "lat": 46.7696534,
  "lon": 10.1110912,
  "tags": {
    "departures_board": "realtime",
    "ele": "1432",
    "name": "Lavin",
    "network": "RhB",
    "network:wikidata": "Q2204412",
    "operator": "RhB",
    "operator:wikidata": "Q177598",
    "passenger_information_display": "yes",
    "public_transport": "station",
    "railway": "station",
    "railway:ref": "LAVI",
    "shelter": "yes",
    "tactile_paving": "yes",
    "train": "yes",
    "uic_name": "Lavin",
    "uic_ref": "8509264",
    "wheelchair": "limited",
    "wikidata": "Q6502683",
    "wikipedia": "en:Lavin (Rhaetian Railway station)"
  }
},
{
  "type": "node",
  "id": 266208069,
  "lat": 46.7715169,
  "lon": 10.1503976,
  "tags": {
    "ele": "1432",
    "name": "Guarda",
    "network": "RhB",
    "network:wikidata": "Q2204412",
    "operator": "RhB",
    "operator:wikidata": "Q177598",
    "public_transport": "station",
    "railway": "station",
    "railway:ref": "GUA",
    "train": "yes",
    "uic_name": "Guarda",
    "uic_ref": "8509265",
    "wikidata": "Q5613993",
    "wikimedia_commons": "Category:Guarda railway station",
    "wikipedia": "en:Guarda (Rhaetian Railway station)"
  }
},
{
  "type": "node",
  "id": 266211413,
  "lat": 46.7735442,
  "lon": 10.2010116,
  "tags": {
    "ele": "1432",
    "name": "Ardez",
    "network": "RhB",
    "network:wikidata": "Q2204412",
    "operator": "RhB",
    "operator:wikidata": "Q177598",
    "public_transport": "station",
    "railway": "station",
    "railway:ref": "ADZ",
    "train": "yes",
    "uic_name": "Ardez",
    "uic_ref": "8509266",
    "wheelchair": "limited",
    "wikidata": "Q4787998",
    "wikipedia": "en:Ardez (Rhaetian Railway station)"
  }
},
{
  "type": "node",
  "id": 266216968,
  "lat": 46.9189285,
  "lon": 9.5591582,
  "tags": {
    "ele": "537",
    "name": "Untervaz-Trimmis",
    "network": "ch-direct",
    "operator": "RhB",
    "operator:wikidata": "Q177598",
    "public_transport": "station",
    "railway": "station",
    "railway:ref": "UVAZ",
    "uic_name": "Untervaz-Trimmis",
    "uic_ref": "8509053",
    "wikidata": "Q7897601",
    "wikipedia": "en:Untervaz-Trimmis (Rhaetian Railway station)"
  }
},
{
  "type": "node",
  "id": 266217005,
  "lat": 46.8769774,
  "lon": 9.5331946,
  "tags": {
    "ele": "562",
    "name": "Haldenstein",
    "network": "ch-direct",
    "operator": "RhB",
    "operator:wikidata": "Q177598",
    "public_transport": "stop_position",
    "railway": "station",
    "railway:ref": "HALD",
    "train": "yes",
    "uic_name": "Haldenstein",
    "uic_ref": "8509051",
    "wikidata": "Q5641254",
    "wikipedia": "en:Haldenstein (Rhaetian Railway station)"
  }
},
{
  "type": "node",
  "id": 267730860,
  "lat": 46.8318198,
  "lon": 9.6132540,
  "tags": {
    "ele": "938",
    "name": "Lüen-Castiel",
    "network": "RhB",
    "network:wikidata": "Q2204412",
    "operator": "RhB",
    "operator:wikidata": "Q177598",
    "public_transport": "station",
    "railway": "station",
    "railway:ref": "LUCA",
    "train": "yes",
    "uic_name": "Lüen-Castiel",
    "uic_ref": "8509152",
    "wikidata": "Q15243248",
    "wikipedia": "en:Lüen-Castiel (Rhaetian Railway station)"
  }
},
{
  "type": "node",
  "id": 267736421,
  "lat": 46.8296695,
  "lon": 9.6717674,
  "tags": {
    "ele": "1244",
    "name": "Peist",
    "network": "RhB",
    "network:wikidata": "Q2204412",
    "operator": "RhB",
    "operator:wikidata": "Q177598",
    "public_transport": "station",
    "railway": "station",
    "railway:ref": "PEI",
    "train": "yes",
    "uic_name": "Peist",
    "uic_ref": "8509154",
    "wheelchair": "yes",
    "wikidata": "Q15265827",
    "wikipedia": "en:Peist (Rhaetian Railway station)"
  }
},
{
  "type": "node",
  "id": 267736500,
  "lat": 46.8195834,
  "lon": 9.7071883,
  "tags": {
    "ele": "1317",
    "name": "Langwies",
    "network": "RhB",
    "network:wikidata": "Q2204412",
    "operator": "RhB",
    "operator:wikidata": "Q177598",
    "public_transport": "station",
    "railway": "station",
    "railway:ref": "LAWI",
    "train": "yes",
    "uic_name": "Langwies GR",
    "uic_ref": "8509155",
    "wikidata": "Q15241547",
    "wikipedia": "en:Langwies (Rhaetian Railway station)"
  }
},
{
  "type": "node",
  "id": 267736568,
  "lat": 46.7980838,
  "lon": 9.7031094,
  "tags": {
    "ele": "1452",
    "name": "Litzirüti",
    "network": "RhB",
    "network:wikidata": "Q2204412",
    "operator": "RhB",
    "operator:wikidata": "Q177598",
    "public_transport": "station",
    "railway": "station",
    "railway:ref": "LITZ",
    "train": "yes",
    "uic_name": "Litzirüti",
    "uic_ref": "8509156",
    "wikidata": "Q10640399",
    "wikipedia": "en:Litzirüti (Rhaetian Railway station)"
  }
},
{
  "type": "node",
  "id": 269120295,
  "lat": 47.3509070,
  "lon": 8.7174490,
  "tags": {
    "amenity": "bus_station",
    "bus": "yes",
    "check_date": "2025-04-25",
    "ele": "464",
    "level": "0",
    "name": "Uster, Bahnhof",
    "operator": "VZO",
    "public_transport": "station",
    "uic_name": "Uster, Bahnhof",
    "uic_ref": "8573504",
    "wheelchair": "yes"
  }
},
{
  "type": "node",
  "id": 270165975,
  "lat": 46.9494086,
  "lon": 6.8390014,
  "tags": {
    "ele": "491",
    "name": "Boudry Littorail",
    "operator": "TRN",
    "public_transport": "station",
    "railway": "station",
    "railway:ref": "BLIT",
    "uic_name": "Boudry Littorail",
    "uic_ref": "8504511",
    "wikidata": "Q33466912",
    "wikimedia_commons": "Category:Boudry Littorail railway station"
  }
},
{
  "type": "node",
  "id": 270166006,
  "lat": 46.9544963,
  "lon": 6.8531414,
  "tags": {
    "ele": "438",
    "name": "Areuse Littorail",
    "operator": "TRN",
    "public_transport": "station",
    "railway": "station",
    "railway:ref": "ALIT",
    "shelter": "yes",
    "uic_name": "Areuse Littorail",
    "uic_ref": "8595245",
    "wikidata": "Q33516262"
  }
},
{
  "type": "node",
  "id": 270166064,
  "lat": 46.9896679,
  "lon": 6.9234642,
  "tags": {
    "ele": "433",
    "name": "Evole",
    "operator": "TRN",
    "public_transport": "station",
    "railway": "station",
    "railway:ref": "NELI",
    "uic_name": "Neuchâtel Evole",
    "uic_ref": "8530708",
    "wikidata": "Q33512485"
  }
},
{
  "type": "node",
  "id": 273414949,
  "lat": 47.4920468,
  "lon": 9.2415640,
  "tags": {
    "ele": "506",
    "name": "Bischofszell Stadt",
    "operator": "SBB",
    "public_transport": "station",
    "railway": "station",
    "railway:ref": "BZS",
    "uic_name": "Bischofszell Stadt",
    "uic_ref": "8506213",
    "wheelchair": "no",
    "wikidata": "Q5845838"
  }
},
{
  "type": "node",
  "id": 273415547,
  "lat": 47.5009355,
  "lon": 9.2344663,
  "tags": {
    "ele": "476",
    "name": "Bischofszell Nord",
    "operator": "SBB",
    "public_transport": "station",
    "railway": "station",
    "railway:ref": "BZN",
    "uic_name": "Bischofszell Nord",
    "uic_ref": "8506215",
    "wikidata": "Q5845836"
  }
},
{
  "type": "node",
  "id": 273490069,
  "lat": 45.9932302,
  "lon": 8.9245373,
  "tags": {
    "ele": "341",
    "name": "Cappella-Agnuzzo",
    "operator": "FLP",
    "public_transport": "station",
    "railway": "station",
    "uic_name": "Cappella-Agnuzzo",
    "uic_ref": "8505393",
    "wheelchair": "yes",
    "wikidata": "Q5036145"
  }
},
{
  "type": "node",
  "id": 273490192,
  "lat": 45.9817237,
  "lon": 8.8840257,
  "tags": {
    "ele": "290",
    "name": "Magliaso",
    "operator": "FLP",
    "public_transport": "station",
    "railway": "station",
    "uic_name": "Magliaso",
    "uic_ref": "8505396",
    "wheelchair": "yes",
    "wikidata": "Q6731198"
  }
},
{
  "type": "node",
  "id": 273490208,
  "lat": 46.0122376,
  "lon": 8.9141854,
  "tags": {
    "ele": "287",
    "name": "Bioggio Molinazzo",
    "operator": "FLP",
    "railway": "station",
    "uic_name": "Bioggio Molinazzo",
    "uic_ref": "8530789",
    "wheelchair": "yes",
    "wikidata": "Q4914855"
  }
},
{
  "type": "node",
  "id": 273490210,
  "lat": 46.0120946,
  "lon": 8.9089267,
  "tags": {
    "ele": "292",
    "name": "Bioggio",
    "operator": "FLP",
    "public_transport": "station",
    "railway": "station",
    "uic_name": "Bioggio",
    "uic_ref": "8505394",
    "wheelchair": "yes",
    "wikidata": "Q4914856"
  }
},
{
  "type": "node",
  "id": 273490211,
  "lat": 46.0088231,
  "lon": 8.9051340,
  "tags": {
    "ele": "285",
    "name": "Serocca",
    "operator": "FLP",
    "public_transport": "station",
    "railway": "station",
    "uic_name": "Serocca",
    "uic_ref": "8505390",
    "wheelchair": "yes",
    "wikidata": "Q7455018"
  }
},
{
  "type": "node",
  "id": 273490212,
  "lat": 45.9960708,
  "lon": 8.9010009,
  "tags": {
    "ele": "274",
    "name": "Agno",
    "operator": "FLP",
    "public_transport": "station",
    "railway": "station",
    "uic_name": "Agno",
    "uic_ref": "8505395",
    "wheelchair": "yes",
    "wikidata": "Q4693270"
  }
},
{
  "type": "node",
  "id": 274374392,
  "lat": 46.1240899,
  "lon": 8.9249644,
  "tags": {
    "ele": "472",
    "name": "Rivera-Bironico",
    "operator": "SBB",
    "public_transport": "station",
    "railway": "station",
    "railway:ref": "RIB",
    "uic_name": "Rivera-Bironico",
    "uic_ref": "8505216",
    "wikidata": "Q3970685"
  }
},
{
  "type": "node",
  "id": 279374862,
  "lat": 47.4545440,
  "lon": 8.2795803,
  "tags": {
    "amenity": "bus_station",
    "bench": "yes",
    "bin": "yes",
    "bus": "yes",
    "ele": "385",
    "lit": "yes",
    "name": "Kantonsspital Baden",
    "operator": "RVBW",
    "public_transport": "platform",
    "shelter": "yes",
    "tactile_paving": "no",
    "uic_name": "Dättwil AG, Kantonsspital",
    "uic_ref": "8578681",
    "wheelchair": "yes"
  }
},
{
  "type": "node",
  "id": 281282248,
  "lat": 46.2940184,
  "lon": 7.0617895,
  "tags": {
    "ele": "1302",
    "name": "Roches Grises",
    "operator": "TPC",
    "operator:wikidata": "Q429547",
    "public_transport": "station",
    "railway": "station",
    "uic_name": "Roches Grises",
    "uic_ref": "8501447",
    "wikidata": "Q33446866"
  }
},
{
  "type": "node",
  "id": 281282993,
  "lat": 46.3165294,
  "lon": 7.0721942,
  "tags": {
    "ele": "1758",
    "name": "Bouquetins",
    "operator": "TPC",
    "operator:wikidata": "Q429547",
    "public_transport": "station",
    "railway": "station",
    "uic_name": "Bouquetins",
    "uic_ref": "8501498",
    "wikidata": "Q33448035"
  }
},
{
  "type": "node",
  "id": 281285800,
  "lat": 46.3048893,
  "lon": 7.0695736,
  "tags": {
    "alt_name": "Col de Soud",
    "ele": "1524",
    "name": "Col-de-Soud",
    "operator": "TPC",
    "operator:wikidata": "Q429547",
    "public_transport": "station",
    "railway": "station",
    "uic_name": "Col-de-Soud",
    "uic_ref": "8501497",
    "wheelchair": "no",
    "wikidata": "Q33448007"
  }
},
{
  "type": "node",
  "id": 281646166,
  "lat": 46.5162610,
  "lon": 6.4720396,
  "tags": {
    "ele": "431",
    "name": "Chigny",
    "operator": "MBC",
    "public_transport": "station",
    "railway": "station",
    "uic_name": "Chigny",
    "uic_ref": "8501081",
    "wheelchair": "yes"
  }
},
{
  "type": "node",
  "id": 285656003,
  "lat": 47.0522584,
  "lon": 8.5852280,
  "tags": {
    "ele": "592",
    "name": "Steinerberg",
    "network": "TVSZ",
    "operator": "SOB",
    "public_transport": "station",
    "railway": "station",
    "railway:ref": "STBG",
    "uic_name": "Steinerberg",
    "uic_ref": "8503280",
    "wheelchair": "yes",
    "wikidata": "Q15964254"
  }
},
{
  "type": "node",
  "id": 286044669,
  "lat": 46.5198897,
  "lon": 6.4276362,
  "tags": {
    "ele": "527",
    "name": "Yens",
    "operator": "MBC",
    "public_transport": "station",
    "railway": "station",
    "railway:ref": "YENS",
    "uic_name": "Yens",
    "uic_ref": "8501093",
    "wikidata": "Q33442430"
  }
},
{
  "type": "node",
  "id": 286044718,
  "lat": 46.5522903,
  "lon": 6.3744376,
  "tags": {
    "ele": "713",
    "name": "Ballens",
    "operator": "MBC",
    "public_transport": "station",
    "railway": "station",
    "uic_name": "Ballens",
    "uic_ref": "8501095",
    "wikidata": "Q33442463"
  }
},
{
  "type": "node",
  "id": 286674751,
  "lat": 46.8083690,
  "lon": 9.8384446,
  "tags": {
    "ele": "1556",
    "name": "Davos Dorf (Parsennbahn)",
    "operator": "DKB-dpb",
    "public_transport": "station",
    "railway": "station",
    "uic_name": "Davos Dorf (Parsennbahn)",
    "uic_ref": "8509083",
    "wheelchair": "limited"
  }
},
{
  "type": "node",
  "id": 286674799,
  "lat": 46.8329019,
  "lon": 9.8058343,
  "tags": {
    "ele": "2663",
    "name": "Weissfluhjoch",
    "public_transport": "station",
    "railway": "station",
    "uic_name": "Weissfluhjoch",
    "uic_ref": "8509085"
  }
},
{
  "type": "node",
  "id": 286680672,
  "lat": 46.8012590,
  "lon": 9.8154995,
  "tags": {
    "ele": "1861",
    "name": "Schatzalp",
    "operator": "DSB",
    "public_transport": "station",
    "railway": "station",
    "uic_name": "Schatzalp",
    "uic_ref": "8509089",
    "wheelchair": "limited"
  }
},
{
  "type": "node",
  "id": 286680676,
  "lat": 46.7971387,
  "lon": 9.8214645,
  "tags": {
    "ele": "1557",
    "name": "Schatzalpbahn (Talstation)",
    "operator": "DSB",
    "public_transport": "station",
    "railway": "station",
    "uic_name": "Davos Platz Schatzalpbahn",
    "uic_ref": "8509088"
  }
},
{
  "type": "node",
  "id": 286905667,
  "lat": 46.3529741,
  "lon": 7.1133232,
  "tags": {
    "ele": "1091",
    "name": "Les Aviolats",
    "operator": "TPC",
    "operator:wikidata": "Q429547",
    "public_transport": "station",
    "railway": "station",
    "uic_name": "Les Aviolats",
    "uic_ref": "8501476",
    "wikidata": "Q33447554"
  }
},
{
  "type": "node",
  "id": 288503221,
  "lat": 45.9279380,
  "lon": 9.0188671,
  "tags": {
    "ele": "1594",
    "name": "Generoso Vetta",
    "operator": "MG",
    "public_transport": "station",
    "railway": "station",
    "uic_name": "Monte Generoso Vetta",
    "uic_ref": "8505374",
    "wheelchair": "no",
    "wikidata": "Q5532692",
    "wikipedia": "it:Stazione di Generoso Vetta"
  }
},
{
  "type": "node",
  "id": 289934163,
  "lat": 47.4195401,
  "lon": 9.3794512,
  "tags": {
    "ele": "749",
    "funicular": "yes",
    "name": "Mühlegg",
    "network": "Ostwind",
    "network:wikidata": "Q2394207",
    "operator": "VBSG",
    "public_transport": "stop_position",
    "railway": "station",
    "train": "yes",
    "uic_name": "St. Gallen, Mühlegg",
    "uic_ref": "8589601",
    "wheelchair": "yes"
  }
},
{
  "type": "node",
  "id": 289934269,
  "lat": 47.4220777,
  "lon": 9.3777036,
  "tags": {
    "ele": "677",
    "funicular": "yes",
    "name": "Mühlegg Talstation",
    "network": "Ostwind",
    "network:wikidata": "Q2394207",
    "operator": "VBSG",
    "public_transport": "stop_position",
    "railway": "station",
    "train": "yes",
    "uic_name": "St. Gallen, Mühlegg Talstation",
    "uic_ref": "8589913"
  }
},
{
  "type": "node",
  "id": 291432620,
  "lat": 47.3281482,
  "lon": 9.3473295,
  "tags": {
    "ele": "902",
    "name": "Gonten",
    "operator": "AB",
    "public_transport": "station",
    "railway": "station",
    "uic_name": "Gonten",
    "uic_ref": "8506285",
    "wikidata": "Q33506244"
  }
},
{
  "type": "node",
  "id": 291432639,
  "lat": 47.3316650,
  "lon": 9.3723384,
  "tags": {
    "ele": "890",
    "name": "Gontenbad",
    "operator": "AB",
    "public_transport": "station",
    "railway": "station",
    "uic_name": "Gontenbad",
    "uic_ref": "8506271",
    "wheelchair": "yes",
    "wikidata": "Q33506110"
  }
},
{
  "type": "node",
  "id": 292533984,
  "lat": 46.8038394,
  "lon": 6.5536310,
  "tags": {
    "ele": "589",
    "name": "Vuiteboeuf",
    "operator": "TRAVYS",
    "railway": "station",
    "railway:ref": "VUIB",
    "uic_name": "Vuiteboeuf",
    "uic_ref": "8504294",
    "wikidata": "Q33465250"
  }
},
{
  "type": "node",
  "id": 294931402,
  "lat": 47.4626081,
  "lon": 7.8130156,
  "tags": {
    "amenity": "bus_station",
    "bus": "yes",
    "ele": "376",
    "name": "Sissach Bahnhof",
    "operator": "BLT Auto",
    "public_transport": "station",
    "uic_name": "Sissach, Bahnhof",
    "uic_ref": "8578259"
  }
},
{
  "type": "node",
  "id": 294976331,
  "lat": 47.3636959,
  "lon": 9.1419958,
  "tags": {
    "ele": "715",
    "name": "Mogelsberg",
    "operator": "SOB",
    "public_transport": "station",
    "railway": "station",
    "railway:ref": "MOG",
    "request_stop": "yes",
    "uic_name": "Mogelsberg",
    "uic_ref": "8506293",
    "wikidata": "Q33506355"
  }
},
{
  "type": "node",
  "id": 294976499,
  "lat": 47.3849894,
  "lon": 9.2429399,
  "tags": {
    "ele": "787",
    "name": "Schachen",
    "operator": "SOB",
    "public_transport": "station",
    "railway": "station",
    "railway:ref": "SCH",
    "request_stop": "yes",
    "uic_name": "Schachen (Herisau)",
    "uic_ref": "8506291",
    "wheelchair": "yes",
    "wikidata": "Q33506338"
  }
},
{
  "type": "node",
  "id": 299167536,
  "lat": 46.2591652,
  "lon": 10.1250624,
  "tags": {
    "ele": "780",
    "name": "Brusio",
    "operator": "RhB",
    "operator:wikidata": "Q177598",
    "public_transport": "station",
    "railway": "station",
    "railway:ref": "BRIO",
    "uic_name": "Brusio",
    "uic_ref": "8509366",
    "wikidata": "Q4979766",
    "wikipedia": "en:Brusio (Rhaetian Railway station)"
  }
},
{
  "type": "node",
  "id": 299167652,
  "lat": 46.2732301,
  "lon": 10.0997886,
  "tags": {
    "ele": "965",
    "name": "Miralago",
    "operator": "RhB",
    "operator:wikidata": "Q177598",
    "public_transport": "station",
    "railway": "station",
    "railway:ref": "MIRA",
    "uic_name": "Miralago",
    "uic_ref": "8509365",
    "wheelchair": "limited",
    "wikidata": "Q10640094",
    "wikipedia": "en:Miralago (Rhaetian Railway station)"
  }
},
{
  "type": "node",
  "id": 299357596,
  "lat": 46.2337052,
  "lon": 10.1416693,
  "tags": {
    "ele": "553",
    "name": "Campocologno",
    "operator": "RhB",
    "operator:wikidata": "Q177598",
    "public_transport": "station",
    "railway": "station",
    "railway:ref": "CAMP",
    "uic_name": "Campocologno",
    "uic_ref": "8509368",
    "wikidata": "Q5028488",
    "wikipedia": "en:Campocologno (Rhaetian Railway station)"
  }
},
{
  "type": "node",
  "id": 300248218,
  "lat": 46.9941755,
  "lon": 6.9376076,
  "tags": {
    "ele": "427",
    "funicular": "yes",
    "name": "Neuchâtel-Université",
    "network": "Onde Verte",
    "network:wikidata": "Q30744145",
    "operator": "TRN-tn",
    "public_transport": "stop_position",
    "railway": "station",
    "station": "funicular",
    "train": "yes",
    "uic_name": "Neuchâtel-Université (FUNI)",
    "uic_ref": "8530792",
    "wheelchair": "yes"
  }
},
{
  "type": "node",
  "id": 300351185,
  "lat": 46.9549426,
  "lon": 6.7218242,
  "tags": {
    "ele": "728",
    "name": "Noiraigue",
    "operator": "SBB",
    "public_transport": "station",
    "railway": "station",
    "railway:ref": "NOI",
    "uic_name": "Noiraigue",
    "uic_ref": "8504216",
    "wikidata": "Q31451798",
    "wikimedia_commons": "Category:Noiraigue railway station",
    "wikipedia": "en:Noiraigue railway station"
  }
},
{
  "type": "node",
  "id": 303022601,
  "lat": 47.4881707,
  "lon": 8.9032816,
  "tags": {
    "ele": "528",
    "name": "Aadorf",
    "operator": "SBB",
    "public_transport": "station",
    "railway": "station",
    "railway:ref": "AD",
    "uic_name": "Aadorf",
    "uic_ref": "8506013",
    "wheelchair": "limited",
    "wikidata": "Q5845566"
  }
},
{
  "type": "node",
  "id": 305595184,
  "lat": 47.2616893,
  "lon": 7.9577903,
  "tags": {
    "ele": "444",
    "name": "Brittnau-Wikon",
    "operator": "SBB",
    "public_transport": "station",
    "railway": "station",
    "railway:ref": "BRIT",
    "uic_name": "Brittnau-Wikon",
    "uic_ref": "8502002",
    "wikidata": "Q15964097"
  }
},
{
  "type": "node",
  "id": 305969072,
  "lat": 46.0075757,
  "lon": 8.9535743,
  "tags": {
    "amenity": "bus_station",
    "bus": "yes",
    "ele": "284",
    "layer": "-1",
    "name": "Lugano, Autosilo Balestra",
    "operator": "Autopostale",
    "public_transport": "station",
    "uic_name": "Lugano, Autosilo Balestra",
    "uic_ref": "8505913",
    "wheelchair": "yes"
  }
},
{
  "type": "node",
  "id": 306504177,
  "lat": 46.4671807,
  "lon": 7.0465379,
  "tags": {
    "ele": "849",
    "name": "La Tine",
    "operator": "MOB",
    "public_transport": "station",
    "railway": "station",
    "uic_name": "La Tine",
    "uic_ref": "8501391",
    "wikidata": "Q33446360"
  }
},
{
  "type": "node",
  "id": 306504206,
  "lat": 46.4660138,
  "lon": 7.0967791,
  "tags": {
    "ele": "886",
    "name": "La Chaudanne-Les Moulins",
    "operator": "MOB",
    "railway": "station",
    "uic_name": "La Chaudanne-Les Moulins",
    "uic_ref": "8501393",
    "wheelchair": "yes",
    "wikidata": "Q33446418"
  }
},
{
  "type": "node",
  "id": 306504255,
  "lat": 46.4749072,
  "lon": 7.1326107,
  "tags": {
    "ele": "968",
    "name": "Château-d'Oex",
    "operator": "MOB",
    "railway": "station",
    "uic_name": "Château-d'Oex",
    "uic_ref": "8501394",
    "wheelchair": "yes",
    "wikidata": "Q33446444"
  }
},
{
  "type": "node",
  "id": 306507866,
  "lat": 46.4741368,
  "lon": 7.1548909,
  "tags": {
    "ele": "1003",
    "name": "Les Granges-Gérignoz",
    "old_name": "Les Granges",
    "operator": "MOB",
    "public_transport": "station",
    "railway": "station",
    "uic_name": "Les Granges-Gérignoz",
    "uic_ref": "8501395",
    "wikidata": "Q33446471"
  }
},
{
  "type": "node",
  "id": 306507932,
  "lat": 46.4823890,
  "lon": 7.1865750,
  "tags": {
    "ele": "980",
    "name": "Flendruz",
    "operator": "MOB",
    "public_transport": "station",
    "railway": "station",
    "uic_name": "Flendruz",
    "uic_ref": "8501396",
    "wikidata": "Q33446499"
  }
},
{
  "type": "node",
  "id": 306507958,
  "lat": 46.4883914,
  "lon": 7.2089064,
  "tags": {
    "ele": "992",
    "name": "Rougemont",
    "operator": "MOB",
    "public_transport": "station",
    "railway": "station",
    "uic_name": "Rougemont",
    "uic_ref": "8501397",
    "wikidata": "Q33446525"
  }
},
{
  "type": "node",
  "id": 307378159,
  "lat": 47.2178799,
  "lon": 7.5136710,
  "tags": {
    "ele": "470",
    "name": "Langendorf",
    "operator": "BLS",
    "public_transport": "station",
    "railway": "station",
    "railway:ref": "LADO",
    "uic_name": "Langendorf",
    "uic_ref": "8500261",
    "wheelchair": "limited",
    "wikidata": "Q33412494"
  }
},
{
  "type": "node",
  "id": 307391788,
  "lat": 47.4984794,
  "lon": 8.8633303,
  "tags": {
    "ele": "507",
    "name": "Elgg",
    "operator": "SBB",
    "public_transport": "station",
    "railway": "station",
    "railway:ref": "EL",
    "uic_name": "Elgg",
    "uic_ref": "8506014",
    "wikidata": "Q5359988",
    "wikimedia_commons": "Category:Elgg railway station",
    "wikipedia": "en:Elgg railway station"
  }
},
{
  "type": "node",
  "id": 307392748,
  "lat": 47.4620300,
  "lon": 9.0004513,
  "tags": {
    "ele": "549",
    "name": "Sirnach",
    "operator": "SBB",
    "public_transport": "station",
    "railway": "station",
    "railway:ref": "SIR",
    "uic_name": "Sirnach",
    "uic_ref": "8506010",
    "wheelchair": "yes",
    "wikidata": "Q5847259"
  }
},
{
  "type": "node",
  "id": 307412745,
  "lat": 46.9117911,
  "lon": 6.6103145,
  "tags": {
    "ele": "735",
    "name": "Môtiers",
    "operator": "TransN",
    "public_transport": "station",
    "railway": "station",
    "railway:ref": "MOT",
    "uic_name": "Môtiers NE",
    "uic_ref": "8504286",
    "wikidata": "Q33465116"
  }
},
{
  "type": "node",
  "id": 307412768,
  "lat": 46.9226424,
  "lon": 6.6350645,
  "tags": {
    "ele": "734",
    "name": "Couvet",
    "operator": "TransN",
    "public_transport": "station",
    "railway": "station",
    "railway:ref": "CVTR",
    "uic_name": "Couvet",
    "uic_ref": "8504285",
    "wikidata": "Q33465099",
    "wikimedia_commons": "Category:Couvet railway station"
  }
},
{
  "type": "node",
  "id": 308165414,
  "lat": 46.5374854,
  "lon": 6.3368854,
  "tags": {
    "ele": "694",
    "image": "https://upload.wikimedia.org/wikipedia/commons/9/94/Gare_de_Bi%C3%A8re_en_2019.jpg",
    "name": "Bière",
    "operator": "MBC",
    "operator:wikidata": "Q677257",
    "public_transport": "station",
    "railway": "station",
    "railway:ref": "BIER",
    "uic_name": "Bière",
    "uic_ref": "8501096",
    "wikidata": "Q3095999",
    "wikimedia_commons": "Category:Bière railway station",
    "wikipedia": "fr:Gare de Bière"
  }
},
{
  "type": "node",
  "id": 309543392,
  "lat": 46.5076619,
  "lon": 9.8192680,
  "tags": {
    "name": "Corviglia (Bergstation)",
    "operator": "SMBB",
    "public_transport": "station",
    "railway": "station",
    "station": "funicular",
    "train": "yes",
    "uic_name": "Corviglia (Bergstation)",
    "uic_ref": "8509272"
  }
},
{
  "type": "node",
  "id": 309543453,
  "lat": 46.4987623,
  "lon": 9.8377557,
  "tags": {
    "ele": "1775",
    "name": "St. Moritz (Standseilbahn)",
    "operator": "SMBB",
    "public_transport": "station",
    "railway": "station",
    "station": "funicular",
    "train": "yes",
    "uic_name": "St. Moritz (Standseilbahn)",
    "uic_ref": "8509270"
  }
},
{
  "type": "node",
  "id": 309543456,
  "lat": 46.5017618,
  "lon": 9.8353343,
  "tags": {
    "name": "Chantarella",
    "operator": "SMBB",
    "public_transport": "station",
    "railway": "station",
    "station": "funicular",
    "train": "yes",
    "uic_name": "Chantarella",
    "uic_ref": "8509271"
  }
},
{
  "type": "node",
  "id": 313698590,
  "lat": 46.5509424,
  "lon": 6.4232891,
  "tags": {
    "ele": "642",
    "name": "Apples",
    "operator": "MBC",
    "public_transport": "station",
    "railway": "station",
    "railway:ref": "APPL",
    "uic_name": "Apples",
    "uic_ref": "8501094",
    "wikidata": "Q3095655"
  }
},
{
  "type": "node",
  "id": 313812083,
  "lat": 46.5653886,
  "lon": 7.0852432,
  "tags": {
    "ele": "712",
    "name": "Enney",
    "operator": "TPF",
    "public_transport": "station",
    "railway": "station",
    "railway:ref": "ENN",
    "uic_name": "Enney",
    "uic_ref": "8504075",
    "wikidata": "Q33462784"
  }
},
{
  "type": "node",
  "id": 313812092,
  "lat": 46.5826949,
  "lon": 7.0731999,
  "tags": {
    "ele": "746",
    "name": "Gruyères",
    "operator": "TPF",
    "public_transport": "station",
    "railway": "station",
    "railway:ref": "GRY",
    "uic_name": "Gruyères",
    "uic_ref": "8504077",
    "wikidata": "Q33462833"
  }
},
{
  "type": "node",
  "id": 313814754,
  "lat": 46.6192166,
  "lon": 6.9899801,
  "tags": {
    "ele": "813",
    "name": "Vaulruz-Sud",
    "operator": "TPF",
    "public_transport": "station",
    "railway": "station",
    "uic_name": "Vaulruz-Sud",
    "uic_ref": "8504065",
    "wikidata": "Q33462547"
  }
},
{
  "type": "node",
  "id": 313815890,
  "lat": 46.5875112,
  "lon": 6.9248986,
  "tags": {
    "ele": "836",
    "name": "La Verrerie",
    "operator": "TPF",
    "public_transport": "station",
    "railway": "station",
    "uic_name": "La Verrerie",
    "uic_ref": "8504064",
    "wikidata": "Q33462523"
  }
},
{
  "type": "node",
  "id": 313818273,
  "lat": 46.5277508,
  "lon": 6.8957489,
  "tags": {
    "ele": "807",
    "name": "Châtel-Saint-Denis",
    "operator": "TPF",
    "public_transport": "station",
    "railway": "station",
    "uic_name": "Châtel-St-Denis",
    "uic_ref": "8504062",
    "wheelchair": "yes",
    "wikidata": "Q33462476"
  }
},
{
  "type": "node",
  "id": 315596799,
  "lat": 47.0456822,
  "lon": 9.4449162,
  "tags": {
    "amenity": "bus_station",
    "check_date": "2024-10-10",
    "check_date:wheelchair": "2024-10-10",
    "ele": "483",
    "name": "Sargans Bahnhof",
    "operator": "BOS/bsw",
    "uic_name": "Sargans, Bahnhof",
    "uic_ref": "8574614",
    "wheelchair": "yes"
  }
},
{
  "type": "node",
  "id": 315935032,
  "lat": 47.0654371,
  "lon": 7.6082376,
  "tags": {
    "ele": "525",
    "internet_access": "no",
    "name": "Buchmatt",
    "operator": "BLS",
    "public_transport": "station",
    "railway": "station",
    "request_stop": "yes",
    "train": "yes",
    "uic_name": "Burgdorf Buchmatt",
    "uic_ref": "8508083",
    "wheelchair": "yes",
    "wikidata": "Q33509192"
  }
},
{
  "type": "node",
  "id": 316019885,
  "lat": 46.2967909,
  "lon": 6.9932718,
  "tags": {
    "ele": "468",
    "name": "Ollon VD",
    "operator": "TPC",
    "operator:wikidata": "Q429547",
    "railway": "station",
    "uic_name": "Ollon VD",
    "uic_ref": "8501461",
    "wheelchair": "yes",
    "wikidata": "Q33447146"
  }
},
{
  "type": "node",
  "id": 317467023,
  "lat": 46.0965490,
  "lon": 7.2284672,
  "tags": {
    "amenity": "bus_station",
    "bus": "yes",
    "ele": "1406",
    "name": "Verbier, station poste",
    "operator": "TMR",
    "public_transport": "platform",
    "uic_name": "Verbier, station poste",
    "uic_ref": "8501788"
  }
},
{
  "type": "node",
  "id": 321575083,
  "lat": 47.1853344,
  "lon": 9.3123072,
  "tags": {
    "ele": "1354",
    "funicular": "yes",
    "name": "Iltios",
    "network": "Ostwind",
    "operator": "TBBU",
    "public_transport": "stop_position",
    "railway": "station",
    "start_date": "1934",
    "uic_name": "Iltios",
    "uic_ref": "8506251"
  }
},
{
  "type": "node",
  "id": 321789807,
  "lat": 46.8195114,
  "lon": 9.8234620,
  "tags": {
    "ele": "2218",
    "name": "Höhenweg (2. Sekt. Talst.)",
    "operator": "DKB-dpb",
    "public_transport": "station",
    "railway": "station",
    "uic_name": "Höhenweg (2. Sekt. Talst.)",
    "uic_ref": "8530888"
  }
},
{
  "type": "node",
  "id": 323135754,
  "lat": 46.4576285,
  "lon": 7.4442292,
  "tags": {
    "amenity": "bus_station",
    "bench": "no",
    "bin": "no",
    "bus": "yes",
    "ele": "1068",
    "highway": "bus_stop",
    "lit": "no",
    "name": "Lenk",
    "operator": "AFA",
    "public_transport": "station",
    "shelter": "no",
    "tactile_paving": "no",
    "uic_name": "Lenk im Simmental, Bahnhof",
    "uic_ref": "8579279"
  }
},
{
  "type": "node",
  "id": 333789840,
  "lat": 46.3456106,
  "lon": 7.0067438,
  "tags": {
    "ele": "1450",
    "name": "Leysin-Grand-Hôtel",
    "operator": "TPC",
    "operator:wikidata": "Q429547",
    "public_transport": "station",
    "railway": "station",
    "uic_name": "Leysin-Grand-Hôtel",
    "uic_ref": "8501483",
    "wikidata": "Q33447714"
  }
},
{
  "type": "node",
  "id": 334580415,
  "lat": 46.7937874,
  "lon": 10.2867680,
  "tags": {
    "ele": "1287",
    "name": "Scuol-Tarasp",
    "network": "RhB",
    "network:wikidata": "Q2204412",
    "operator": "RhB",
    "operator:wikidata": "Q177598",
    "public_transport": "station",
    "railway": "station",
    "railway:ref": "SCTA",
    "train": "yes",
    "uic_name": "Scuol-Tarasp",
    "uic_ref": "8509268",
    "wikidata": "Q360749",
    "wikipedia": "de:Bahnhof Scuol-Tarasp"
  }
},
{
  "type": "node",
  "id": 338134633,
  "lat": 47.2601519,
  "lon": 8.8548585,
  "tags": {
    "amenity": "bus_station",
    "bench": "yes",
    "bus": "yes",
    "ele": "482",
    "internet_access": "yes",
    "internet_access:fee": "no",
    "name": "Rüti, Bahnhof",
    "network": "ZVV",
    "operator": "VZO",
    "public_transport": "station",
    "shelter": "yes",
    "uic_name": "Rüti ZH, Bahnhof",
    "uic_ref": "8576103",
    "wheelchair": "yes"
  }
},
{
  "type": "node",
  "id": 338474121,
  "lat": 47.4420571,
  "lon": 9.2520599,
  "tags": {
    "ele": "621",
    "name": "Arnegg",
    "operator": "SBB",
    "public_transport": "station",
    "railway": "station",
    "railway:ref": "ARN",
    "uic_name": "Arnegg",
    "uic_ref": "8506211",
    "wikidata": "Q5845723"
  }
},
{
  "type": "node",
  "id": 338474122,
  "lat": 47.4769010,
  "lon": 9.2515991,
  "tags": {
    "ele": "561",
    "name": "Hauptwil",
    "operator": "SBB",
    "public_transport": "station",
    "railway": "station",
    "railway:ref": "HPT",
    "uic_name": "Hauptwil",
    "uic_ref": "8506212",
    "wikidata": "Q5846358"
  }
},
{
  "type": "node",
  "id": 339478753,
  "lat": 46.1750001,
  "lon": 6.8713721,
  "tags": {
    "ele": "1035",
    "name": "Champéry",
    "operator": "TPC",
    "public_transport": "station",
    "railway": "station",
    "uic_name": "Champéry",
    "uic_ref": "8501448",
    "wikidata": "Q33446894"
  }
},
{
  "type": "node",
  "id": 339494421,
  "lat": 46.1749689,
  "lon": 6.8705971,
  "tags": {
    "amenity": "bus_station",
    "bus": "yes",
    "highway": "bus_stop",
    "name": "Champéry,Gare",
    "public_transport": "station"
  }
},
{
  "type": "node",
  "id": 346948339,
  "lat": 46.5096861,
  "lon": 9.8812626,
  "tags": {
    "ele": "1728",
    "name": "Punt Muragl",
    "network": "ch-integral;Engadin mobil",
    "network:wikidata": "Q55503992",
    "operator": "Viafier retica",
    "operator:de": "Rhätische Bahn",
    "operator:it": "Ferrovia retica",
    "operator:rm": "Viafier retica",
    "operator:wikidata": "Q177598",
    "public_transport": "station",
    "railway": "station",
    "railway:ref": "PTM",
    "train": "yes",
    "uic_name": "Punt Muragl",
    "uic_ref": "8509254",
    "website": "https://kisqr.rhb.ch/stationDisplay/RGA-PTM",
    "wikidata": "Q7260493",
    "wikimedia_commons": "Category:Punt Muragl railway station",
    "wikipedia": "en:Punt Muragl (Rhaetian Railway station)"
  }
},
{
  "type": "node",
  "id": 348854832,
  "lat": 46.1759048,
  "lon": 8.7925407,
  "tags": {
    "funicular": "yes",
    "name": "Orselina Funicolare",
    "operator": "FLMS",
    "public_transport": "station",
    "railway": "station",
    "uic_name": "Orselina Funicolare",
    "uic_ref": "8505366",
    "wheelchair": "no"
  }
},
{
  "type": "node",
  "id": 354498113,
  "lat": 46.0688082,
  "lon": 7.9156999,
  "tags": {
    "ele": "2989",
    "name": "Felskinn",
    "operator": "STBAG",
    "public_transport": "station",
    "railway": "station",
    "uic_name": "Felskinn",
    "uic_ref": "8501337"
  }
},
{
  "type": "node",
  "id": 354498114,
  "lat": 46.0576037,
  "lon": 7.9051147,
  "tags": {
    "ele": "3462",
    "name": "Mittelallalin",
    "operator": "LSF",
    "public_transport": "station",
    "railway": "station",
    "uic_name": "Mittelallalin",
    "uic_ref": "8501732"
  }
},
{
  "type": "node",
  "id": 354739910,
  "lat": 46.1726387,
  "lon": 8.8025323,
  "tags": {
    "covered": "yes",
    "ele": "205",
    "layer": "-2",
    "level": "-2",
    "name": "Locarno FART",
    "operator": "FART",
    "public_transport": "station",
    "railway": "station",
    "uic_name": "Locarno FART",
    "uic_ref": "8505470",
    "wheelchair": "yes",
    "wikidata": "Q17637331"
  }
},
{
  "type": "node",
  "id": 354740600,
  "lat": 46.1694976,
  "lon": 8.7774866,
  "tags": {
    "ele": "226",
    "internet_access": "no",
    "name": "Solduno",
    "note": "Halt on request",
    "operator": "FART",
    "public_transport": "station",
    "railway": "station",
    "train": "yes",
    "uic_name": "Solduno",
    "uic_ref": "8505472",
    "wheelchair": "yes",
    "wikidata": "Q17637562"
  }
},
{
  "type": "node",
  "id": 355014243,
  "lat": 46.9893610,
  "lon": 6.9281168,
  "tags": {
    "ele": "435",
    "name": "Place Pury Littorail",
    "operator": "TRN",
    "public_transport": "station",
    "railway": "station",
    "railway:ref": "NPLI",
    "shelter": "yes",
    "uic_name": "Neuchâtel Place Pury Littorail",
    "uic_ref": "8504398",
    "wikidata": "Q33466054"
  }
},
{
  "type": "node",
  "id": 357390768,
  "lat": 46.9742826,
  "lon": 6.8788473,
  "tags": {
    "ele": "432",
    "name": "Auvernier Littorail",
    "operator": "TRN",
    "public_transport": "station",
    "railway": "station",
    "railway:ref": "AVLI",
    "uic_name": "Auvernier Littorail",
    "uic_ref": "8504510",
    "wikidata": "Q33466896"
  }
},
{
  "type": "node",
  "id": 357390773,
  "lat": 46.9808914,
  "lon": 6.9049043,
  "tags": {
    "ele": "433",
    "name": "Port-de-Serrières",
    "operator": "TRN",
    "public_transport": "station",
    "railway": "station",
    "railway:ref": "NEPS",
    "shelter": "yes",
    "uic_name": "Neuchâtel Port-de-Serrières",
    "uic_ref": "8504509",
    "wikidata": "Q33466881"
  }
},
{
  "type": "node",
  "id": 359723652,
  "lat": 47.0087312,
  "lon": 6.9609286,
  "tags": {
    "ele": "516",
    "funicular": "yes",
    "name": "La Coudre",
    "network": "Onde Verte",
    "opening_hours": "Mo-Fr 07:15-22:15; Sa-Su 08:45-22:15",
    "operator": "TRN-tn",
    "public_transport": "stop_position",
    "railway": "station",
    "station": "funicular",
    "uic_name": "Neuchâtel, La Coudre (FUNI)",
    "uic_ref": "8504268",
    "wheelchair": "limited"
  }
},
{
  "type": "node",
  "id": 363743119,
  "lat": 47.0265240,
  "lon": 6.9575262,
  "tags": {
    "ele": "1086",
    "funicular": "yes",
    "name": "Chaumont",
    "network": "Onde Verte",
    "operator": "TRN-tn",
    "public_transport": "stop_position",
    "railway": "station",
    "station": "funicular",
    "uic_name": "Chaumont (FUNI)",
    "uic_ref": "8504269"
  }
},
{
  "type": "node",
  "id": 365018294,
  "lat": 46.3182786,
  "lon": 6.9754535,
  "tags": {
    "ele": "430",
    "name": "Aigle-Dépôt",
    "operator": "TPC",
    "operator:wikidata": "Q429547",
    "public_transport": "station",
    "railway": "station",
    "uic_name": "Aigle-Dépôt",
    "uic_ref": "8501484",
    "wikidata": "Q33447740"
  }
},
{
  "type": "node",
  "id": 373469866,
  "lat": 46.9222430,
  "lon": 9.7337452,
  "tags": {
    "ele": "744",
    "name": "Fideris",
    "network": "RhB",
    "network:wikidata": "Q2204412",
    "operator": "RhB",
    "operator:wikidata": "Q177598",
    "public_transport": "station",
    "railway": "station",
    "railway:ref": "FID",
    "train": "yes",
    "uic_name": "Fideris",
    "uic_ref": "8509063",
    "wikidata": "Q33511467"
  }
},
{
  "type": "node",
  "id": 416460883,
  "lat": 46.9968908,
  "lon": 6.9272272,
  "tags": {
    "ele": "551",
    "funicular": "yes",
    "name": "Plan",
    "network": "Onde Verte",
    "network:wikidata": "Q30744145",
    "operator": "TRN-tn",
    "public_transport": "stop_position",
    "railway": "station",
    "station": "funicular",
    "train": "yes",
    "uic_name": "Neuchâtel, Plan (FUNI)",
    "uic_ref": "8530023",
    "wheelchair": "yes"
  }
},
{
  "type": "node",
  "id": 416460884,
  "lat": 46.9935005,
  "lon": 6.9272455,
  "tags": {
    "ele": "441",
    "funicular": "yes",
    "name": "Ecluse",
    "network": "Onde Verte",
    "network:wikidata": "Q30744145",
    "operator": "TRN-tn",
    "public_transport": "stop_position",
    "railway": "station",
    "station": "funicular",
    "train": "yes",
    "uic_name": "Neuchâtel, Ecluse (FUNI)",
    "uic_ref": "8530006",
    "wheelchair": "yes"
  }
},
{
  "type": "node",
  "id": 420041304,
  "lat": 46.5613226,
  "lon": 8.3614962,
  "tags": {
    "ele": "1757",
    "name": "Gletsch",
    "operator": "DFB",
    "public_transport": "station",
    "railway": "station",
    "uic_name": "Gletsch",
    "uic_ref": "8501635",
    "wheelchair": "yes",
    "wikidata": "Q5569509"
  }
},
{
  "type": "node",
  "id": 426953627,
  "lat": 46.4916117,
  "lon": 7.0346151,
  "tags": {
    "ele": "881",
    "name": "Les Sciernes",
    "operator": "MOB",
    "public_transport": "station",
    "railway": "station",
    "uic_name": "Les Sciernes",
    "uic_ref": "8501379",
    "wikidata": "Q33446071"
  }
},
{
  "type": "node",
  "id": 441898431,
  "lat": 46.0662245,
  "lon": 8.9660293,
  "tags": {
    "amenity": "bus_station",
    "bench": "yes",
    "bin": "yes",
    "bus": "yes",
    "ele": "513",
    "lit": "yes",
    "name": "Tesserete Stazione",
    "operator": "ARL",
    "public_transport": "platform",
    "shelter": "yes",
    "tactile_paving": "no",
    "uic_name": "Tesserete, Stazione",
    "uic_ref": "8505389",
    "wheelchair": "yes",
    "wikidata": "Q19631883",
    "wikipedia": "it:Stazione di Tesserete"
  }
},
{
  "type": "node",
  "id": 454143274,
  "lat": 46.4318411,
  "lon": 6.9788166,
  "tags": {
    "ele": "1970",
    "name": "Rochers de Naye",
    "operator": "MVR-mtgn",
    "public_transport": "station",
    "railway": "station",
    "uic_name": "Rochers-de-Naye",
    "uic_ref": "8501369",
    "wheelchair": "no",
    "wikidata": "Q33513804"
  }
},
{
  "type": "node",
  "id": 484308388,
  "lat": 47.5204592,
  "lon": 8.9329648,
  "tags": {
    "ele": "451",
    "name": "Matzingen",
    "operator": "AB",
    "public_transport": "station",
    "railway": "station",
    "railway:ref": "MATZ",
    "train": "yes",
    "uic_name": "Matzingen",
    "uic_ref": "8506174",
    "wheelchair": "yes",
    "wikidata": "Q33505389"
  }
},
{
  "type": "node",
  "id": 489946514,
  "lat": 47.6795604,
  "lon": 8.4639450,
  "tags": {
    "name": "Wilchingen-Hallau",
    "operator": "DB/SH",
    "railway": "station",
    "railway:position": "348.9",
    "railway:ref:DBAG": "RWIN",
    "uic_name": "Wilchingen-Hallau",
    "uic_ref": "8503466",
    "wheelchair": "yes",
    "wikidata": "Q9374306"
  }
},
{
  "type": "node",
  "id": 506196777,
  "lat": 46.4705017,
  "lon": 6.8719988,
  "tags": {
    "ele": "533",
    "name": "Saint-Légier-Gare",
    "operator": "MVR-cev",
    "railway": "station",
    "uic_name": "St-Légier-Gare",
    "uic_ref": "8501280",
    "wikidata": "Q33445596"
  }
},
{
  "type": "node",
  "id": 510822379,
  "lat": 46.2927334,
  "lon": 7.5298479,
  "tags": {
    "ele": "540",
    "name": "Sierre/Siders (funi)",
    "operator": "SMC",
    "public_transport": "station",
    "railway": "station",
    "station": "funicular",
    "train": "yes",
    "uic_name": "Sierre/Siders (funi)",
    "uic_ref": "8501590"
  }
},
{
  "type": "node",
  "id": 534853889,
  "lat": 46.3514097,
  "lon": 7.1545220,
  "tags": {
    "ele": "1155",
    "name": "Les Diablerets",
    "operator": "TPC",
    "operator:wikidata": "Q429547",
    "public_transport": "station",
    "railway": "station",
    "uic_name": "Les Diablerets",
    "uic_ref": "8501479",
    "wikidata": "Q33447609"
  }
},
{
  "type": "node",
  "id": 549315239,
  "lat": 47.4814615,
  "lon": 8.9918444,
  "tags": {
    "ele": "518",
    "name": "Münchwilen Pflegeheim",
    "operator": "AB",
    "public_transport": "station",
    "railway": "station",
    "railway:ref": "PFL",
    "train": "yes",
    "uic_name": "Münchwilen Pflegeheim",
    "uic_ref": "8506170",
    "wheelchair": "limited",
    "wikidata": "Q33505330"
  }
},
{
  "type": "node",
  "id": 549328645,
  "lat": 47.4923599,
  "lon": 8.9750409,
  "tags": {
    "ele": "487",
    "name": "Rosental",
    "operator": "AB",
    "public_transport": "station",
    "railway": "station",
    "railway:ref": "RTAL",
    "train": "yes",
    "uic_name": "Rosental",
    "uic_ref": "8506177",
    "wheelchair": "no",
    "wikidata": "Q33505444"
  }
},
{
  "type": "node",
  "id": 555006353,
  "lat": 46.4937558,
  "lon": 7.4217207,
  "tags": {
    "ele": "1023",
    "name": "Matten",
    "operator": "MOB",
    "railway": "station",
    "uic_name": "Matten i.S.",
    "uic_ref": "8507277",
    "wikidata": "Q33507683"
  }
},
{
  "type": "node",
  "id": 598706339,
  "lat": 47.3622292,
  "lon": 7.3489050,
  "tags": {
    "amenity": "bus_station",
    "bus": "yes",
    "ele": "413",
    "name": "Delémont Gare",
    "network": "Vagabond",
    "operator": "PAG",
    "public_transport": "station",
    "shelter": "yes",
    "uic_name": "Delémont, gare",
    "uic_ref": "8571965",
    "wheelchair": "yes"
  }
},
{
  "type": "node",
  "id": 603714630,
  "lat": 46.3392841,
  "lon": 7.0060422,
  "tags": {
    "ele": "1269",
    "name": "Leysin-Village",
    "operator": "TPC",
    "operator:wikidata": "Q429547",
    "railway": "station",
    "railway:ref": "LEYV",
    "uic_name": "Leysin-Village",
    "uic_ref": "8501481",
    "wheelchair": "yes",
    "wikidata": "Q33447665"
  }
},
{
  "type": "node",
  "id": 605081667,
  "lat": 47.4069830,
  "lon": 9.4506039,
  "tags": {
    "ele": "932",
    "name": "Bendlehn",
    "nat_name": "Speicher, Bendlehn",
    "network": "Ostwind",
    "network:wikidata": "Q2394207",
    "operator": "AB-tb",
    "public_transport": "station",
    "railway": "station",
    "train": "yes",
    "uic_name": "Bendlehn",
    "uic_ref": "8506367",
    "wikidata": "Q33506789"
  }
},
{
  "type": "node",
  "id": 618966755,
  "lat": 47.4775621,
  "lon": 8.3083013,
  "tags": {
    "amenity": "bus_station",
    "bus": "yes",
    "ele": "385",
    "name": "Baden, Postautostation",
    "operator": "PAG",
    "public_transport": "station",
    "uic_name": "Baden, Postautostation",
    "uic_ref": "8572550",
    "wheelchair": "limited"
  }
},
{
  "type": "node",
  "id": 623883948,
  "lat": 46.8096654,
  "lon": 9.8419690,
  "tags": {
    "bus": "yes",
    "ele": "1560",
    "name": "Bahnhof Davos Dorf",
    "network": "RhB",
    "network:wikidata": "Q2204412",
    "operator": "RhB",
    "operator:wikidata": "Q177598",
    "public_transport": "station",
    "railway": "station",
    "railway:ref": "DAD",
    "train": "yes",
    "uic_name": "Davos Dorf",
    "uic_ref": "8509072",
    "wheelchair": "limited",
    "wikidata": "Q5242109",
    "wikipedia": "en:Davos Dorf (Rhaetian Railway station)"
  }
},
{
  "type": "node",
  "id": 636798044,
  "lat": 47.3519349,
  "lon": 7.9075219,
  "tags": {
    "ele": "396",
    "internet_access": "wlan",
    "internet_access:fee": "no",
    "internet_access:operator": "SBB",
    "name": "Olten",
    "operator": "SBB",
    "platforms": "10",
    "public_transport": "station",
    "railway": "station",
    "railway:ref": "OL",
    "start_date": "1856-06-09",
    "uic_name": "Olten",
    "uic_ref": "8500218",
    "wheelchair": "yes",
    "wikidata": "Q29370",
    "wikipedia": "de:Bahnhof Olten"
  }
},
{
  "type": "node",
  "id": 639276682,
  "lat": 46.8883588,
  "lon": 6.5531786,
  "tags": {
    "ele": "769",
    "name": "Buttes",
    "operator": "TransN",
    "public_transport": "station",
    "railway": "station",
    "railway:ref": "BT",
    "uic_name": "Buttes",
    "uic_ref": "8504288",
    "wikidata": "Q33465164"
  }
},
{
  "type": "node",
  "id": 642989057,
  "lat": 46.2291706,
  "lon": 7.6096933,
  "tags": {
    "bench": "yes",
    "ele": "2182",
    "name": "Tignousa",
    "operator": "FLC",
    "public_transport": "station",
    "railway": "station",
    "uic_name": "Tignousa",
    "uic_ref": "8530143"
  }
},
{
  "type": "node",
  "id": 688686496,
  "lat": 46.9299512,
  "lon": 7.5627055,
  "tags": {
    "ele": "585",
    "name": "Worb Dorf",
    "network": "Libero",
    "operator": "RBS",
    "public_transport": "station",
    "railway": "station",
    "wheelchair": "limited",
    "wikidata": "Q33507172"
  }
},
{
  "type": "node",
  "id": 690893499,
  "lat": 46.1846490,
  "lon": 8.7298537,
  "tags": {
    "ele": "277",
    "name": "Verscio",
    "operator": "FART",
    "public_transport": "station",
    "railway": "station",
    "uic_name": "Verscio",
    "uic_ref": "8505492",
    "wikidata": "Q17637634"
  }
},
{
  "type": "node",
  "id": 696524685,
  "lat": 46.8991067,
  "lon": 6.7811233,
  "tags": {
    "ele": "451",
    "name": "Gorgier-Saint-Aubin",
    "operator": "SBB",
    "public_transport": "station",
    "railway": "station",
    "railway:ref": "GOR",
    "uic_name": "Gorgier-St-Aubin",
    "uic_ref": "8504205",
    "wheelchair": "limited",
    "wikidata": "Q15964139"
  }
},
{
  "type": "node",
  "id": 699886357,
  "lat": 46.6680510,
  "lon": 6.8023550,
  "tags": {
    "ele": "510",
    "name": "Moudon",
    "operator": "SBB",
    "public_transport": "station",
    "railway": "station",
    "railway:ref": "MD",
    "uic_name": "Moudon",
    "uic_ref": "8504120",
    "wikidata": "Q15964186"
  }
},
{
  "type": "node",
  "id": 701192319,
  "lat": 46.2737211,
  "lon": 7.0602493,
  "tags": {
    "ele": "1131",
    "name": "Gryon",
    "operator": "TPC",
    "operator:wikidata": "Q429547",
    "railway": "station",
    "uic_name": "Gryon",
    "uic_ref": "8501492",
    "wikidata": "Q33447900"
  }
},
{
  "type": "node",
  "id": 701206300,
  "lat": 46.2675394,
  "lon": 7.0559321,
  "tags": {
    "ele": "809",
    "name": "Fontannaz-Seulaz",
    "operator": "TPC",
    "operator:wikidata": "Q429547",
    "public_transport": "station",
    "railway": "station",
    "uic_name": "Fontannaz-Seulaz",
    "uic_ref": "8501490",
    "wikidata": "Q33447845"
  }
},
{
  "type": "node",
  "id": 717842510,
  "lat": 46.3369975,
  "lon": 7.0382892,
  "tags": {
    "ele": "863",
    "name": "Exergillod",
    "operator": "TPC",
    "operator:wikidata": "Q429547",
    "public_transport": "station",
    "railway": "station",
    "uic_name": "Exergillod",
    "uic_ref": "8501472",
    "wikidata": "Q33447447"
  }
},
{
  "type": "node",
  "id": 752487082,
  "lat": 47.0488041,
  "lon": 8.5477706,
  "tags": {
    "ele": "510",
    "layer": "2",
    "level": "1",
    "name": "Arth-Goldau Rigibahn",
    "operator": "RB",
    "public_transport": "station",
    "railway": "station",
    "train": "yes",
    "uic_name": "Arth-Goldau RB",
    "uic_ref": "8505063",
    "wheelchair": "yes",
    "wikidata": "Q668122",
    "wikipedia": "de:Arth-Rigi-Bahn"
  }
},
{
  "type": "node",
  "id": 762194590,
  "lat": 47.3688189,
  "lon": 8.8782140,
  "tags": {
    "ele": "639",
    "name": "Bauma",
    "operator": "SBB",
    "public_transport": "station",
    "railway": "station",
    "railway:ref": "BMA",
    "uic_name": "Bauma",
    "uic_ref": "8503134",
    "wheelchair": "yes",
    "wikidata": "Q10640358"
  }
},
{
  "type": "node",
  "id": 776949252,
  "lat": 46.1651656,
  "lon": 8.6491414,
  "tags": {
    "ele": "534",
    "name": "Verdasio",
    "operator": "FART",
    "public_transport": "station",
    "railway": "station",
    "uic_name": "Verdasio",
    "uic_ref": "8505496",
    "wikidata": "Q17637629"
  }
},
{
  "type": "node",
  "id": 866735362,
  "lat": 45.8324857,
  "lon": 9.0337229,
  "tags": {
    "amenity": "bus_station",
    "bus": "yes",
    "ele": "232",
    "highway": "bus_stop",
    "name": "Chiasso, Confine",
    "operator": "AMSA",
    "public_transport": "platform",
    "uic_name": "Chiasso, Confine",
    "uic_ref": "8587123"
  }
},
{
  "type": "node",
  "id": 895754187,
  "lat": 46.9638389,
  "lon": 7.4336584,
  "tags": {
    "alt_name": "Flixbus Bern",
    "amenity": "bus_station",
    "bus": "yes",
    "name": "Car-Terminal Neufeld",
    "public_transport": "station",
    "uic_name": "Bern, Car-Terminal Neufeld",
    "uic_ref": "8502048",
    "wheelchair": "no"
  }
},
{
  "type": "node",
  "id": 956231542,
  "lat": 46.5876218,
  "lon": 8.4645326,
  "tags": {
    "ele": "1846",
    "name": "Tiefenbach DFB",
    "operator": "DFB",
    "railway": "station",
    "uic_name": "Tiefenbach DFB",
    "uic_ref": "8530613",
    "wikidata": "Q7800985"
  }
},
{
  "type": "node",
  "id": 959673351,
  "lat": 46.5762103,
  "lon": 8.4284047,
  "tags": {
    "ele": "2160",
    "name": "Furka DFB",
    "operator": "DFB",
    "railway": "station",
    "uic_name": "Furka DFB",
    "uic_ref": "8530614",
    "wikidata": "Q5509558"
  }
},
{
  "type": "node",
  "id": 961688933,
  "lat": 47.5580297,
  "lon": 8.8969035,
  "tags": {
    "amenity": "bus_station",
    "bench": "yes",
    "bin": "yes",
    "bus": "yes",
    "ele": "405",
    "highway": "bus_stop",
    "lit": "yes",
    "name": "Frauenfeld, Bahnhof",
    "network": "Ostwind",
    "network:wikidata": "Q2394207",
    "operator": "PAG",
    "public_transport": "station",
    "shelter": "yes",
    "tactile_paving": "no",
    "uic_name": "Frauenfeld, Bahnhof",
    "uic_ref": "8573375",
    "wheelchair": "yes"
  }
},
{
  "type": "node",
  "id": 983788188,
  "lat": 46.6172690,
  "lon": 6.4111820,
  "tags": {
    "ele": "666",
    "name": "L'Isle",
    "operator": "MBC",
    "public_transport": "station",
    "railway": "station",
    "railway:ref": "ISLE",
    "uic_name": "L'Isle",
    "uic_ref": "8501099",
    "wikidata": "Q3098113"
  }
},
{
  "type": "node",
  "id": 983805184,
  "lat": 46.8508760,
  "lon": 6.7231660,
  "tags": {
    "ele": "435",
    "name": "Concise",
    "operator": "SBB",
    "public_transport": "station",
    "railway": "station",
    "railway:ref": "CC",
    "uic_name": "Concise",
    "uic_ref": "8504203",
    "wikidata": "Q15964089"
  }
},
{
  "type": "node",
  "id": 983828546,
  "lat": 46.0526060,
  "lon": 7.1487826,
  "tags": {
    "ele": "818",
    "name": "La Douay",
    "operator": "TMR-mo",
    "public_transport": "station",
    "railway": "station",
    "railway:ref": "DOUY",
    "uic_name": "La Douay",
    "uic_ref": "8501577",
    "wikidata": "Q2365843"
  }
},
{
  "type": "node",
  "id": 983835278,
  "lat": 46.4705851,
  "lon": 7.4354933,
  "tags": {
    "ele": "1037",
    "name": "Boden",
    "operator": "MOB",
    "railway": "station",
    "source": "Bundesamt für Verkehr (BAV), DIDOK 2009",
    "uic_name": "Boden",
    "uic_ref": "8507278",
    "wikidata": "Q33507693"
  }
},
{
  "type": "node",
  "id": 983835725,
  "lat": 46.2435864,
  "lon": 6.9300380,
  "tags": {
    "ele": "687",
    "name": "Chemex",
    "operator": "TPC",
    "operator:wikidata": "Q429547",
    "public_transport": "station",
    "railway": "station",
    "uic_name": "Chemex",
    "uic_ref": "8501456",
    "wikidata": "Q33447003"
  }
},
{
  "type": "node",
  "id": 983835733,
  "lat": 46.2912990,
  "lon": 7.0628163,
  "tags": {
    "ele": "1231",
    "name": "Arveyes",
    "operator": "TPC",
    "operator:wikidata": "Q429547",
    "public_transport": "station",
    "railway": "station",
    "uic_name": "Arveyes",
    "uic_ref": "8501494",
    "wikidata": "Q33447953"
  }
},
{
  "type": "node",
  "id": 983848011,
  "lat": 46.6214930,
  "lon": 6.8499576,
  "tags": {
    "ele": "757",
    "name": "Vauderens",
    "operator": "SBB",
    "public_transport": "station",
    "railway": "station",
    "railway:ref": "VD",
    "source": "Bundesamt für Verkehr (BAV), DIDOK 2009",
    "uic_name": "Vauderens",
    "uic_ref": "8504021",
    "wikidata": "Q15964278"
  }
},
{
  "type": "node",
  "id": 983858469,
  "lat": 46.9659175,
  "lon": 6.8652664,
  "tags": {
    "ele": "440",
    "name": "Colombier Littorail",
    "operator": "TRN",
    "public_transport": "station",
    "railway": "station",
    "railway:ref": "CNLI",
    "uic_name": "Colombier NE Littorail",
    "uic_ref": "8504325",
    "wikidata": "Q33465643",
    "wikimedia_commons": "Category:Colombier NE Littorail railway station"
  }
},
{
  "type": "node",
  "id": 983969271,
  "lat": 47.0202424,
  "lon": 7.4977237,
  "tags": {
    "ele": "526",
    "name": "Schönbühl RBS",
    "network": "Libero",
    "operator": "RBS",
    "railway": "station",
    "railway:ref": "SCBS",
    "uic_name": "Schönbühl RBS",
    "uic_ref": "8508057",
    "wheelchair": "yes",
    "wikidata": "Q33509018"
  }
},
{
  "type": "node",
  "id": 983969299,
  "lat": 47.0619064,
  "lon": 7.7497742,
  "tags": {
    "ele": "735",
    "name": "Affoltern-Weier",
    "operator": "ETB",
    "public_transport": "station",
    "railway": "station",
    "railway:ref": "AFWE",
    "train": "yes",
    "wheelchair": "yes",
    "wikidata": "Q800359"
  }
},
{
  "type": "node",
  "id": 984013992,
  "lat": 46.8699606,
  "lon": 8.3720851,
  "tags": {
    "ele": "573",
    "name": "Grafenort",
    "operator": "ZB",
    "public_transport": "station",
    "railway": "station",
    "railway:ref": "GRAF",
    "uic_name": "Grafenort",
    "uic_ref": "8508396",
    "wikidata": "Q5592445"
  }
},
{
  "type": "node",
  "id": 984704286,
  "lat": 46.6983690,
  "lon": 9.4400794,
  "tags": {
    "amenity": "bus_station",
    "bus": "yes",
    "covered": "yes",
    "ele": "722",
    "fixme": "please check exact position of platforms and their name",
    "lit": "yes",
    "name": "Thusis Bahnhof",
    "operator": "PAG",
    "public_transport": "station",
    "tactile_paving": "no",
    "uic_name": "Thusis, Bahnhof",
    "uic_ref": "8580179",
    "wheelchair": "yes"
  }
},
{
  "type": "node",
  "id": 984707860,
  "lat": 46.7751075,
  "lon": 9.2075757,
  "tags": {
    "amenity": "bus_station",
    "bench": "no",
    "bin": "no",
    "bus": "yes",
    "ele": "702",
    "highway": "bus_stop",
    "name": "Ilanz, Bahnhof/Post",
    "operator": "PAG",
    "public_transport": "station",
    "shelter": "yes",
    "tactile_paving": "no",
    "uic_name": "Ilanz, Bahnhof/Post",
    "uic_ref": "8575120",
    "wheelchair": "yes"
  }
},
{
  "type": "node",
  "id": 984714031,
  "lat": 46.8533397,
  "lon": 9.5299153,
  "tags": {
    "amenity": "bus_station",
    "bus": "yes",
    "ele": "585",
    "name": "Bahnhofplatz",
    "operator": "Chur Bus",
    "public_transport": "station",
    "uic_name": "Chur, Bahnhofplatz",
    "uic_ref": "8581044",
    "wheelchair": "limited"
  }
},
{
  "type": "node",
  "id": 984733167,
  "lat": 47.2636917,
  "lon": 9.1210144,
  "tags": {
    "ele": "630",
    "name": "Ebnat-Kappel",
    "public_transport": "station",
    "railway": "station",
    "shelter": "yes",
    "uic_name": "Ebnat-Kappel",
    "uic_ref": "8506297",
    "wheelchair": "yes",
    "wikidata": "Q33506377"
  }
},
{
  "type": "node",
  "id": 984734050,
  "lat": 47.3376839,
  "lon": 9.1304190,
  "tags": {
    "ele": "654",
    "name": "Brunnadern-Neckertal",
    "operator": "SOB",
    "public_transport": "station",
    "railway": "station",
    "railway:ref": "BRN",
    "request_stop": "yes",
    "uic_name": "Brunnadern-Neckertal",
    "uic_ref": "8506294",
    "wikidata": "Q33506366"
  }
},
{
  "type": "node",
  "id": 984740011,
  "lat": 47.0935990,
  "lon": 8.6693795,
  "tags": {
    "ele": "936",
    "name": "Biberegg",
    "network": "TVSZ",
    "operator": "SOB",
    "public_transport": "station",
    "railway": "station",
    "railway:ref": "BIGG",
    "uic_name": "Biberegg",
    "uic_ref": "8503290",
    "wheelchair": "yes",
    "wikidata": "Q15964054"
  }
},
{
  "type": "node",
  "id": 984751856,
  "lat": 47.5176340,
  "lon": 9.3370236,
  "tags": {
    "ele": "479",
    "name": "Muolen",
    "operator": "SOB",
    "public_transport": "station",
    "railway": "station",
    "railway:ref": "MUO",
    "uic_name": "Muolen",
    "uic_ref": "8506396",
    "wikidata": "Q33507054"
  }
},
{
  "type": "node",
  "id": 984751870,
  "lat": 47.5315810,
  "lon": 9.3498909,
  "tags": {
    "ele": "448",
    "name": "Steinebrunn",
    "operator": "SOB",
    "public_transport": "station",
    "railway": "station",
    "railway:ref": "STB",
    "uic_name": "Steinebrunn",
    "uic_ref": "8506397",
    "wikidata": "Q33507064",
    "wikimedia_commons": "Category:Steinebrunn railway station",
    "wikipedia": "en:Steinebrunn railway station"
  }
},
{
  "type": "node",
  "id": 984762323,
  "lat": 47.3127233,
  "lon": 8.6741608,
  "tags": {
    "ele": "604",
    "light_rail": "yes",
    "name": "Neuhaus bei Hinteregg",
    "operator": "FB",
    "public_transport": "station",
    "railway": "station",
    "railway:ref": "NHBH",
    "station": "light_rail",
    "toilets:wheelchair": "no",
    "uic_name": "Neuhaus bei Hinteregg",
    "uic_ref": "8503072",
    "wheelchair": "yes",
    "wikidata": "Q33456040"
  }
},
{
  "type": "node",
  "id": 1059035581,
  "lat": 46.6368399,
  "lon": 8.5933287,
  "tags": {
    "ele": "1436",
    "name": "Andermatt",
    "operator": "MGB",
    "public_transport": "station",
    "railway": "station",
    "train": "yes",
    "uic_name": "Andermatt",
    "uic_ref": "8505165",
    "wheelchair": "yes",
    "wikidata": "Q4753704",
    "wikimedia_commons": "Category:Andermatt railway station",
    "wikipedia": "de:Bahnhof Andermatt"
  }
},
{
  "type": "node",
  "id": 1060554622,
  "lat": 47.3684437,
  "lon": 8.5608667,
  "tags": {
    "ele": "445",
    "name": "Römerhof",
    "nat_name": "Zürich, Römerhof",
    "network": "ZVV",
    "operator": "VBZ/DBZ",
    "public_transport": "stop_position",
    "railway": "station",
    "ref": "2124",
    "ref_name": "Zürich, Römerhof",
    "train": "yes",
    "uic_name": "Zürich, Römerhof (DBZ)",
    "uic_ref": "8519525",
    "wheelchair": "yes"
  }
},